,Heading,Pitch,Roll,Gyro_X,Gyro_Y,Gyro_Z,Acc_X,Acc_Y,Acc_Z,Magn_X,Magn_Y,Magn_Z,Temperature,Vdd,USW (L/H),Latitude,Longitude,Altitude,V_East,V_North,V_Up,Heave,Surge,Sway,V_Heave,V_Surge,V_Sway,Lat_GNSS,Long_GNSS,Height_GNSS,Hor_spd,Trk_gnd,Ver_spd,ms_gps,GPS_Week,GNSS_info_1,GNSS_info_2,#solnSVs,V_latency,anglesPosType,Heading_GNSS,Latency_ms_head,Latency_ms_pos,Latency_ms_vel,P_Bar,H_Bar,New_GPS
5748,61.73,4.65,-9.602,15.32811,10.03773,12.81932,0.068886,-0.011258,1.023003,3790.0,4330.0,3240.0,47.1,10.12,00000000 00000000,32.82588724,34.95648142,23.872,-1.44,0.09,0.04,0.49,-4.77,0.52,-0.04,-1.37,-0.66,32.825862243,34.956490664,23.907,0.15,21.53,-0.04,307508670,2172,1000,11110000,19,25,100,0.0,0,20,20,100806,22.22,3
5749,61.286,4.954,-9.369,14.16076,11.4208,17.932,0.07989,-0.017351,1.015098,3770.0,4350.0,3140.0,47.1,10.08,00000000 00000000,32.825887263,34.956481029,23.873,-1.47,0.1,0.04,0.49,-4.78,0.52,-0.04,-1.4,-0.68,32.825862243,34.956490664,23.907,0.15,21.53,-0.04,307508695,2172,1000,11110000,19,25,100,0.0,0,45,45,100806,22.3,0
5750,60.725,5.1979999999999995,-9.145,12.400260000000001,10.017610000000001,22.917289999999998,0.103352,-0.014509999999999999,1.004041,3750.0,4380.0,3050.0,47.1,10.13,00000000 00000000,32.825887287,34.95648063,23.874,-1.5,0.1,0.04,0.49,-4.8,0.52,-0.04,-1.42,-0.7,32.825862321,34.956490664,23.9,0.17,0.36,-0.13,307508720,2172,1000,11110000,19,25,100,0.0,0,20,20,100806,22.3,3
5751,60.071999999999996,5.393,-8.997,11.37932,6.43242,25.52476,0.120573,-0.029088,0.9924540000000001,3760.0,4400.0,2980.0,47.1,10.09,00000000 00000000,32.82588731,34.956480224,23.875,-1.53,0.1,0.04,0.49,-4.81,0.51,-0.04,-1.44,-0.71,32.825862321,34.956490664,23.9,0.17,0.36,-0.13,307508745,2172,1000,11110000,19,25,100,0.0,0,45,45,100804,22.47,0
5752,59.391999999999996,5.568,-8.955,11.01253,2.29283,25.412689999999998,0.118646,-0.041437,0.971425,3780.0,4440.0,2930.0,47.1,10.11,00000000 00000000,32.825887332,34.956479809,23.876,-1.56,0.09,0.04,0.49,-4.83,0.51,-0.04,-1.47,-0.71,32.825862396,34.956490705,23.9,0.18,24.58,0.0,307508770,2172,1000,11110000,19,25,100,0.0,0,20,20,100804,22.47,3
5753,58.739,5.749,-9.024,11.43702,-3.11825,23.586560000000002,0.119583,-0.012,0.931458,3820.0,4470.0,2880.0,47.1,10.09,00000000 00000000,32.825887351,34.956479386999995,23.877,-1.59,0.08,0.03,0.49,-4.84,0.5,-0.03,-1.49,-0.72,32.825862396,34.956490705,23.9,0.18,24.58,0.0,307508795,2172,1000,11110000,19,25,100,0.0,0,45,45,100804,22.47,0
5754,58.144,5.955,-9.24,12.23595,-8.95083,20.60279,0.108179,-0.001066,0.9095059999999999,3870.0,4510.0,2850.0,47.1,10.1,00000000 00000000,32.825887369,34.956478957,23.878,-1.61,0.07,0.01,0.49,-4.86,0.5,-0.01,-1.51,-0.73,32.825862535,34.956490728,23.891,0.31,7.9,-0.18,307508820,2172,1000,11110000,19,25,100,0.0,0,20,20,100804,22.47,3
5755,57.574,6.167999999999999,-9.596,11.76193,-14.185479999999998,22.3632,0.092317,-0.0034969999999999997,0.9132129999999999,3930.0,4540.0,2840.0,47.1,10.08,00000000 00000000,32.825887385,34.956478521,23.878,-1.64,0.06,0.0,0.49,-4.87,0.5,0.0,-1.53,-0.73,32.825862535,34.956490728,23.891,0.31,7.9,-0.18,307508845,2172,1000,11110000,19,25,100,0.0,0,45,45,100804,22.39,0
5756,56.908,6.343999999999999,10.057,11.29747,-16.41398,27.821409999999997,0.060022000000000006,-0.005588,0.935001,4030.0,4550.0,2790.0,47.1,10.12,00000000 00000000,32.8258874,34.956478078,23.878,-1.67,0.07,-0.02,0.49,-4.89,0.49,0.02,-1.55,-0.75,32.825862798,34.956490858,23.807,0.63,22.66,-1.67,307508870,2172,1000,11110000,18,25,100,0.0,0,20,20,100804,22.39,3
5757,56.08,6.499,10.564,13.14215,-16.4504,34.94467,0.039622000000000004,0.005762,0.9623079999999999,4150.0,4560.0,2740.0,47.1,10.07,00000000 00000000,32.825887417,34.956477625,23.877,-1.71,0.08,-0.04,0.49,-4.9,0.49,0.04,-1.58,-0.78,32.825862798,34.956490858,23.807,0.63,22.66,-1.67,307508895,2172,1000,11110000,18,25,100,0.0,0,45,45,100804,22.39,0
5758,55.051,6.684,11.083,16.940920000000002,-14.992510000000001,42.46358,0.026405,0.031267,0.980564,4280.0,4590.0,2720.0,47.1,10.12,00000000 00000000,32.825887437,34.956477163,23.876,-1.74,0.09,-0.05,0.49,-4.91,0.48,0.05,-1.59,-0.81,32.825862982,34.95649111,23.786,0.62,49.04,-0.42,307508920,2172,1000,11110000,18,25,100,0.0,0,20,20,100806,22.3,3
5759,53.845,6.912999999999999,11.548,19.42021,-10.591330000000001,47.3155,0.002053,0.01048,0.983951,4430.0,4630.0,2680.0,47.1,10.09,00000000 00000000,32.825887462,34.956476689,23.874,-1.79,0.11,-0.06,0.49,-4.93,0.48,0.06,-1.61,-0.85,32.825862982,34.95649111,23.786,0.62,49.04,-0.42,307508945,2172,1000,11110000,18,25,100,0.0,0,45,45,100804,22.39,0
5760,52.56,7.147,11.933,19.20755,-7.8364,47.9271,-0.005314,-0.014705000000000001,0.989815,4570.0,4670.0,2650.0,47.1,10.08,00000000 00000000,32.825887490999996,34.956476203,23.873,-1.84,0.13,-0.07,0.49,-4.94,0.47,0.07,-1.63,-0.9,32.82586313,34.956491183000004,23.759,0.35,22.59,-0.53,307508970,2172,1000,11110000,18,25,100,0.0,0,20,20,100804,22.39,3
5761,51.327,7.364,12.24,18.618370000000002,-4.44035,43.4374,0.007679999999999999,0.00411,0.9960450000000001,4720.0,4720.0,2600.0,47.1,10.08,00000000 00000000,32.825887524,34.956475703,23.871,-1.89,0.16,-0.07,0.49,-4.96,0.47,0.08,-1.66,-0.95,32.82586313,34.956491183000004,23.759,0.35,22.59,-0.53,307508995,2172,1000,11110000,18,25,100,0.0,0,45,45,100804,22.39,0
5762,50.244,7.605,12.465,18.69104,-2.40828,36.02545,0.002897,0.019030000000000002,0.9948620000000001,4840.0,4790.0,2590.0,47.1,10.08,00000000 00000000,32.825887563,34.956475188,23.869,-1.95,0.18,-0.08,0.49,-4.97,0.47,0.08,-1.69,-1.0,32.825863458,34.956491501,23.757,0.35,22.59,-0.53,307509020,2172,1000,11110000,16,25,100,0.0,0,20,70,100806,22.3,1
5763,49.35,7.872000000000001,12.633,17.59688,-1.21994,28.383159999999997,0.012776000000000001,0.032296,0.989009,4950.0,4840.0,2540.0,47.1,10.1,00000000 00000000,32.825887606,34.956474658000005,23.866,-2.0,0.2,-0.09,0.49,-4.99,0.46,0.09,-1.71,-1.05,32.825863458,34.956491501,23.757,0.94,39.29,-0.04,307509045,2172,1000,11110000,16,25,100,0.0,0,45,45,100804,22.47,2
5764,48.655,8.172,12.739,18.634420000000002,0.51961,20.117739999999998,0.021485,0.053034000000000005,0.987323,5040.0,4870.0,2480.0,47.1,10.1,00000000 00000000,32.825887654,34.956474115,23.864,-2.05,0.22,-0.1,0.49,-5.0,0.46,0.1,-1.72,-1.09,32.825863648,34.956491453000005,23.725,0.43,347.98,-0.65,307509070,2172,1000,11110000,20,25,100,0.0,0,20,20,100804,22.47,3
5765,48.15,8.566,12.767000000000001,20.27821,2.57056,12.74155,0.022615,0.060614,0.953026,5110.0,4890.0,2420.0,47.1,10.05,00000000 00000000,32.825887707,34.95647356,23.861,-2.09,0.24,-0.11,0.49,-5.02,0.45,0.11,-1.74,-1.14,32.825863648,34.956491453000005,23.725,0.43,347.98,-0.65,307509095,2172,1000,11110000,20,25,100,0.0,0,45,45,100804,22.47,0
5766,47.723,8.936,12.81,14.454260000000001,-0.70021,15.18441,0.041149,0.053551,0.951168,5140.0,4910.0,2380.0,47.2,10.12,00000000 00000000,32.825887764,34.956472994,23.858,-2.13,0.26,-0.13,0.49,-5.03,0.45,0.13,-1.75,-1.18,32.825864053000004,34.956491711999995,23.667,1.02,28.44,-1.15,307509120,2172,1000,11110000,19,25,100,0.0,0,20,20,100804,22.47,3
5767,47.213,9.048,12.862,3.72626,5.2925,22.20741,0.029764999999999996,0.06329,1.020986,5180.0,4940.0,2360.0,47.2,10.08,00000000 00000000,32.825887824,34.956472415,23.855,-2.18,0.27,-0.14,0.49,-5.05,0.44,0.14,-1.77,-1.22,32.825864053000004,34.956491711999995,23.667,1.02,28.44,-1.15,307509145,2172,1000,11110000,19,25,100,0.0,0,45,45,100804,22.39,0
5768,46.605,8.947000000000001,12.652000000000001,0.62745,18.76241,25.675,0.115381,0.168973,1.176447,5210.0,5000.0,2370.0,47.2,10.1,00000000 00000000,32.825887889,34.956471824,23.851,-2.22,0.3,-0.11,0.49,-5.06,0.44,0.12,-1.78,-1.26,32.825864068,34.956492278,23.476,1.05,88.26,-3.81,307509170,2172,1000,11110000,17,25,100,0.0,0,20,20,100804,22.39,3
5769,45.945,8.867,12.189,5.1446,25.05821,26.03739,0.24466,0.255617,1.33239,5240.0,5060.0,2390.0,47.2,10.08,00000000 00000000,32.825887959,34.956471227,23.849,-2.23,0.31,-0.04,0.49,-5.07,0.43,0.06,-1.77,-1.28,32.825864068,34.956492278,23.476,1.05,88.26,-3.81,307509195,2172,1000,11110000,17,25,100,0.0,0,45,45,100804,22.39,0
5770,45.33,8.929,11.669,8.99187,22.02745,19.6882,0.33275,0.272856,1.3567870000000002,5240.0,5110.0,2400.0,47.2,10.09,00000000 00000000,32.825888031999995,34.956470629,23.849,-2.22,0.32,0.05,0.49,-5.09,0.43,-0.03,-1.76,-1.28,32.825864694,34.956492007,23.586,1.47,339.91,2.18,307509220,2172,1000,11110000,17,25,100,0.0,0,20,20,100804,22.39,3
5771,44.888999999999996,9.09,11.35,10.54392,8.13931,11.85806,0.377603,0.216798,1.354183,5230.0,5150.0,2410.0,47.2,10.07,00000000 00000000,32.825888105,34.956470036999995,23.852,-2.2,0.31,0.15,0.49,-5.1,0.42,-0.14,-1.74,-1.25,32.825864694,34.956492007,23.586,1.47,339.91,2.18,307509245,2172,1000,11110000,17,25,100,0.0,0,45,45,100804,22.47,0
5772,44.61600000000001,9.337,11.377,12.799660000000001,-6.8357399999999995,5.992319999999999,0.344376,0.144026,1.29954,5240.0,5170.0,2390.0,47.2,10.11,00000000 00000000,32.825888173,34.956469449000004,23.857,-2.19,0.29,0.25,0.49,-5.12,0.42,-0.24,-1.75,-1.23,32.825864694,34.956492007,23.586,1.47,339.91,2.18,307509270,2172,1000,11110000,17,25,100,0.0,0,70,70,100804,22.47,0
5773,44.45,9.597999999999999,11.759,8.49688,-20.72201,3.0032,0.272564,0.085877,1.198251,5290.0,5140.0,2290.0,47.2,10.08,00000000 00000000,32.825888235,34.956468862,23.864,-2.19,0.26,0.32,0.49,-5.13,0.41,-0.31,-1.77,-1.21,32.825864274000004,34.956493404,23.179,2.77,109.58,-8.12,307509295,2172,1000,10000,6,25,100,0.0,0,45,45,100804,22.47,3
5774,44.395,9.676,12.347999999999999,-1.33673,-22.2745,-0.24849000000000002,0.205377,0.08638,1.14394,5350.0,5130.0,2200.0,47.2,10.09,00000000 00000000,32.825888291999995,34.956468271,23.873,-2.22,0.24,0.37,0.49,-5.15,0.41,-0.36,-1.79,-1.2,32.825864628000005,34.956493615999996,23.123,0.87,26.81,-1.12,307509320,2172,1000,11110000,22,25,100,0.0,0,20,20,100804,22.47,3
5775,44.458,9.596,12.753,-4.84301,-9.91537,-2.60755,0.15691,0.145857,1.0501120000000002,5390.0,5130.0,2140.0,47.2,10.07,00000000 00000000,32.825888346,34.956467673,23.883,-2.24,0.23,0.4,0.49,-5.16,0.4,-0.39,-1.8,-1.22,32.825864628000005,34.956493615999996,23.123,0.87,26.81,-1.12,307509345,2172,1000,11110000,22,25,100,0.0,0,45,45,100804,22.39,0
5776,44.553999999999995,9.5,12.82,-4.132619999999999,2.9018,-2.98484,0.131012,0.198561,0.9329770000000001,5400.0,5130.0,2150.0,47.1,10.09,00000000 00000000,32.825888401,34.956467071999995,23.893,-2.25,0.25,0.4,0.49,-5.18,0.4,-0.39,-1.8,-1.23,32.82586483,34.956493785999996,23.17,0.54,35.33,0.94,307509370,2172,1000,11110000,21,25,100,0.0,0,20,20,100804,22.47,3
5777,44.663000000000004,9.411,12.589,-5.32163,13.81045,-4.01611,0.10781400000000001,0.20452,0.879749,5380.0,5120.0,2150.0,47.1,10.09,00000000 00000000,32.82588846,34.956466468,23.903,-2.25,0.27,0.38,0.49,-5.19,0.39,-0.37,-1.78,-1.25,32.82586483,34.956493785999996,23.17,0.54,35.33,0.94,307509395,2172,1000,11110000,21,25,100,0.0,0,45,45,100804,22.39,0
5778,44.809,9.247,12.13,-10.3896,19.42959,-3.4120699999999995,0.13259,0.190026,0.827933,5320.0,5130.0,2190.0,47.1,10.1,00000000 00000000,32.825888525,34.956465864,23.912,-2.25,0.29,0.35,0.49,-5.21,0.39,-0.34,-1.76,-1.26,32.825865045,34.956493884000004,23.188,0.51,21.01,0.35,307509420,2172,1000,11110000,20,25,100,0.0,0,20,20,100804,22.47,3
5779,44.894,8.939,11.649000000000001,-14.76405,17.18234,2.39105,0.160109,0.16966199999999998,0.792025,5250.0,5140.0,2250.0,47.1,10.09,00000000 00000000,32.825888593,34.956465261,23.921,-2.25,0.3,0.31,0.49,-5.22,0.38,-0.3,-1.74,-1.26,32.825865045,34.956493884000004,23.188,0.51,21.01,0.35,307509445,2172,1000,11110000,20,25,100,0.0,0,45,45,100802,22.55,0
5780,44.827,8.538,11.267999999999999,-14.851820000000002,14.914589999999999,8.73435,0.152393,0.144977,0.771256,5190.0,5160.0,2330.0,47.1,10.1,00000000 00000000,32.825888663,34.956464659,23.928,-2.24,0.31,0.27,0.48,-5.24,0.38,-0.26,-1.73,-1.26,32.825865275,34.956494119,23.248,0.67,40.8,1.19,307509470,2172,1000,11110000,17,25,100,0.0,0,20,20,100804,22.39,3
5781,44.61,8.151,10.922,-12.17962,15.289270000000002,14.32484,0.119821,0.144511,0.732593,5140.0,5180.0,2430.0,47.1,10.09,00000000 00000000,32.825888735,34.956464059,23.934,-2.23,0.31,0.22,0.48,-5.25,0.37,-0.2,-1.72,-1.26,32.825865275,34.956494119,23.248,0.67,40.8,1.19,307509495,2172,1000,11110000,17,25,100,0.0,0,45,45,100804,22.39,0
5782,44.245,7.813,10.592,-8.87076,15.230379999999998,18.37913,0.093984,0.14235699999999998,0.726214,5080.0,5220.0,2550.0,47.1,10.11,00000000 00000000,32.825888808,34.956463461,23.939,-2.23,0.33,0.15,0.48,-5.27,0.37,-0.14,-1.7,-1.26,32.825865811,34.956494061,23.175,1.19,354.79,-1.47,307509520,2172,1000,11110000,17,25,100,0.0,0,20,20,100804,22.39,3
5783,43.851000000000006,7.557,10.248,-5.35901,17.37872,14.75501,0.082486,0.149565,0.769072,5050.0,5240.0,2590.0,47.1,10.1,00000000 00000000,32.825888884,34.956462863,23.942,-2.23,0.34,0.1,0.48,-5.28,0.36,-0.08,-1.68,-1.27,32.825865811,34.956494061,23.175,1.19,354.79,-1.47,307509545,2172,1000,11110000,17,25,100,0.0,0,45,45,100806,22.3,0
5784,43.581,7.42,-9.827,-1.8345599999999997,18.281679999999998,8.87314,0.095846,0.14873699999999998,0.792086,4990.0,5260.0,2600.0,47.1,10.11,00000000 00000000,32.825888964,34.956462264,23.944,-2.23,0.36,0.05,0.48,-5.3,0.35,-0.03,-1.67,-1.28,32.825866209000004,34.956494235,23.11,0.94,20.28,-1.28,307509570,2172,1000,11110000,15,25,100,0.0,0,20,20,100806,22.3,3
5785,43.387,7.381,-9.418,1.18096,15.87855,7.66431,0.10366900000000001,0.153121,0.825283,4950.0,5290.0,2550.0,47.1,10.08,00000000 00000000,32.825889047,34.956461667,23.945,-2.23,0.37,0.0,0.48,-5.31,0.35,0.0,-1.65,-1.28,32.825866209000004,34.956494235,23.11,0.94,20.28,-1.28,307509595,2172,1000,11110000,15,25,100,0.0,0,45,45,100806,22.3,0
5786,43.195,7.399,-9.105,2.1249,10.694189999999999,6.796539999999999,0.10016,0.143182,0.868099,4920.0,5330.0,2530.0,47.1,10.12,00000000 00000000,32.825889133000004,34.95646107,23.945,-2.23,0.38,-0.02,0.48,-5.33,0.34,0.03,-1.64,-1.28,32.825866429,34.956494109,23.017,0.54,334.22,-1.86,307509620,2172,1000,11110000,15,25,100,0.0,0,20,20,100806,22.22,3
5787,43.047,7.4110000000000005,-8.927,0.60114,5.96025,4.56663,0.081635,0.111272,0.928103,4900.0,5370.0,2500.0,47.1,10.08,00000000 00000000,32.825889221,34.956460473,23.944,-2.23,0.39,-0.04,0.48,-5.34,0.34,0.06,-1.63,-1.29,32.825866429,34.956494109,23.017,0.54,334.22,-1.86,307509645,2172,1000,11110000,15,25,100,0.0,0,45,45,100806,22.3,0
5788,42.941,7.398,-8.779,-0.28383,8.342039999999999,4.472659999999999,0.053204999999999995,0.07795099999999999,0.9468059999999999,4880.0,5420.0,2520.0,47.1,10.08,00000000 00000000,32.825889311,34.956459873,23.942,-2.25,0.4,-0.05,0.48,-5.36,0.33,0.07,-1.63,-1.31,32.825866511,34.956494168,22.954,0.21,31.16,-1.26,307509670,2172,1000,11110000,14,25,100,0.0,0,20,20,100806,22.3,3
5789,42.799,7.353,-8.525,-2.0951299999999997,12.89771,7.224489999999999,0.038954,0.070825,0.9262,4890.0,5460.0,2490.0,47.1,10.08,00000000 00000000,32.825889403000005,34.956459267,23.941,-2.27,0.41,-0.07,0.48,-5.37,0.32,0.08,-1.63,-1.33,32.825866511,34.956494168,22.954,0.21,31.16,-1.26,307509695,2172,1000,11110000,14,25,100,0.0,0,45,45,100804,22.39,0
5790,42.613,7.215,-8.215,-6.87603,12.92034,8.77731,0.026527999999999996,0.062525,0.921834,4910.0,5510.0,2480.0,47.1,10.15,00000000 00000000,32.825889497,34.956458654,23.939,-2.3,0.41,-0.09,0.48,-5.39,0.32,0.1,-1.64,-1.35,32.825866861,34.956494,22.77,0.83,337.9,-3.66,307509720,2172,1000,11110000,13,25,100,0.0,0,20,20,100804,22.39,3
5791,42.428000000000004,6.957000000000001,-7.944,-11.12689,10.292589999999999,8.7301,0.017025,0.074639,0.949715,4930.0,5590.0,2490.0,47.1,10.09,00000000 00000000,32.825889591999996,34.956458035,23.936,-2.32,0.42,-0.11,0.48,-5.4,0.31,0.12,-1.65,-1.37,32.825866861,34.956494,22.77,0.83,337.9,-3.66,307509745,2172,1000,11110000,13,25,100,0.0,0,45,45,100806,22.22,0
5792,42.243,6.6370000000000005,-7.7410000000000005,-11.33548,7.94463,9.54122,0.038711,0.096091,1.053436,4940.0,5680.0,2530.0,47.1,10.1,00000000 00000000,32.825889689,34.956457409,23.933,-2.35,0.43,-0.11,0.48,-5.42,0.3,0.12,-1.65,-1.39,32.825867344,34.95649402,22.746,1.07,2.02,-0.48,307509770,2172,1000,11110000,13,25,100,0.0,0,20,20,100804,22.39,3
5793,42.019,6.3629999999999995,-7.587999999999999,-7.77291,6.9813600000000005,10.85559,0.062149,0.10819200000000001,1.142568,4970.0,5740.0,2540.0,47.1,10.09,00000000 00000000,32.825889789,34.956456777,23.931,-2.37,0.45,-0.08,0.48,-5.43,0.3,0.1,-1.65,-1.41,32.825867344,34.95649402,22.746,1.07,2.02,-0.48,307509795,2172,1000,11110000,13,25,100,0.0,0,45,45,100804,22.39,0
5794,41.756,6.1739999999999995,-7.438,-5.44077,7.27417,11.74076,0.061801,0.121387,1.1517309999999998,4990.0,5790.0,2560.0,47.1,10.13,00000000 00000000,32.825889892,34.956456141,23.929,-2.38,0.46,-0.04,0.48,-5.45,0.29,0.06,-1.65,-1.43,32.825867666,34.956494289,22.689,0.87,35.15,-1.13,307509820,2172,1000,11110000,12,25,100,0.0,0,20,20,100802,22.55,3
5795,41.483000000000004,5.96,-7.268,-9.74128,8.59021,12.29996,0.056169000000000004,0.11508499999999999,1.144833,5040.0,5830.0,2530.0,47.1,10.08,00000000 00000000,32.825889997,34.9564555,23.928,-2.4,0.47,0.0,0.48,-5.46,0.28,0.02,-1.64,-1.45,32.825867666,34.956494289,22.689,0.87,35.15,-1.13,307509845,2172,1000,11110000,12,25,100,0.0,0,45,45,100804,22.39,0
5796,41.163999999999994,5.6,-7.132999999999999,-15.58269,3.10324,16.66149,0.092629,0.09684,1.160852,5090.0,5900.0,2520.0,47.1,10.08,00000000 00000000,32.825890105,34.956454855,23.929,-2.41,0.48,0.02,0.48,-5.48,0.28,0.0,-1.64,-1.46,32.825867861,34.956494546,22.687,0.64,48.02,-0.04,307509870,2172,1000,11110000,12,25,100,0.0,0,20,20,100804,22.39,3
5797,40.751999999999995,5.121,-7.2170000000000005,-17.52228,-6.3036900000000005,20.85613,0.118023,0.098497,1.204242,5150.0,6010.0,2500.0,47.1,10.08,00000000 00000000,32.825890215,34.956454208000004,23.93,-2.42,0.48,0.07,0.48,-5.49,0.27,-0.05,-1.64,-1.47,32.825867861,34.956494546,22.687,0.64,48.02,-0.04,307509895,2172,1000,11110000,12,25,100,0.0,0,45,45,100804,22.39,0
5798,40.226,4.644,-7.513999999999999,-14.59513,-14.38815,25.746660000000002,0.170792,0.107482,1.200092,5250.0,6130.0,2470.0,47.1,10.13,00000000 00000000,32.825890325,34.956453559,23.933,-2.42,0.49,0.13,0.48,-5.51,0.26,-0.1,-1.63,-1.47,32.825868192,34.956494834000004,22.662,0.91,36.3,-0.49,307509920,2172,1000,11110000,11,25,100,0.0,0,20,20,100804,22.39,3
5799,39.619,4.24,-7.985,-11.25738,-16.66205,24.62588,0.179677,0.11197,1.209763,5370.0,6230.0,2440.0,47.1,10.08,00000000 00000000,32.825890436,34.956452911,23.937,-2.41,0.49,0.18,0.48,-5.52,0.26,-0.16,-1.62,-1.46,32.825868192,34.956494834000004,22.662,0.91,36.3,-0.49,307509945,2172,1000,11110000,11,25,100,0.0,0,45,45,100804,22.39,0
5800,39.153,3.88,-8.314,-13.177729999999999,-6.4945699999999995,17.126910000000002,0.16406700000000002,0.032268,1.150306,5470.0,6330.0,2460.0,47.1,10.07,00000000 00000000,32.825890546,34.956452265,23.942,-2.41,0.48,0.23,0.48,-5.54,0.25,-0.21,-1.62,-1.45,32.825868132,34.956497090999996,23.31,4.22,91.81,12.95,307509970,2172,1000,11110000,11,25,100,0.0,0,20,20,100802,22.55,3
5801,38.777,3.427,-8.402999999999999,-18.14295,0.9197299999999999,19.42858,0.133458,0.00146,1.039143,5550.0,6410.0,2470.0,47.1,10.07,00000000 00000000,32.825890655,34.956451617,23.948,-2.42,0.47,0.26,0.48,-5.55,0.24,-0.24,-1.63,-1.45,32.825868132,34.956497090999996,23.31,4.22,91.81,12.95,307509995,2172,1000,11110000,11,25,100,0.0,0,45,45,100804,22.47,0
5802,38.294000000000004,2.87,-8.299,-19.37495,9.699810000000001,25.22084,0.096075,0.05051,0.9650709999999999,5590.0,6540.0,2560.0,47.1,10.08,00000000 00000000,32.825890761,34.956450966999995,23.955,-2.43,0.47,0.26,0.48,-5.57,0.23,-0.24,-1.63,-1.45,32.825868348,34.95649748,23.372,0.87,56.64,1.25,307510020,2172,1000,11110000,11,25,100,0.0,0,20,20,100804,22.39,3
5803,37.677,2.33,-7.983,-15.92155,16.80359,29.37365,0.102004,0.095305,0.9191879999999999,5620.0,6670.0,2660.0,47.1,10.07,00000000 00000000,32.82589087,34.956450315,23.961,-2.43,0.48,0.25,0.48,-5.58,0.23,-0.23,-1.62,-1.46,32.825868348,34.95649748,23.372,0.87,56.64,1.25,307510045,2172,1000,11110000,11,25,100,0.0,0,45,45,100804,22.47,0
5804,36.96,1.8969999999999998,-7.604,-10.62481,13.981620000000001,31.675320000000003,0.134108,0.11543800000000001,0.8697469999999999,5640.0,6780.0,2740.0,47.1,10.08,00000000 00000000,32.825890981,34.956449664000004,23.967,-2.42,0.5,0.22,0.48,-5.6,0.22,-0.2,-1.6,-1.46,32.825868569,34.956497661,23.33,0.59,34.65,-0.85,307510070,2172,1000,11110000,15,25,100,0.0,0,20,20,100802,22.55,3
5805,36.236,1.604,-7.372000000000001,-4.4086099999999995,5.77764,28.0523,0.141688,0.17088599999999998,0.856543,5630.0,6890.0,2810.0,47.1,10.08,00000000 00000000,32.825891096,34.956449018,23.973,-2.4,0.52,0.19,0.48,-5.61,0.21,-0.17,-1.56,-1.45,32.825868569,34.956497661,23.33,0.59,34.65,-0.85,307510095,2172,1000,11110000,15,25,100,0.0,0,45,45,100802,22.55,0
5806,35.631,1.527,-7.343999999999999,4.82099,-2.35942,20.80188,0.15108,0.15252000000000002,0.8592850000000001,5640.0,7000.0,2840.0,47.1,10.09,00000000 00000000,32.825891216,34.95644838,23.977,-2.37,0.54,0.16,0.48,-5.63,0.2,-0.14,-1.52,-1.43,32.825868716,34.956497844,23.272,0.47,46.41,-1.15,307510120,2172,1000,11110000,15,25,100,0.0,0,20,20,100804,22.47,3
5807,35.167,1.7169999999999999,-7.5,14.788620000000002,-7.675330000000001,13.82351,0.124982,0.14364100000000002,0.8775700000000001,5670.0,7110.0,2830.0,47.1,10.08,00000000 00000000,32.82589134,34.956447749,23.981,-2.34,0.56,0.13,0.48,-5.64,0.2,-0.11,-1.49,-1.42,32.825868716,34.956497844,23.272,0.47,46.41,-1.15,307510145,2172,1000,11110000,15,25,100,0.0,0,45,45,100802,22.64,0
5808,34.861,2.14,-7.66,21.24201,-3.18297,5.97714,0.07215,0.10591099999999999,0.856453,5720.0,7190.0,2780.0,47.1,10.08,00000000 00000000,32.825891469,34.956447123000004,23.984,-2.33,0.58,0.1,0.48,-5.66,0.19,-0.09,-1.46,-1.42,32.82586896,34.956498005,23.234,0.61,29.22,-0.77,307510170,2172,1000,11110000,14,25,100,0.0,0,20,20,100802,22.55,3
5809,34.719,2.693,-7.664,23.60876,2.82768,-0.0679,0.049062,0.083023,0.805898,5750.0,7240.0,2710.0,47.1,10.05,00000000 00000000,32.825891603,34.956446498000005,23.986,-2.33,0.6,0.06,0.48,-5.68,0.18,-0.05,-1.44,-1.43,32.82586896,34.956498005,23.234,0.61,29.22,-0.77,307510195,2172,1000,11110000,14,25,100,0.0,0,45,45,100802,22.55,0
5810,34.664,3.287,-7.57,23.722520000000003,4.04727,-0.9113399999999999,0.040138,0.081513,0.7629859999999999,5770.0,7260.0,2630.0,47.1,10.08,00000000 00000000,32.82589174,34.956445873,23.987,-2.34,0.61,0.01,0.48,-5.69,0.17,0.0,-1.43,-1.44,32.825868957,34.956498054,23.243,0.09,94.89,0.18,307510220,2172,1000,11110000,17,25,100,0.0,0,20,20,100802,22.64,3
5811,34.576,3.866,-7.5,23.13822,2.44108,1.45435,0.022640999999999998,0.094499,0.76545,5790.0,7250.0,2560.0,47.1,10.05,00000000 00000000,32.825891882,34.956445246,23.987,-2.34,0.63,-0.04,0.48,-5.71,0.16,0.05,-1.41,-1.45,32.825868957,34.956498054,23.243,0.09,94.89,0.18,307510245,2172,1000,11110000,17,25,100,0.0,0,45,45,100802,22.64,0
5812,34.479,4.427,-7.454,21.95768,1.58344,-0.24731999999999998,0.040339,0.109009,0.804987,5810.0,7240.0,2490.0,47.1,10.12,00000000 00000000,32.825892026999995,34.956444616999995,23.985,-2.35,0.65,-0.09,0.48,-5.72,0.15,0.11,-1.4,-1.46,32.825869501,34.956498496,23.234,1.46,34.46,-0.18,307510270,2172,1000,11110000,16,25,100,0.0,0,20,20,100802,22.64,3
5813,34.457,4.945,-7.432,19.270870000000002,0.8119,-3.1999400000000002,0.045728,0.10054600000000001,0.8632139999999999,5840.0,7210.0,2400.0,47.1,10.07,00000000 00000000,32.825892175999996,34.956443986,23.983,-2.35,0.67,-0.13,0.48,-5.74,0.15,0.15,-1.38,-1.47,32.825869501,34.956498496,23.234,1.46,34.46,-0.18,307510295,2172,1000,11110000,16,25,100,0.0,0,45,45,100802,22.64,0
5814,34.51,5.397,-7.388999999999999,16.09727,1.94608,-5.65183,0.041539,0.088245,0.907114,5850.0,7190.0,2350.0,47.2,10.12,00000000 00000000,32.825892329,34.956443354,23.979,-2.37,0.68,-0.15,0.48,-5.75,0.14,0.17,-1.38,-1.49,32.825870015,34.956499025,23.205,1.5,40.95,-0.57,307510320,2172,1000,11110000,13,25,100,0.0,0,20,20,100802,22.64,3
5815,34.650999999999996,5.775,-7.382000000000001,12.24267,-3.7456199999999997,-9.62883,0.07839700000000001,0.106093,0.970721,5850.0,7170.0,2300.0,47.2,10.11,00000000 00000000,32.825892483000004,34.956442718000005,23.975,-2.38,0.69,-0.17,0.48,-5.77,0.13,0.19,-1.37,-1.5,32.825870015,34.956499025,23.205,1.5,40.95,-0.57,307510345,2172,1000,11110000,13,25,100,0.0,0,45,45,100804,22.47,0
5816,34.928000000000004,6.072,-7.5489999999999995,8.60801,-10.84912,-15.40575,0.098994,0.099316,1.07112,5860.0,7160.0,2290.0,47.2,10.08,00000000 00000000,32.82589264,34.95644208,23.97,-2.38,0.69,-0.16,0.47,-5.78,0.12,0.18,-1.37,-1.5,32.825869791,34.956499945,23.467,1.79,106.07,5.23,307510370,2172,1000,11110000,12,25,100,0.0,0,20,20,100802,22.55,3
5817,35.36,6.305,-7.785,4.84196,-10.872160000000001,-21.252229999999997,0.080286,0.065816,1.161599,5880.0,7140.0,2250.0,47.2,10.05,00000000 00000000,32.825892797,34.956441439,23.967,-2.4,0.69,-0.13,0.47,-5.8,0.11,0.15,-1.37,-1.51,32.825869791,34.956499945,23.467,1.79,106.07,5.23,307510395,2172,1000,11110000,12,25,100,0.0,0,45,45,100804,22.47,0
5818,35.944,6.425,-7.997999999999999,-2.0688299999999997,-12.6242,-25.20534,0.105146,0.044029,1.209306,5900.0,7120.0,2220.0,47.2,10.11,00000000 00000000,32.825892954000004,34.956440793,23.964,-2.42,0.69,-0.08,0.47,-5.81,0.1,0.11,-1.38,-1.53,32.825870113,34.956500426999995,23.441,1.15,51.7,-0.51,307510420,2172,1000,11110000,12,25,100,0.0,0,20,20,100804,22.47,3
5819,36.63,6.3870000000000005,-8.299,-7.8444,-17.20874,-29.193270000000002,0.179788,0.111739,1.317627,5920.0,7090.0,2200.0,47.2,10.09,00000000 00000000,32.825893109,34.956440141,23.962,-2.44,0.68,-0.02,0.47,-5.83,0.09,0.05,-1.4,-1.53,32.825870113,34.956500426999995,23.441,1.15,51.7,-0.51,307510445,2172,1000,11110000,12,25,100,0.0,0,45,45,100804,22.47,0
5820,37.477,6.3229999999999995,-8.684,-5.93458,-22.40211,-36.05855,0.266941,0.170785,1.4187459999999998,5940.0,7070.0,2210.0,47.2,10.09,00000000 00000000,32.825893262,34.956439487,23.963,-2.43,0.68,0.07,0.47,-5.85,0.08,-0.04,-1.4,-1.53,32.825870328,34.956500824,23.418,1.15,51.7,-0.51,307510470,2172,1000,11110000,10,25,100,0.0,0,20,70,100804,22.47,1
5821,38.417,6.4110000000000005,-9.34,1.42692,-40.668420000000005,-38.08129,0.359363,0.180977,1.419208,5950.0,7050.0,2220.0,47.2,10.08,00000000 00000000,32.825893414,34.956438837,23.966,-2.41,0.66,0.18,0.47,-5.86,0.07,-0.15,-1.39,-1.5,32.825870328,34.956500824,23.418,0.88,57.29,-0.45,307510495,2172,1000,11110000,10,25,100,0.0,0,45,45,100802,22.55,2
5822,39.378,6.711,10.392000000000001,8.92078,-48.17155,-42.18951,0.268358,0.15962,1.368809,5990.0,6980.0,2200.0,47.2,10.08,00000000 00000000,32.825893563,34.956438194,23.972,-2.39,0.65,0.29,0.47,-5.88,0.06,-0.26,-1.38,-1.47,32.825870615999996,34.95650136,23.42,1.18,57.5,0.03,307510520,2172,1000,11110000,11,25,100,0.0,0,20,20,100804,22.47,3
5823,40.434,7.215,11.319,13.897429999999998,-34.02991,-46.693740000000005,0.133634,0.15578699999999998,1.201627,6050.0,6890.0,2120.0,47.2,10.1,00000000 00000000,32.825893711,34.956437553,23.981,-2.4,0.66,0.37,0.47,-5.89,0.05,-0.34,-1.38,-1.48,32.825870615999996,34.95650136,23.42,1.18,57.5,0.03,307510545,2172,1000,11110000,11,25,100,0.0,0,45,45,100804,22.39,0
5824,41.506,7.817,11.770999999999999,15.824329999999998,-12.71183,-45.55838,0.038051999999999996,0.196151,1.0652979999999999,6080.0,6770.0,2040.0,47.1,10.1,00000000 00000000,32.825893863000005,34.956436907,23.991,-2.42,0.69,0.4,0.47,-5.91,0.04,-0.38,-1.37,-1.51,32.825870964,34.956501832,23.417,1.17,48.93,-0.05,307510570,2172,1000,11110000,11,25,100,0.0,0,20,20,100804,22.47,3
5825,42.498000000000005,8.418,11.69,14.35471,6.75131,-40.90303,0.063746,0.234442,0.9830059999999999,6060.0,6670.0,1990.0,47.1,10.08,00000000 00000000,32.825894023000004,34.956436255,24.001,-2.44,0.73,0.41,0.47,-5.92,0.03,-0.39,-1.35,-1.54,32.825870964,34.956501832,23.417,1.17,48.93,-0.05,307510595,2172,1000,11110000,11,25,100,0.0,0,45,45,100802,22.55,0
5826,43.378,8.885,11.273,7.9737,13.922870000000001,-34.16953,0.145019,0.21660700000000002,0.9400850000000001,6010.0,6580.0,1970.0,47.1,10.11,00000000 00000000,32.825894190999996,34.956435601,24.011,-2.44,0.76,0.41,0.47,-5.94,0.02,-0.38,-1.32,-1.56,32.825871519,34.956502451999995,23.397,1.69,43.29,-0.41,307510620,2172,1000,11110000,11,25,100,0.0,0,20,20,100802,22.55,3
5827,44.093999999999994,9.146,10.815,1.87021,13.0915,-25.30076,0.180391,0.158082,0.9273610000000001,5960.0,6480.0,1930.0,47.1,10.08,00000000 00000000,32.825894364,34.956434948,24.022,-2.43,0.76,0.4,0.47,-5.95,0.01,-0.37,-1.31,-1.56,32.825871519,34.956502451999995,23.397,1.69,43.29,-0.41,307510645,2172,1000,11110000,11,25,100,0.0,0,45,45,100804,22.47,0
5828,44.606,9.228,10.444,-2.82309,10.297310000000001,-15.68635,0.194521,0.094801,0.9060360000000001,5890.0,6430.0,1960.0,47.1,10.12,00000000 00000000,32.825894536,34.956434296,24.032,-2.43,0.76,0.39,0.47,-5.97,0.0,-0.36,-1.31,-1.55,32.825871649,34.956502754,23.448,0.63,63.02,1.02,307510670,2172,1000,11110000,10,25,100,0.0,0,20,20,100804,22.39,3
5829,44.943000000000005,9.177,10.065,-5.49359,17.3447,-10.40219,0.126076,0.073324,0.857669,5850.0,6390.0,1990.0,47.1,10.08,00000000 00000000,32.825894705,34.956433643000004,24.041,-2.44,0.74,0.36,0.47,-5.99,0.0,-0.34,-1.32,-1.55,32.825871649,34.956502754,23.448,0.63,63.02,1.02,307510695,2172,1000,11110000,10,25,100,0.0,0,45,45,100804,22.39,0
5830,45.188,9.076,-9.47,-5.40729,26.825120000000002,-7.91056,0.053812,0.076839,0.760734,5790.0,6370.0,2060.0,47.1,10.12,00000000 00000000,32.825894873,34.956432987,24.05,-2.46,0.74,0.32,0.47,-6.0,-0.01,-0.29,-1.33,-1.55,32.825871848,34.9565032,23.5,0.94,62.08,1.04,307510720,2172,1000,11110000,10,25,100,0.0,0,20,20,100804,22.39,3
5831,45.42,8.982999999999999,-8.684,-5.01777,32.10235,-9.55123,0.037045,0.087027,0.665747,5730.0,6360.0,2130.0,47.1,10.08,00000000 00000000,32.825895042,34.956432325,24.057,-2.47,0.75,0.25,0.47,-6.02,-0.02,-0.22,-1.33,-1.57,32.825871848,34.9565032,23.5,0.94,62.08,1.04,307510745,2172,1000,11110000,10,25,100,0.0,0,45,45,100804,22.47,0
5832,45.722,8.889,-7.8420000000000005,-6.0245,30.82253,-13.085280000000001,0.044868,0.09577999999999999,0.626442,5650.0,6360.0,2220.0,47.1,10.1,00000000 00000000,32.825895212,34.956431660999996,24.062,-2.48,0.76,0.16,0.47,-6.03,-0.03,-0.14,-1.33,-1.57,32.825871848,34.9565032,23.5,0.94,62.08,1.04,307510770,2172,1000,1,0,25,100,0.0,0,20,70,100804,22.47,1
5833,46.13,8.774,-7.056,-7.19555,26.6166,-17.918960000000002,0.046637,0.11393199999999999,0.639353,5580.0,6350.0,2260.0,47.1,10.08,00000000 00000000,32.825895384,34.956430995,24.065,-2.49,0.76,0.07,0.47,-6.05,-0.04,-0.05,-1.32,-1.58,32.825871848,34.9565032,23.5,0.94,62.08,1.04,307510795,2172,1000,1,0,25,100,0.0,0,45,45,100804,22.47,2
5834,46.667,8.636000000000001,-6.4110000000000005,-8.92845,17.411,-22.45911,0.06230700000000001,0.128698,0.680613,5480.0,6350.0,2320.0,47.2,10.09,00000000 00000000,32.825895556999996,34.956430328,24.066,-2.48,0.77,0.0,0.47,-6.06,-0.05,0.02,-1.31,-1.58,32.825871848,34.9565032,23.5,0.94,62.08,1.04,307510820,2172,1000,1,0,25,100,0.0,0,20,70,100802,22.55,1
5835,47.266999999999996,8.45,-6.05,-10.79534,4.3531,-22.1779,0.06882200000000001,0.103209,0.751324,5420.0,6320.0,2350.0,47.2,10.09,00000000 00000000,32.825895732,34.956429663,24.066,-2.48,0.77,-0.06,0.47,-6.08,-0.06,0.09,-1.31,-1.58,32.825871848,34.9565032,23.5,0.94,62.08,1.04,307510845,2172,1000,1,0,25,100,0.0,0,45,45,100802,22.55,2
5836,47.828,8.224,-5.99,-11.772160000000001,-4.93728,-20.23315,0.05901699999999999,0.094737,0.863958,5380.0,6320.0,2410.0,47.2,10.09,00000000 00000000,32.825895906,34.956428996,24.063,-2.49,0.77,-0.11,0.47,-6.09,-0.08,0.14,-1.31,-1.58,32.825871848,34.9565032,23.5,0.94,62.08,1.04,307510870,2172,1000,1,0,25,100,0.0,0,20,70,100804,22.47,1
5837,48.343,7.976,-6.0920000000000005,-12.170069999999999,-8.36191,-18.009870000000003,0.049309,0.107101,0.964566,5390.0,6320.0,2450.0,47.2,10.08,00000000 00000000,32.825896080999996,34.956428328,24.06,-2.5,0.77,-0.13,0.47,-6.11,-0.09,0.16,-1.31,-1.58,32.825871848,34.9565032,23.5,0.94,62.08,1.04,307510895,2172,1000,1,0,25,100,0.0,0,45,45,100804,22.47,2
5838,48.795,7.6979999999999995,-6.237,-14.41439,-7.73522,-14.610029999999998,0.053979,0.077702,1.0469959999999998,5430.0,6350.0,2520.0,47.2,10.1,00000000 00000000,32.825896256,34.956427656,24.057,-2.51,0.78,-0.12,0.47,-6.13,-0.1,0.16,-1.32,-1.59,32.825871848,34.9565032,23.5,0.94,62.08,1.04,307510920,2172,1000,1,0,25,100,0.0,0,20,70,100804,22.47,1
5839,49.111000000000004,7.327999999999999,-6.356,-17.61555,-4.20322,-6.71439,0.05887100000000001,0.061942,1.115182,5480.0,6380.0,2550.0,47.2,10.08,00000000 00000000,32.825896432,34.956426979,24.054,-2.54,0.77,-0.1,0.47,-6.14,-0.11,0.14,-1.33,-1.6,32.825871848,34.9565032,23.5,0.94,62.08,1.04,307510945,2172,1000,1,0,25,100,0.0,0,45,45,100804,22.47,2
5840,49.207,6.861000000000001,-6.392,-20.31873,-1.14042,4.0193900000000005,0.07367699999999999,0.076004,1.1095959999999998,5530.0,6420.0,2610.0,47.2,10.08,00000000 00000000,32.825896607,34.956426296,24.051,-2.56,0.77,-0.08,0.47,-6.16,-0.12,0.11,-1.34,-1.61,32.825871848,34.9565032,23.5,0.94,62.08,1.04,307510970,2172,1000,1,0,25,100,0.0,0,20,70,100804,22.39,1
5841,49.022,6.311,-6.483,-21.145,-5.0705,14.656220000000001,0.10903299999999999,0.116792,1.153529,5580.0,6420.0,2680.0,47.2,10.08,00000000 00000000,32.825896782,34.956425608,24.05,-2.57,0.77,-0.04,0.46,-6.17,-0.13,0.08,-1.35,-1.62,32.825871848,34.9565032,23.5,0.94,62.08,1.04,307510995,2172,1000,1,0,25,100,0.0,0,45,45,100804,22.39,2
5842,48.641000000000005,5.761,-6.731,-19.07368,-11.514389999999999,19.2343,0.157086,0.12954300000000002,1.212388,5640.0,6450.0,2770.0,47.2,10.08,00000000 00000000,32.825896957,34.956424919,24.049,-2.57,0.77,0.0,0.46,-6.19,-0.15,0.03,-1.34,-1.61,32.825874535,34.956504869,22.892,0.94,62.08,1.04,307511020,2172,1000,11110000,9,25,100,0.0,0,20,70,100806,22.22,1
5843,48.217,5.252999999999999,-7.162999999999999,-17.20605,-20.30181,19.60876,0.233192,0.140759,1.2530290000000002,5720.0,6460.0,2840.0,47.2,10.08,00000000 00000000,32.825897131,34.956424231,24.05,-2.56,0.77,0.06,0.46,-6.2,-0.16,-0.02,-1.34,-1.6,32.825874535,34.956504869,22.892,5.71,39.14,-2.51,307511045,2172,1000,11110000,9,25,100,0.0,0,45,45,100804,22.39,2
5844,47.762,4.777,-7.821000000000001,-16.000220000000002,-28.241609999999998,21.00714,0.278441,0.13855499999999998,1.26027,5820.0,6440.0,2880.0,47.1,10.1,00000000 00000000,32.825897303000005,34.956423548000004,24.053,-2.54,0.75,0.13,0.46,-6.22,-0.17,-0.09,-1.33,-1.57,32.825874690999996,34.956505199,22.885,5.71,39.14,-2.51,307511070,2172,1000,11110000,18,25,100,0.0,0,20,70,100804,22.39,1
5845,47.35,4.322,-8.549,-15.64763,-25.95648,16.0174,0.23434899999999997,0.078212,1.1888459999999998,5940.0,6400.0,2910.0,47.1,10.08,00000000 00000000,32.825897472,34.956422872,24.057,-2.52,0.74,0.2,0.46,-6.23,-0.18,-0.16,-1.32,-1.54,32.825874690999996,34.956505199,22.885,0.7,60.77,-0.12,307511095,2172,1000,11110000,18,25,100,0.0,0,45,45,100804,22.39,2
5846,47.037,3.86,-9.183,-17.225279999999998,-23.340139999999998,15.94041,0.153223,-0.00212,1.0640040000000002,6080.0,6420.0,2960.0,47.1,10.1,00000000 00000000,32.825897638,34.956422196999995,24.062,-2.52,0.73,0.23,0.46,-6.25,-0.2,-0.2,-1.32,-1.53,32.825874928000005,34.956505616,22.823,0.94,56.04,-1.25,307511120,2172,1000,11110000,18,25,100,0.0,0,20,20,100806,22.3,3
5847,46.64,3.333,-9.761000000000001,-19.17132,-20.26366,22.62571,0.107287,-0.018856,0.980865,6260.0,6490.0,3010.0,47.1,10.08,00000000 00000000,32.825897802,34.956421518,24.068,-2.54,0.72,0.24,0.46,-6.26,-0.21,-0.2,-1.34,-1.54,32.825874928000005,34.956505616,22.823,0.94,56.04,-1.25,307511145,2172,1000,11110000,18,25,100,0.0,0,45,45,100804,22.39,0
5848,46.118,2.747,10.179,-19.126070000000002,-10.24625,25.72476,0.132921,0.013536000000000001,0.983151,6490.0,6660.0,3050.0,47.1,10.07,00000000 00000000,32.825897965,34.956420834,24.074,-2.56,0.72,0.23,0.46,-6.28,-0.22,-0.2,-1.35,-1.55,32.825875283,34.956506101,22.791,1.2,49.05,-0.62,307511170,2172,1000,11110000,18,25,100,0.0,0,20,20,100804,22.39,3
5849,45.555,2.221,10.349,-13.262889999999999,-1.30984,25.03005,0.20606799999999997,0.047822,1.022001,6690.0,6860.0,3080.0,47.1,10.08,00000000 00000000,32.825898128,34.956420146999996,24.08,-2.56,0.72,0.24,0.46,-6.3,-0.23,-0.2,-1.35,-1.55,32.825875283,34.956506101,22.791,1.2,49.05,-0.62,307511195,2172,1000,11110000,18,25,100,0.0,0,45,45,100804,22.47,0
5850,45.056000000000004,1.906,10.285,-4.08582,6.72515,18.408520000000003,0.26319899999999996,0.055001,1.0186309999999998,6790.0,7000.0,3110.0,47.1,10.1,00000000 00000000,32.82589829,34.956419460999996,24.086,-2.55,0.71,0.25,0.46,-6.31,-0.25,-0.21,-1.34,-1.53,32.825875407,34.956506200999996,22.803,0.33,34.32,0.23,307511220,2172,1000,11110000,18,25,100,0.0,0,20,20,100802,22.55,3
5851,44.678999999999995,1.8430000000000002,10.123,4.115,5.68738,12.22203,0.275848,0.054571,0.9691069999999999,6840.0,7080.0,3120.0,47.1,10.08,00000000 00000000,32.82589845,34.95641878,24.093,-2.53,0.7,0.26,0.46,-6.33,-0.26,-0.22,-1.33,-1.51,32.825875407,34.956506200999996,22.803,0.33,34.32,0.23,307511245,2172,1000,11110000,18,25,100,0.0,0,45,45,100802,22.55,0
5852,44.412,1.99,10.062000000000001,10.93748,-0.17105,7.2644899999999994,0.24468600000000001,0.053810000000000004,0.9006190000000001,6890.0,7130.0,3130.0,47.1,10.07,00000000 00000000,32.825898607,34.956418106,24.099,-2.51,0.69,0.25,0.46,-6.34,-0.27,-0.22,-1.32,-1.48,32.825875591,34.95650637,22.818,0.51,37.7,0.29,307511270,2172,1000,11110000,17,25,100,0.0,0,20,20,100802,22.64,3
5853,44.206,2.287,10.12,14.56595,-2.9622900000000003,5.67194,0.16906500000000002,0.023775,0.8362059999999999,6970.0,7160.0,3130.0,47.1,10.08,00000000 00000000,32.825898762,34.956417436,24.106,-2.49,0.68,0.22,0.46,-6.36,-0.29,-0.19,-1.31,-1.46,32.825875591,34.95650637,22.818,0.51,37.7,0.29,307511295,2172,1000,11110000,17,25,100,0.0,0,45,45,100802,22.64,0
5854,43.965,2.6310000000000002,10.174,15.53775,0.8144899999999999,8.96608,0.073753,0.006104999999999999,0.77199,7040.0,7180.0,3150.0,47.1,10.09,00000000 00000000,32.825898915,34.956416767,24.111,-2.5,0.68,0.18,0.46,-6.37,-0.3,-0.15,-1.32,-1.46,32.825876008,34.956506615,22.744,1.03,26.46,-1.47,307511320,2172,1000,11110000,16,25,100,0.0,0,20,20,100800,22.72,3
5855,43.623000000000005,2.9589999999999996,10.072000000000001,14.94065,9.16963,12.747060000000001,0.011177,0.021823,0.722654,7110.0,7200.0,3150.0,47.1,10.07,00000000 00000000,32.825899069,34.956416094,24.115,-2.52,0.69,0.12,0.46,-6.39,-0.31,-0.08,-1.32,-1.47,32.825876008,34.956506615,22.744,1.03,26.46,-1.47,307511345,2172,1000,11110000,16,25,100,0.0,0,45,45,100802,22.64,0
5856,43.236000000000004,3.263,-9.752,14.19941,17.92364,12.79487,-0.003436,0.038002999999999995,0.719747,7170.0,7230.0,3190.0,47.1,10.1,00000000 00000000,32.825899227,34.956415416,24.117,-2.54,0.71,0.04,0.46,-6.4,-0.33,-0.01,-1.32,-1.5,32.825876117,34.956506978,22.77,0.72,70.34,0.52,307511370,2172,1000,11110000,15,25,100,0.0,0,20,20,100802,22.64,3
5857,42.896,3.55,-9.236,12.88212,23.98046,10.26538,0.015574000000000001,0.04384,0.752043,7210.0,7250.0,3210.0,47.1,10.08,00000000 00000000,32.825899389,34.956414733,24.117,-2.56,0.72,-0.01,0.46,-6.42,-0.34,0.05,-1.31,-1.52,32.825876117,34.956506978,22.77,0.72,70.34,0.52,307511395,2172,1000,11110000,15,25,100,0.0,0,45,45,100802,22.64,0
5858,42.61600000000001,3.826,-8.67,13.241079999999998,22.02734,7.45655,0.049928,0.081447,0.851676,7230.0,7280.0,3270.0,47.1,10.09,00000000 00000000,32.825899555,34.956414044,24.116,-2.57,0.74,-0.06,0.46,-6.43,-0.36,0.1,-1.31,-1.54,32.825876516,34.956507299,22.718,1.07,34.22,-1.05,307511420,2172,1000,11110000,15,25,100,0.0,0,20,20,100802,22.64,3
5859,42.51,4.2010000000000005,-8.156,17.22891,19.77461,-4.40597,0.109548,0.09194,0.987775,7240.0,7290.0,3310.0,47.1,10.08,00000000 00000000,32.825899725,34.956413354,24.114,-2.58,0.76,-0.08,0.45,-6.45,-0.37,0.12,-1.29,-1.55,32.825876516,34.956507299,22.718,1.07,34.22,-1.05,307511445,2172,1000,11110000,15,25,100,0.0,0,45,45,100800,22.72,0
5860,42.684,4.6610000000000005,-7.691,16.56525,15.647,-11.89067,0.169322,0.001429,1.109637,7250.0,7270.0,3340.0,47.1,10.1,00000000 00000000,32.825899895,34.956412663,24.112,-2.58,0.75,-0.07,0.45,-6.46,-0.38,0.11,-1.3,-1.55,32.825876971999996,34.956507846,22.71,1.44,45.34,-0.14,307511470,2172,1000,11110000,14,25,100,0.0,0,20,20,100800,22.72,3
5861,42.891999999999996,5.061,-7.358,12.516910000000001,9.51448,-7.31341,0.173164,-0.054009,1.184101,7250.0,7220.0,3370.0,47.1,10.07,00000000 00000000,32.825900061999995,34.956411969,24.111,-2.6,0.72,-0.03,0.45,-6.48,-0.4,0.07,-1.32,-1.54,32.825876971999996,34.956507846,22.71,1.44,45.34,-0.14,307511495,2172,1000,11110000,14,25,100,0.0,0,45,45,100802,22.64,0
5862,42.943999999999996,5.305,-7.188,6.24124,3.9581199999999996,0.6285,0.146568,-0.03651,1.200191,7260.0,7180.0,3420.0,47.1,10.08,00000000 00000000,32.825900221,34.95641127,24.11,-2.62,0.69,0.01,0.45,-6.49,-0.41,0.02,-1.36,-1.53,32.825877262,34.95650822,22.666,0.95,47.44,-0.88,307511520,2172,1000,11110000,14,25,100,0.0,0,20,20,100802,22.64,3
5863,42.854,5.377000000000001,-7.157,0.74397,-0.5933,4.5469599999999994,0.140621,0.0024289999999999997,1.221552,7300.0,7160.0,3460.0,47.2,10.08,00000000 00000000,32.825900375,34.956410565,24.112,-2.64,0.67,0.06,0.45,-6.51,-0.43,-0.02,-1.39,-1.53,32.825877262,34.95650822,22.666,0.95,47.44,-0.88,307511545,2172,1000,11110000,14,25,100,0.0,0,45,45,100800,22.72,0
5864,42.787,5.349,-7.218,-1.68763,-4.34384,0.94745,0.14971700000000002,0.010171,1.239035,7360.0,7180.0,3520.0,47.2,10.08,00000000 00000000,32.82590062,34.956409859000004,24.113,-2.66,0.65,0.12,0.45,-6.52,-0.44,-0.08,-1.41,-1.52,32.825877689,34.956508761,22.625,1.38,46.96,-0.82,307511570,2172,1000,11111100,14,25,100,0.0,0,20,20,100800,22.72,3
5865,42.833,5.297000000000001,-7.4270000000000005,-2.64137,-13.792010000000001,-3.65315,0.195443,0.0052439999999999995,1.235566,7430.0,7190.0,3560.0,47.2,10.08,00000000 00000000,32.825900766,34.956409144,24.117,-2.68,0.63,0.18,0.45,-6.54,-0.46,-0.14,-1.43,-1.52,32.825877689,34.956508761,22.625,1.38,46.96,-0.82,307511595,2172,1000,11111100,14,25,100,0.0,0,45,45,100800,22.72,0
5866,42.979,5.265,-7.899,-1.21393,-23.93618,-8.78633,0.246515,0.027547000000000002,1.24834,7500.0,7190.0,3610.0,47.2,10.1,00000000 00000000,32.825900783,34.95640842,24.123,-2.68,0.6,0.25,0.45,-6.55,-0.47,-0.2,-1.45,-1.5,32.825877801,34.956509491,22.782,1.38,79.63,3.15,307511620,2172,1000,11111100,14,25,100,0.0,0,20,20,100800,22.72,3
5867,43.316,5.307,-8.455,0.4629,-20.40897,-18.75368,0.205783,0.031832,1.1879790000000001,7580.0,7150.0,3640.0,47.2,10.08,00000000 00000000,32.825900916,34.956407700999996,24.13,-2.68,0.57,0.31,0.45,-6.57,-0.49,-0.26,-1.47,-1.48,32.825877801,34.956509491,22.782,1.38,79.63,3.15,307511645,2172,1000,11111100,14,25,100,0.0,0,45,45,100800,22.72,0
5868,43.893,5.4,-8.775,-0.2814,-9.4473,-25.548379999999998,0.12729200000000002,0.04686,1.0423850000000001,7620.0,7080.0,3660.0,47.2,10.08,00000000 00000000,32.825901178,34.956406988000005,24.138,-2.69,0.56,0.34,0.45,-6.58,-0.5,-0.3,-1.48,-1.48,32.825878235,34.956509890999996,22.764,1.21,37.92,-0.36,307511670,2172,1000,11111100,14,25,100,0.0,0,20,20,100800,22.72,3
5869,44.519,5.462999999999999,-8.841000000000001,-2.47297,-0.9455600000000001,-23.266170000000002,0.088219,0.093198,0.957343,7620.0,6990.0,3700.0,47.2,10.08,00000000 00000000,32.825901306,34.956406265,24.146,-2.7,0.57,0.34,0.45,-6.6,-0.52,-0.3,-1.48,-1.48,32.825878235,34.956509890999996,22.764,1.21,37.92,-0.36,307511695,2172,1000,11111100,14,25,100,0.0,0,45,45,100800,22.72,0
5870,45.14,5.436,-8.748,-5.12335,5.5625800000000005,-17.176579999999998,0.091653,0.13421,0.9356459999999999,7600.0,6920.0,3770.0,47.2,10.1,00000000 00000000,32.82590293,34.956405622,24.155,-2.71,0.62,0.33,0.45,-6.61,-0.53,-0.29,-1.47,-1.49,32.825878533,34.956510273,22.814,0.97,47.22,0.99,307511720,2172,1000,11111100,14,25,100,0.0,0,20,20,100802,22.64,3
5871,45.5,5.3229999999999995,-8.522,-7.815760000000001,8.67992,-9.37632,0.153368,0.158216,0.9380620000000001,7570.0,6890.0,3850.0,47.2,10.08,00000000 00000000,32.825903071,34.956404898,24.163,-2.7,0.63,0.32,0.45,-6.63,-0.55,-0.27,-1.45,-1.5,32.825878533,34.956510273,22.814,0.97,47.22,0.99,307511745,2172,1000,11111100,14,25,100,0.0,0,45,45,100800,22.8,0
5872,45.563,5.166,-8.269,-7.189369999999999,9.77702,-2.53938,0.189698,0.108091,1.0078209999999999,7540.0,6890.0,3930.0,47.2,10.08,00000000 00000000,32.825901573,34.956404089,24.172,-2.68,0.59,0.32,0.45,-6.64,-0.56,-0.27,-1.44,-1.48,32.825878765,34.956510699,22.895,0.94,57.23,1.62,307511770,2172,1000,11111100,14,25,100,0.0,0,20,20,100798,22.89,3
5873,45.563,5.027,-7.984,-3.51594,12.80719,4.11736,0.209652,0.046046,0.995835,7510.0,6880.0,4000.0,47.2,10.09,00000000 00000000,32.825901705999996,34.956403371,24.18,-2.68,0.58,0.32,0.45,-6.66,-0.58,-0.28,-1.43,-1.47,32.825878765,34.956510699,22.895,0.94,57.23,1.62,307511795,2172,1000,11111100,14,25,100,0.0,0,45,45,100798,22.89,0
5874,45.29,5.001,-7.6339999999999995,2.60186,15.466239999999999,9.3167,0.172624,0.038314999999999995,0.907594,7480.0,6860.0,4100.0,47.2,10.09,00000000 00000000,32.825900209000004,34.956402571,24.189,-2.67,0.52,0.32,0.44,-6.67,-0.6,-0.27,-1.44,-1.44,32.825878949,34.956510985,22.942,0.67,52.74,0.95,307511820,2172,1000,11111100,14,25,100,0.0,0,20,20,100800,22.8,3
5875,45.022,5.126,-7.224,9.902619999999999,19.2621,9.92961,0.104405,0.069013,0.791968,7430.0,6830.0,4200.0,47.2,10.08,00000000 00000000,32.825900325,34.956401854,24.197,-2.67,0.51,0.28,0.44,-6.68,-0.61,-0.24,-1.44,-1.43,32.825878949,34.956510985,22.942,0.67,52.74,0.95,307511845,2172,1000,11111100,14,25,100,0.0,0,45,45,100800,22.72,0
5876,44.726000000000006,5.422999999999999,-6.72,15.41494,22.09749,7.59771,0.060382000000000005,0.08084,0.7000529999999999,7370.0,6780.0,4310.0,47.2,10.08,00000000 00000000,32.825899833,34.956401108,24.204,-2.67,0.5,0.22,0.44,-6.7,-0.63,-0.18,-1.44,-1.43,32.825879149,34.956511221,22.955,0.62,44.88,0.25,307511870,2172,1000,11111100,14,25,100,0.0,0,20,20,100800,22.8,3
5877,44.535,5.8389999999999995,-6.175,19.00753,22.4868,3.73175,0.031562,0.082712,0.665953,7330.0,6730.0,4380.0,47.2,10.08,00000000 00000000,32.825899946999996,34.956400392,24.209,-2.67,0.51,0.15,0.44,-6.71,-0.64,-0.11,-1.43,-1.43,32.825879149,34.956511221,22.955,0.62,44.88,0.25,307511895,2172,1000,11111100,14,25,100,0.0,0,45,45,100800,22.72,0
5878,44.441,6.327999999999999,-5.641,20.38335,20.77421,0.0995,0.028717000000000003,0.07039400000000001,0.6824319999999999,7280.0,6670.0,4440.0,47.2,10.1,00000000 00000000,32.825900101,34.956399677,24.211,-2.68,0.51,0.07,0.44,-6.73,-0.66,-0.03,-1.42,-1.44,32.825879585,34.956511524,22.928,1.12,30.31,-0.53,307511920,2172,1000,11111100,13,25,100,0.0,0,20,20,100802,22.64,3
5879,44.403999999999996,6.827000000000001,-5.166,19.17448,17.39953,-0.19358,0.031598,0.044177999999999995,0.732835,7220.0,6600.0,4480.0,47.2,10.08,00000000 00000000,32.825900218,34.956398958,24.212,-2.69,0.52,0.0,0.44,-6.74,-0.68,0.04,-1.42,-1.44,32.825879585,34.956511524,22.928,1.12,30.31,-0.53,307511945,2172,1000,11111100,13,25,100,0.0,0,45,45,100800,22.72,0
5880,44.318000000000005,7.252999999999999,-4.8180000000000005,15.01595,10.34295,5.34505,0.039485,0.003857,0.802197,7180.0,6530.0,4530.0,47.2,10.1,00000000 00000000,32.825900356,34.956398238,24.217,-2.7,0.51,-0.05,0.44,-6.76,-0.69,0.1,-1.44,-1.44,32.825879928,34.956511856,22.93,0.98,39.28,0.03,307511970,2172,1000,11111100,13,25,100,0.0,0,20,20,100800,22.72,3
5881,44.058,7.54,-4.718,9.37354,0.11550999999999999,13.161520000000001,0.058998,-0.015879,0.890441,7200.0,6490.0,4580.0,47.2,10.08,00000000 00000000,32.825900469000004,34.956397511,24.215,-2.72,0.49,-0.09,0.44,-6.77,-0.71,0.14,-1.46,-1.45,32.825879928,34.956511856,22.93,0.98,39.28,0.03,307511995,2172,1000,11111100,13,25,100,0.0,0,45,45,100802,22.64,8
5882,43.653,7.646,-4.928,2.24047,-11.1351,21.73408,0.052324,-0.009701999999999999,0.967607,7260.0,6510.0,4630.0,47.2,10.1,00000000 00000000,32.825901215,34.956396815,24.213,-2.75,0.48,-0.11,0.44,-6.78,-0.73,0.16,-1.49,-1.44,32.825880182,34.956512143000005,22.94,0.77,43.74,0.19,307512020,2172,1000,11111100,13,25,100,0.0,0,20,20,100802,22.64,3
5883,43.018,7.569,-5.337999999999999,-3.7340800000000005,-13.393679999999998,28.676679999999998,0.0061920000000000005,-0.004182,1.0332620000000001,7380.0,6560.0,4660.0,47.2,10.08,00000000 00000000,32.825901323000004,34.956396074000004,24.21,-2.78,0.47,-0.11,0.44,-6.8,-0.74,0.16,-1.52,-1.45,32.825880182,34.956512143000005,22.94,0.77,43.74,0.19,307512045,2172,1000,11111100,13,25,100,0.0,0,45,45,100802,22.64,0
5884,42.225,7.327999999999999,-5.732,-9.32607,-9.14811,35.74969,-0.022515,0.020538999999999998,1.0762209999999999,7510.0,6670.0,4710.0,47.2,10.09,00000000 00000000,32.825901428,34.956395323,24.207,-2.82,0.46,-0.1,0.44,-6.81,-0.76,0.15,-1.55,-1.48,32.825880327,34.956512334,22.939,0.48,47.98,-0.01,307512070,2172,1000,11110000,17,25,100,0.0,0,20,20,100802,22.64,3
5885,41.284,6.944,-5.9879999999999995,-13.405970000000002,-1.01826,41.23057,-0.028066000000000004,0.044444,1.117789,7650.0,6810.0,4770.0,47.2,10.07,00000000 00000000,32.825901533,34.956394562,24.205,-2.86,0.47,-0.08,0.44,-6.83,-0.78,0.13,-1.57,-1.51,32.825880327,34.956512334,22.939,0.48,47.98,-0.01,307512095,2172,1000,11110000,17,25,100,0.0,0,45,45,100802,22.64,0
5886,40.236,6.474,-6.005,-14.673129999999999,8.54955,45.52659,0.013280000000000002,0.082037,1.16288,7750.0,6970.0,4850.0,47.2,10.09,00000000 00000000,32.82590164,34.95639379,24.203,-2.9,0.47,-0.05,0.44,-6.84,-0.79,0.1,-1.58,-1.53,32.825880609,34.956512629,22.923,0.83,41.44,-0.33,307512120,2172,1000,11110000,18,25,100,0.0,0,20,20,100802,22.64,3
5887,39.111,6.013999999999999,-5.8420000000000005,-12.07496,13.647279999999999,46.55784,0.10849600000000001,0.11348499999999999,1.224666,7820.0,7120.0,4960.0,47.2,10.07,00000000 00000000,32.825901748,34.956393012,24.202,-2.91,0.48,0.0,0.43,-6.86,-0.81,0.05,-1.58,-1.55,32.825880609,34.956512629,22.923,0.83,41.44,-0.33,307512145,2172,1000,11110000,18,25,100,0.0,0,45,45,100802,22.64,0
5888,37.976,5.672000000000001,-5.6129999999999995,-5.70401,12.20027,46.41016,0.197407,0.145378,1.203007,7840.0,7230.0,5090.0,47.2,10.1,00000000 00000000,32.825901856,34.956392232,24.203,-2.9,0.47,0.05,0.43,-6.87,-0.83,0.0,-1.58,-1.54,32.825880945,34.956513011,22.925,1.03,43.76,0.04,307512170,2172,1000,11110000,18,25,100,0.0,0,20,20,100802,22.64,3
5889,36.846,5.483,-5.527,-1.7824200000000001,2.84135,43.38471,0.257499,0.18424200000000002,1.200138,7850.0,7310.0,5210.0,47.2,10.08,00000000 00000000,32.825901961999996,34.956391458,24.205,-2.87,0.46,0.1,0.43,-6.88,-0.84,-0.05,-1.56,-1.51,32.825880945,34.956513011,22.925,1.03,43.76,0.04,307512195,2172,1000,11110000,18,25,100,0.0,0,45,45,100802,22.55,0
5890,35.867,5.322,-5.685,-4.28789,-7.833639999999999,35.1692,0.29431,0.125364,1.219148,7900.0,7390.0,5310.0,47.2,10.1,00000000 00000000,32.825902066,34.956390694,24.208,-2.83,0.45,0.16,0.43,-6.9,-0.86,-0.11,-1.54,-1.46,32.825881348,34.956513451,22.942,1.21,42.72,0.35,307512220,2172,1000,11110000,19,25,100,0.0,0,20,20,100802,22.64,3
5891,35.071999999999996,5.072,-6.053999999999999,-9.16682,-14.705960000000001,31.03016,0.287001,0.051886,1.174627,7990.0,7520.0,5380.0,47.2,10.09,00000000 00000000,32.825902165,34.956389939,24.213,-2.8,0.42,0.22,0.43,-6.91,-0.88,-0.17,-1.54,-1.42,32.825881348,34.956513451,22.942,1.21,42.72,0.35,307512245,2172,1000,11110000,19,25,100,0.0,0,45,45,100802,22.64,0
5892,34.333,4.711,-6.475,-12.47366,-12.22759,30.94466,0.23451100000000002,0.027729000000000004,1.077865,8130.0,7730.0,5430.0,47.1,10.09,00000000 00000000,32.825902256999996,34.956389191999996,24.22,-2.78,0.39,0.26,0.43,-6.93,-0.9,-0.21,-1.55,-1.38,32.825881664,34.956513755,22.956,0.9,39.07,0.26,307512270,2172,1000,11110000,19,25,100,0.0,0,20,20,100802,22.64,3
5893,33.573,4.305,-6.768,-12.39817,-7.199039999999999,33.83054,0.203257,0.04263,0.9901260000000001,8270.0,7970.0,5450.0,47.1,10.08,00000000 00000000,32.825902342,34.956388449,24.226,-2.76,0.36,0.27,0.43,-6.94,-0.91,-0.22,-1.56,-1.35,32.825881664,34.956513755,22.956,0.9,39.07,0.26,307512295,2172,1000,11110000,19,25,100,0.0,0,45,45,100800,22.72,0
5894,32.699,3.9019999999999997,-7.002999999999999,-10.89207,-7.60987,39.14801,0.22762800000000002,0.07323500000000001,0.9497700000000001,8370.0,8190.0,5450.0,47.1,10.07,00000000 00000000,32.825902423,34.95638771,24.233,-2.75,0.35,0.27,0.43,-6.95,-0.93,-0.22,-1.56,-1.32,32.825881884,34.956513946,22.982,0.6,36.35,0.52,307512320,2172,1000,11110000,19,25,100,0.0,0,20,20,100800,22.8,3
5895,31.758000000000003,3.556,-7.28,-6.9618,-8.836269999999999,36.60076,0.230751,0.07998999999999999,0.9598959999999999,8430.0,8380.0,5440.0,47.1,10.09,00000000 00000000,32.825902501,34.956386978000005,24.24,-2.72,0.34,0.26,0.43,-6.97,-0.95,-0.21,-1.55,-1.29,32.825881884,34.956513946,22.982,0.6,36.35,0.52,307512345,2172,1000,11110000,19,25,100,0.0,0,45,45,100798,22.89,0
5896,30.951,3.332,-7.569,-2.76703,-11.631730000000001,30.5345,0.243338,0.047678,0.943743,8480.0,8550.0,5440.0,47.1,10.1,00000000 00000000,32.825902577,34.956386253000005,24.247,-2.69,0.32,0.26,0.43,-6.98,-0.97,-0.21,-1.54,-1.26,32.825882255,34.956514274,23.02,1.02,36.73,0.75,307512370,2172,1000,11110000,18,25,100,0.0,0,20,20,100798,22.89,3
5897,30.201999999999998,3.2030000000000003,-7.992999999999999,0.69584,-18.73402,30.93432,0.228161,0.031424,0.9168129999999999,8540.0,8690.0,5410.0,47.1,10.07,00000000 00000000,32.825902648,34.956385534,24.253,-2.67,0.31,0.25,0.43,-6.99,-0.98,-0.2,-1.54,-1.23,32.825882255,34.956514274,23.02,1.02,36.73,0.75,307512395,2172,1000,11110000,18,25,100,0.0,0,45,45,100800,22.72,0
5898,29.408,3.1519999999999997,-8.536,4.44919,-20.28247,32.39131,0.160832,0.013119,0.8820100000000001,8640.0,8830.0,5380.0,47.1,10.08,00000000 00000000,32.825902716,34.956384821,24.259,-2.66,0.29,0.23,0.42,-7.01,-1.0,-0.18,-1.54,-1.21,32.825882562,34.95651443,23.027,0.74,23.14,0.13,307512420,2172,1000,11110000,18,25,100,0.0,0,20,20,100800,22.72,3
5899,28.558000000000003,3.1860000000000004,-9.097000000000001,8.37723,-20.8249,33.97475,0.10907599999999999,0.006052,0.82532,8740.0,8960.0,5330.0,47.1,10.05,00000000 00000000,32.825902782,34.956384108,24.265,-2.66,0.28,0.2,0.42,-7.02,-1.02,-0.15,-1.55,-1.2,32.825882562,34.95651443,23.027,0.74,23.14,0.13,307512445,2172,1000,11110000,18,25,100,0.0,0,45,45,100800,22.72,0
5900,27.680999999999997,3.2939999999999996,-9.658,11.83636,-18.86433,33.21113,0.057279,0.008809,0.805029,8840.0,9090.0,5280.0,47.1,10.1,00000000 00000000,32.825902846,34.956383394,24.269,-2.67,0.28,0.15,0.42,-7.04,-1.04,-0.1,-1.55,-1.21,32.825882905,34.956514407,22.966,0.76,356.74,-1.22,307512470,2172,1000,11110000,16,25,100,0.0,0,20,20,100800,22.72,3
5901,26.848000000000003,3.5180000000000002,10.078,17.19302,-10.51379,29.21361,0.048329000000000004,0.012422,0.779346,8930.0,9190.0,5240.0,47.1,10.08,00000000 00000000,32.82590291,34.956382675,24.272,-2.69,0.28,0.1,0.42,-7.05,-1.06,-0.05,-1.56,-1.23,32.825882905,34.956514407,22.966,0.76,356.74,-1.22,307512495,2172,1000,11110000,16,25,100,0.0,0,45,45,100800,22.72,0
5902,26.089000000000002,3.8560000000000003,10.245999999999999,19.43991,2.53199,25.1132,-0.015887000000000002,-0.013453999999999999,0.802796,8980.0,9260.0,5220.0,47.1,10.08,00000000 00000000,32.825902975,34.956381949000004,24.274,-2.73,0.28,0.04,0.42,-7.06,-1.08,0.0,-1.56,-1.25,32.82588312,34.956514426,22.955,0.47,4.32,-0.2,307512520,2172,1000,11110000,16,25,100,0.0,0,20,20,100798,22.89,3
5903,25.444000000000003,4.2330000000000005,10.059,18.98,14.52256,20.55612,0.005031,-0.025454,0.799581,9010.0,9310.0,5220.0,47.1,10.08,00000000 00000000,32.82590304,34.956381213,24.275,-2.77,0.28,0.0,0.42,-7.08,-1.09,0.05,-1.58,-1.29,32.82588312,34.956514426,22.955,0.47,4.32,-0.2,307512545,2172,1000,11110000,16,25,100,0.0,0,45,45,100796,23.05,0
5904,24.89,4.609,-9.661,18.50306,20.71998,17.90963,0.051612,-0.015977,0.8607030000000001,9000.0,9340.0,5260.0,47.1,10.1,00000000 00000000,32.825903104,34.956380466999995,24.274,-2.8,0.28,-0.04,0.42,-7.09,-1.11,0.09,-1.59,-1.31,32.825883339,34.95651442,22.937,0.48,358.72,-0.36,307512570,2172,1000,11110000,16,25,100,0.0,0,20,20,100798,22.89,3
5905,24.378,5.013,-9.12,20.237560000000002,25.36821,17.62279,0.079183,-0.017957,0.9343969999999999,8960.0,9350.0,5310.0,47.1,10.1,00000000 00000000,32.825903165999996,34.956379714,24.272,-2.82,0.26,-0.07,0.42,-7.1,-1.13,0.12,-1.61,-1.33,32.825883339,34.95651442,22.937,0.48,358.72,-0.36,307512595,2172,1000,11110000,16,25,100,0.0,0,45,45,100798,22.89,0
5906,23.851999999999997,5.452999999999999,-8.525,20.437739999999998,25.574939999999998,17.93919,0.105019,-0.030726999999999997,0.997617,8900.0,9370.0,5410.0,47.1,10.08,00000000 00000000,32.825903224,34.956378954,24.27,-2.85,0.24,-0.08,0.42,-7.12,-1.15,0.13,-1.63,-1.34,32.825883583,34.956514476,22.924,0.55,11.0,-0.26,307512620,2172,1000,11110000,16,25,100,0.0,0,20,20,100798,22.89,3
5907,23.349,5.8629999999999995,-7.978,17.1969,21.528979999999997,16.91254,0.126615,-0.045875,1.0414299999999999,8830.0,9370.0,5500.0,47.1,10.08,00000000 00000000,32.825903276999995,34.956378188,24.268,-2.86,0.22,-0.07,0.42,-7.13,-1.17,0.13,-1.66,-1.34,32.825883583,34.956514476,22.924,0.55,11.0,-0.26,307512645,2172,1000,11110000,16,25,100,0.0,0,45,45,100798,22.89,0
5908,22.897,6.178,-7.557,12.28828,16.26145,15.04795,0.139828,-0.030938,1.083437,8770.0,9360.0,5590.0,47.1,10.08,00000000 00000000,32.825903323,34.956377419,24.267,-2.88,0.18,-0.06,0.41,-7.14,-1.19,0.11,-1.69,-1.34,32.825883876999995,34.95651466,22.935,0.73,27.76,0.23,307512670,2172,1000,11110000,16,25,100,0.0,0,20,20,100798,22.97,3
5909,22.53,6.38,-7.255,7.51071,10.38084,11.76821,0.15409,-0.019652,1.0944129999999999,8710.0,9360.0,5670.0,47.1,10.1,00000000 00000000,32.825903361,34.956376645,24.265,-2.89,0.15,-0.03,0.41,-7.16,-1.2,0.09,-1.72,-1.33,32.825883876999995,34.95651466,22.935,0.73,27.76,0.23,307512695,2172,1000,11110000,16,25,100,0.0,0,45,45,100798,22.89,0
5910,22.269000000000002,6.465,-7.1370000000000005,1.6452799999999999,1.63658,7.75166,0.129905,-0.037426,1.11015,8680.0,9370.0,5740.0,47.1,10.1,00000000 00000000,32.825903392,34.956375869,24.265,-2.9,0.11,-0.01,0.41,-7.17,-1.22,0.06,-1.76,-1.33,32.825884385,34.956515007,22.946,1.3,29.99,0.2,307512720,2172,1000,11110000,15,25,100,0.0,0,20,20,100798,22.89,3
5911,22.153000000000002,6.42,-7.165,-3.6079199999999996,-1.95905,2.02188,0.113227,-0.009649,1.135258,8670.0,9390.0,5780.0,47.1,10.08,00000000 00000000,32.825903415,34.956375089,24.265,-2.92,0.08,0.01,0.41,-7.18,-1.24,0.04,-1.79,-1.33,32.825884385,34.956515007,22.946,1.3,29.99,0.2,307512745,2172,1000,11110000,15,25,100,0.0,0,45,45,100798,22.89,0
5912,22.182,6.297999999999999,-7.21,-5.9993,-2.38057,-2.6995299999999998,0.06533,0.008633,1.119216,8670.0,9430.0,5820.0,47.1,10.08,00000000 00000000,32.825903431,34.956374304,24.266,-2.94,0.06,0.04,0.41,-7.2,-1.26,0.0,-1.81,-1.34,32.825884748,34.95651512,22.961,0.83,14.75,0.31,307512770,2172,1000,11110000,15,25,100,0.0,0,20,20,100798,22.89,3
5913,22.264,6.152,-7.379,-6.5467,-12.944469999999999,-1.9488299999999998,0.05996699999999999,0.038377999999999995,1.114508,8690.0,9450.0,5830.0,47.1,10.08,00000000 00000000,32.825903443,34.956373513,24.267,-2.97,0.04,0.07,0.41,-7.21,-1.28,-0.01,-1.83,-1.35,32.825884748,34.95651512,22.961,0.83,14.75,0.31,307512795,2172,1000,11110000,15,25,100,0.0,0,45,45,100796,23.05,0
5914,22.368000000000002,5.9910000000000005,-7.784,-7.080019999999999,-17.24051,-5.8739300000000005,0.138553,0.068369,1.182941,8730.0,9480.0,5830.0,47.1,10.09,00000000 00000000,32.825903453,34.956372715,24.269,-2.98,0.03,0.11,0.41,-7.22,-1.3,-0.05,-1.84,-1.36,32.825885076999995,34.95651502,22.987,0.75,345.52,0.51,307512820,2172,1000,11110000,15,25,100,0.0,0,20,20,100796,23.05,3
