,Heading,Pitch,Roll,Gyro_X,Gyro_Y,Gyro_Z,Acc_X,Acc_Y,Acc_Z,Magn_X,Magn_Y,Magn_Z,Temperature,Vdd,USW (L/H),Latitude,Longitude,Altitude,V_East,V_North,V_Up,Heave,Surge,Sway,V_Heave,V_Surge,V_Sway,Lat_GNSS,Long_GNSS,Height_GNSS,Hor_spd,Trk_gnd,Ver_spd,ms_gps,GPS_Week,GNSS_info_1,GNSS_info_2,#solnSVs,V_latency,anglesPosType,Heading_GNSS,Latency_ms_head,Latency_ms_pos,Latency_ms_vel,P_Bar,H_Bar,New_GPS
13041,209.75900000000001,0.042,-2.589,-3.4639599999999997,3.12113,-3.1446400000000003,0.09063500000000001,0.022616999999999998,0.9195,1860.0,15000.0,3160.0,46.5,10.11,00000000 00000000,32.829939829000004,34.947202128,11.221,-25.65,8.0,-0.38,0.14,5.42,-9.12,0.08,1.01,0.32,32.82802101,34.957936945,-11.136,1.32,220.33,1.24,307806670,2172,0,1001,0,0,100,0.0,0,20,20,100798,22.89,3
13042,209.817,0.084,-2.526,-0.27316999999999997,1.82037,-1.35751,0.104333,0.014465,0.928998,1840.0,15000.0,3110.0,46.5,10.09,00000000 00000000,32.829941629000004,34.947195262,11.212,-25.67,8.0,-0.39,0.14,5.44,-9.08,0.1,1.01,0.33,32.82802101,34.957936945,-11.136,1.32,220.33,1.24,307806695,2172,0,1001,0,0,100,0.0,0,45,45,100798,22.89,0
13043,209.82299999999998,0.063,-2.522,1.8684900000000002,-1.77643,0.7162,0.121859,0.00024700000000000004,0.958765,1840.0,15000.0,3090.0,46.5,10.1,00000000 00000000,32.82994343,34.94718839,11.201,-25.68,8.01,-0.41,0.14,5.46,-9.03,0.11,1.01,0.35,32.82802101,34.957936945,-11.136,1.32,220.33,1.24,307806720,2172,0,1001,0,0,100,0.0,0,20,20,100800,22.8,3
13044,209.79,0.001,-2.62,3.07187,-6.562469999999999,1.92777,0.142484,-0.013836000000000001,1.011781,1840.0,14980.0,3090.0,46.5,10.09,00000000 00000000,32.829945233000004,34.947181514,11.191,-25.7,8.02,-0.41,0.14,5.49,-8.99,0.12,1.0,0.37,32.82802101,34.957936945,-11.136,1.32,220.33,1.24,307806745,2172,0,1001,0,0,100,0.0,0,45,45,100800,22.8,0
13045,209.71,0.075,-2.863,2.95336,-12.282,4.105580000000001,0.139449,-0.027016000000000002,1.054074,1830.0,14970.0,3120.0,46.5,10.12,00000000 00000000,32.829947039000004,34.947174633,11.181,-25.72,8.04,-0.4,0.14,5.51,-8.95,0.11,1.0,0.39,32.82802101,34.957936945,-11.136,1.32,220.33,1.24,307806770,2172,0,1001,0,0,100,0.0,0,20,20,100800,22.8,3
13046,209.58900000000003,0.11199999999999999,-3.197,0.14599,-13.34239,4.9969,0.12828599999999998,-0.030808,1.067053,1810.0,14960.0,3150.0,46.5,10.1,00000000 00000000,32.829948849000004,34.947167746,11.171,-25.74,8.05,-0.38,0.14,5.54,-8.91,0.09,0.99,0.41,32.82802101,34.957936945,-11.136,1.32,220.33,1.24,307806795,2172,0,1001,0,0,100,0.0,0,45,45,100800,22.8,0
13047,209.49099999999999,0.068,-3.464,-3.06546,-7.47348,2.75641,0.109895,-0.022981,1.059603,1780.0,14950.0,3190.0,46.5,10.11,00000000 00000000,32.829950661999995,34.947160857,11.161,-25.75,8.07,-0.37,0.14,5.56,-8.86,0.07,0.98,0.42,32.82802101,34.957936945,-11.136,1.32,220.33,1.24,307806820,2172,0,1001,0,0,100,0.0,0,20,20,100800,22.72,3
13048,209.46900000000002,0.032,-3.603,-4.83576,-4.88955,-0.45537,0.08588,-0.015600999999999999,1.023788,1770.0,14950.0,3210.0,46.5,10.08,00000000 00000000,32.829952478,34.947153965,11.152,-25.76,8.07,-0.35,0.14,5.58,-8.82,0.06,0.97,0.43,32.82802101,34.957936945,-11.136,1.32,220.33,1.24,307806845,2172,0,1001,0,0,100,0.0,0,45,45,100798,22.89,0
13049,209.532,0.174,-3.7510000000000003,-6.804539999999999,-6.91557,-3.67656,0.088965,-0.009208,1.0031780000000001,1750.0,14970.0,3200.0,46.5,10.09,00000000 00000000,32.829954295,34.947147072,11.143,-25.76,8.08,-0.35,0.14,5.61,-8.78,0.05,0.96,0.43,32.82802101,34.957936945,-11.136,1.32,220.33,1.24,307806870,2172,0,1001,0,0,100,0.0,0,20,20,100798,22.97,3
13050,209.66099999999997,0.349,-3.925,-7.54145,-6.35848,-5.35693,0.104154,-0.000288,1.004283,1750.0,15010.0,3240.0,46.5,10.05,00000000 00000000,32.829956113,34.947140176,11.134,-25.77,8.08,-0.35,0.14,5.63,-8.73,0.05,0.96,0.44,32.82802101,34.957936945,-11.136,1.32,220.33,1.24,307806895,2172,0,1001,0,0,100,0.0,0,45,45,100800,22.8,0
13051,209.795,0.519,-4.071000000000001,-6.579439999999999,-5.12981,-4.16224,0.107474,0.010962000000000001,0.994343,1740.0,15050.0,3270.0,46.5,10.08,00000000 00000000,32.829957932,34.947133279,11.126,-25.78,8.08,-0.35,0.14,5.65,-8.69,0.05,0.96,0.45,32.82802101,34.957936945,-11.136,1.32,220.33,1.24,307806920,2172,0,1001,0,0,100,0.0,0,20,20,100798,22.89,3
13052,209.891,0.6609999999999999,-4.177,-5.26714,-2.8433900000000003,-2.79589,0.10343499999999999,0.018493,0.99475,1730.0,15080.0,3270.0,46.5,10.07,00000000 00000000,32.829959751,34.947126378,11.117,-25.79,8.08,-0.35,0.14,5.68,-8.64,0.05,0.96,0.45,32.82802101,34.957936945,-11.136,1.32,220.33,1.24,307806945,2172,0,1001,0,0,100,0.0,0,45,45,100800,22.8,0
13053,209.97400000000002,0.7609999999999999,-4.204,-3.0078,0.89197,-3.4607699999999997,0.09549500000000001,0.016217,0.9944540000000001,1720.0,15100.0,3250.0,46.5,10.09,00000000 00000000,32.829961569,34.947119473,11.108,-25.8,8.08,-0.35,0.14,5.7,-8.6,0.05,0.97,0.46,32.82802101,34.957936945,-11.136,1.32,220.33,1.24,307806970,2172,0,1001,0,0,100,0.0,0,20,20,100798,22.89,3
13054,210.06599999999997,0.7929999999999999,-4.147,-0.28574,3.30851,-3.34515,0.094563,0.006945000000000001,0.970924,1720.0,15110.0,3240.0,46.5,10.08,00000000 00000000,32.829963385999996,34.947112566,11.099,-25.81,8.08,-0.35,0.14,5.73,-8.55,0.05,0.97,0.46,32.82802101,34.957936945,-11.136,1.32,220.33,1.24,307806995,2172,0,1001,0,0,100,0.0,0,45,45,100800,22.8,0
13055,210.132,0.7879999999999999,-4.062,-0.0764,3.60164,-1.80256,0.103344,-0.005184,0.965518,1740.0,15130.0,3250.0,46.5,10.07,00000000 00000000,32.829965204000004,34.947105657,11.09,-25.82,8.08,-0.36,0.14,5.75,-8.51,0.06,0.97,0.47,32.82802101,34.957936945,-11.136,1.32,220.33,1.24,307807020,2172,0,1001,0,0,100,0.0,0,20,20,100800,22.8,3
13056,210.16299999999998,0.795,-3.972,-0.5836399999999999,3.4401800000000002,-0.9565299999999999,0.114995,-0.004487,0.976083,1750.0,15120.0,3220.0,46.5,10.07,00000000 00000000,32.829967022,34.947098744,11.081,-25.84,8.08,-0.36,0.14,5.77,-8.46,0.06,0.97,0.48,32.82802101,34.957936945,-11.136,1.32,220.33,1.24,307807045,2172,0,1001,0,0,100,0.0,0,45,45,100800,22.8,0
13057,210.195,0.813,-3.917,-0.9705,0.46329,-1.9295,0.112096,-0.001542,0.9628329999999999,1750.0,15120.0,3210.0,46.5,10.09,00000000 00000000,32.82996884,34.947091829,11.072,-25.85,8.09,-0.37,0.14,5.8,-8.42,0.07,0.97,0.49,32.82802101,34.957936945,-11.136,1.32,220.33,1.24,307807070,2172,0,1001,0,0,100,0.0,0,20,20,100800,22.8,3
13058,210.266,0.845,-3.977,-2.15088,-4.85147,-3.32616,0.12193599999999999,-0.009940000000000001,0.978181,1760.0,15120.0,3200.0,46.5,10.08,00000000 00000000,32.82997066,34.947084909000004,11.062,-25.86,8.09,-0.38,0.14,5.82,-8.37,0.07,0.97,0.5,32.82802101,34.957936945,-11.136,1.32,220.33,1.24,307807095,2172,0,1001,0,0,100,0.0,0,45,45,100800,22.8,0
13059,210.37900000000002,0.9129999999999999,-4.1,-3.7397,-3.6867699999999997,-5.72963,0.12675,-0.002381,1.0118120000000002,1730.0,15110.0,3170.0,46.5,10.1,00000000 00000000,32.82997248,34.947077986,11.053,-25.88,8.1,-0.38,0.14,5.85,-8.32,0.07,0.97,0.51,32.82802101,34.957936945,-11.136,1.32,220.33,1.24,307807120,2172,0,1001,0,0,100,0.0,0,20,20,100800,22.8,3
13060,210.558,1.001,-4.155,-4.31375,-0.9551200000000001,-7.42825,0.11537,-0.006997,1.012343,1700.0,15120.0,3160.0,46.5,10.07,00000000 00000000,32.829974302,34.947071059,11.043,-25.89,8.1,-0.37,0.14,5.87,-8.28,0.07,0.97,0.52,32.82802101,34.957936945,-11.136,1.32,220.33,1.24,307807145,2172,0,1001,0,0,100,0.0,0,45,45,100802,22.64,0
13061,210.737,1.103,-4.21,-4.9888699999999995,-3.97365,-5.91904,0.08737,-0.01296,1.008254,1680.0,15150.0,3180.0,46.5,10.1,00000000 00000000,32.829976124,34.947064129,11.034,-25.9,8.1,-0.37,0.13,5.9,-8.23,0.06,0.97,0.53,32.82802101,34.957936945,-11.136,1.32,220.33,1.24,307807170,2172,0,1001,0,0,100,0.0,0,20,20,100802,22.64,3
13062,210.88,1.232,-4.35,-6.06896,-5.37705,-5.49948,0.070938,0.001873,1.025836,1650.0,15180.0,3190.0,46.5,10.07,00000000 00000000,32.829977946,34.947057197,11.025,-25.9,8.1,-0.36,0.13,5.92,-8.18,0.06,0.97,0.52,32.82802101,34.957936945,-11.136,1.32,220.33,1.24,307807195,2172,0,1001,0,0,100,0.0,0,45,45,100800,22.8,0
13063,211.058,1.382,-4.421,-7.17006,0.8433299999999999,-7.88006,0.067205,0.0065769999999999995,1.032943,1620.0,15210.0,3210.0,46.5,10.11,00000000 00000000,32.829979767,34.947050264,11.016,-25.91,8.09,-0.35,0.13,5.94,-8.13,0.05,0.97,0.52,32.82802101,34.957936945,-11.136,1.32,220.33,1.24,307807220,2172,0,1001,0,0,100,0.0,0,20,20,100800,22.8,3
13064,211.30700000000002,1.565,-4.303,-8.8677,8.961210000000001,-11.2311,0.043657,-3.5e-05,1.02755,1590.0,15240.0,3210.0,46.5,10.08,00000000 00000000,32.829981586,34.947043330999996,11.007,-25.91,8.08,-0.35,0.13,5.97,-8.09,0.04,0.98,0.51,32.82802101,34.957936945,-11.136,1.32,220.33,1.24,307807245,2172,0,1001,0,0,100,0.0,0,45,45,100802,22.64,0
13065,211.674,1.776,-4.008,-10.19932,14.859179999999999,-16.68461,0.040038,-0.04388,1.025287,1570.0,15280.0,3200.0,46.5,10.11,00000000 00000000,32.829983404000004,34.947036398,10.998,-25.9,8.07,-0.34,0.13,5.99,-8.04,0.03,0.98,0.5,32.82802101,34.957936945,-11.136,1.32,220.33,1.24,307807270,2172,0,1001,0,0,100,0.0,0,20,20,100802,22.64,3
13066,212.15900000000002,2.009,-3.612,-10.72462,18.15877,-20.83127,0.094624,-0.072808,1.059971,1580.0,15340.0,3200.0,46.5,10.05,00000000 00000000,32.82998522,34.947029466,10.99,-25.9,8.08,-0.33,0.13,6.02,-7.99,0.02,0.97,0.5,32.82802101,34.957936945,-11.136,1.32,220.33,1.24,307807295,2172,0,1001,0,0,100,0.0,0,45,45,100802,22.55,0
13067,212.73,2.24,-3.162,-10.40827,18.29344,-22.46779,0.151701,-0.061271000000000006,1.049859,1610.0,15420.0,3210.0,46.5,10.1,00000000 00000000,32.82998704,34.947022533,10.982,-25.91,8.1,-0.31,0.13,6.04,-7.94,0.01,0.96,0.51,32.82802101,34.957936945,-11.136,1.32,220.33,1.24,307807320,2172,0,1001,0,0,100,0.0,0,20,20,100802,22.55,3
13068,213.24400000000003,2.451,-2.783,-8.29854,13.70796,-16.89091,0.128654,0.004783,0.9743069999999999,1630.0,15510.0,3160.0,46.5,10.07,00000000 00000000,32.829988862,34.947015596,10.974,-25.93,8.11,-0.31,0.13,6.07,-7.89,0.0,0.95,0.53,32.82802101,34.957936945,-11.136,1.32,220.33,1.24,307807345,2172,0,1001,0,0,100,0.0,0,45,45,100800,22.8,0
13069,213.607,2.596,-2.45,-4.3487599999999995,15.731779999999999,-12.27465,0.089658,0.068607,0.902982,1640.0,15560.0,3100.0,46.5,10.09,00000000 00000000,32.829990685,34.947008652,10.966,-25.96,8.1,-0.32,0.12,6.09,-7.84,0.01,0.97,0.55,32.82802101,34.957936945,-11.136,1.32,220.33,1.24,307807370,2172,0,1001,0,0,100,0.0,0,20,20,100800,22.8,3
13070,213.877,2.633,-2.01,0.5684100000000001,20.095979999999997,-9.32541,0.083741,0.078378,0.8661709999999999,1670.0,15600.0,3030.0,46.5,10.07,00000000 00000000,32.829992505,34.947001701,10.957,-25.99,8.08,-0.35,0.12,6.12,-7.79,0.04,0.99,0.56,32.82802101,34.957936945,-11.136,1.32,220.33,1.24,307807395,2172,0,1001,0,0,100,0.0,0,45,45,100798,22.97,0
13071,214.085,2.555,-1.516,4.8415,18.96144,-7.607660000000001,0.101228,0.036562,0.867648,1720.0,15610.0,2980.0,46.5,10.08,00000000 00000000,32.829994322,34.946994742,10.948,-26.02,8.07,-0.38,0.12,6.14,-7.74,0.07,1.02,0.57,32.82802101,34.957936945,-11.136,1.32,220.33,1.24,307807420,2172,0,1001,0,0,100,0.0,0,20,20,100798,22.89,3
13072,214.247,2.397,-1.141,7.1948300000000005,10.66488,-5.50556,0.129341,-0.028044,0.8989719999999999,1760.0,15600.0,2950.0,46.5,10.08,00000000 00000000,32.829996136999995,34.946987776,10.938,-26.04,8.07,-0.41,0.12,6.17,-7.69,0.1,1.03,0.59,32.82802101,34.957936945,-11.136,1.32,220.33,1.24,307807445,2172,0,1001,0,0,100,0.0,0,45,45,100800,22.8,0
13073,214.36,2.2,-1.011,8.245510000000001,0.40402,-4.1006599999999995,0.15293199999999998,-0.07478,0.960046,1790.0,15580.0,2930.0,46.5,10.1,00000000 00000000,32.829997956,34.946980802,10.927,-26.07,8.1,-0.43,0.12,6.19,-7.64,0.12,1.02,0.62,32.82802101,34.957936945,-11.136,1.32,220.33,1.24,307807470,2172,0,1001,0,0,100,0.0,0,20,20,100800,22.8,3
13074,214.46200000000002,2.004,-1.124,6.859039999999999,-8.96203,-4.45164,0.180755,-0.093734,1.0117129999999999,1780.0,15540.0,2910.0,46.5,10.09,00000000 00000000,32.82999978,34.946973822,10.916,-26.09,8.13,-0.43,0.12,6.22,-7.59,0.12,1.0,0.66,32.82802101,34.957936945,-11.136,1.32,220.33,1.24,307807495,2172,0,1001,0,0,100,0.0,0,45,45,100798,22.89,0
13075,214.578,1.8780000000000001,-1.4680000000000002,2.67233,-17.409779999999998,-5.7639,0.187727,-0.067703,1.0643200000000002,1760.0,15520.0,2920.0,46.5,10.11,00000000 00000000,32.830001612,34.946966836,10.905,-26.12,8.16,-0.42,0.13,6.24,-7.54,0.11,0.99,0.69,32.82802101,34.957936945,-11.136,1.32,220.33,1.24,307807520,2172,0,1001,0,0,100,0.0,0,20,20,100798,22.89,3
13076,214.794,1.8530000000000002,-1.965,-0.82331,-21.455579999999998,-12.00713,0.16148099999999999,-0.007498,1.0927,1700.0,15510.0,2950.0,46.5,10.08,00000000 00000000,32.830003450999996,34.946959841,10.895,-26.15,8.18,-0.4,0.13,6.26,-7.49,0.09,0.98,0.73,32.82802101,34.957936945,-11.136,1.32,220.33,1.24,307807545,2172,0,1001,0,0,100,0.0,0,45,45,100800,22.8,0
13077,215.16299999999998,1.875,-2.5660000000000003,-1.68937,-25.21671,-17.03519,0.107722,0.046355,1.0657379999999999,1630.0,15540.0,2990.0,46.5,10.11,00000000 00000000,32.830005291999996,34.946952838,10.885,-26.18,8.18,-0.38,0.13,6.29,-7.44,0.07,0.99,0.75,32.82802101,34.957936945,-11.136,1.32,220.33,1.24,307807570,2172,0,1001,0,0,100,0.0,0,20,20,100798,22.89,3
13078,215.649,1.889,-3.2039999999999997,-1.5285600000000001,-23.54128,-21.94749,0.013462,0.035338,0.9862559999999999,1530.0,15570.0,3020.0,46.5,10.09,00000000 00000000,32.830007131,34.946945828000004,10.876,-26.2,8.17,-0.37,0.13,6.31,-7.39,0.06,1.01,0.75,32.82802101,34.957936945,-11.136,1.32,220.33,1.24,307807595,2172,0,1001,0,0,100,0.0,0,45,45,100798,22.89,0
13079,216.245,1.893,-3.735,-1.62521,-16.726779999999998,-24.6327,-0.076834,0.011874,0.9325260000000001,1430.0,15610.0,3040.0,46.5,10.11,00000000 00000000,32.830008966,34.946938818,10.866,-26.19,8.14,-0.38,0.12,6.34,-7.34,0.07,1.02,0.73,32.82802101,34.957936945,-11.136,1.32,220.33,1.24,307807620,2172,0,1001,0,0,100,0.0,0,20,20,100800,22.8,3
13080,216.835,1.893,-4.051,-1.7034099999999999,-6.60204,-21.34388,-0.131717,-0.013829,0.907285,1340.0,15630.0,3020.0,46.5,10.08,00000000 00000000,32.830010795,34.946931813,10.856,-26.16,8.11,-0.41,0.12,6.36,-7.29,0.09,1.03,0.69,32.82802101,34.957936945,-11.136,1.32,220.33,1.24,307807645,2172,0,1001,0,0,100,0.0,0,45,45,100798,22.89,0
13081,217.30700000000002,1.9169999999999998,-4.121,-2.94043,1.32172,-16.54553,-0.129821,-0.040199,0.9220879999999999,1290.0,15650.0,2980.0,46.5,10.1,00000000 00000000,32.830012617,34.946924816,10.846,-26.12,8.08,-0.43,0.12,6.39,-7.23,0.11,1.02,0.63,32.82802101,34.957936945,-11.136,1.32,220.33,1.24,307807670,2172,0,1001,0,0,100,0.0,0,20,20,100796,23.05,3
13082,217.699,1.98,-4.082,-4.4000900000000005,1.73233,-14.551789999999999,-0.060135,-0.069222,1.01651,1270.0,15670.0,2920.0,46.5,10.08,00000000 00000000,32.830014434,34.94691783,10.835,-26.09,8.06,-0.44,0.13,6.41,-7.18,0.13,1.01,0.59,32.82802101,34.957936945,-11.136,1.32,220.33,1.24,307807695,2172,0,1001,0,0,100,0.0,0,45,45,100800,22.8,0
13083,218.03400000000002,2.108,-4.118,-8.28633,-4.84408,-10.52242,0.048289,-0.08494299999999999,1.106149,1280.0,15710.0,2920.0,46.5,10.1,00000000 00000000,32.830016246999996,34.94691085,10.824,-26.07,8.06,-0.43,0.13,6.44,-7.13,0.11,1.0,0.57,32.82802101,34.957936945,-11.136,1.32,220.33,1.24,307807720,2172,0,1001,0,0,100,0.0,0,20,20,100798,22.89,3
13084,218.25599999999997,2.358,-4.355,-12.56425,-12.22752,-7.35837,0.127429,-0.034213,1.165857,1280.0,15740.0,2910.0,46.5,10.08,00000000 00000000,32.830018061,34.946903874,10.813,-26.07,8.07,-0.39,0.13,6.46,-7.08,0.08,0.99,0.56,32.82802101,34.957936945,-11.136,1.32,220.33,1.24,307807745,2172,0,1001,0,0,100,0.0,0,45,45,100800,22.8,0
13085,218.59400000000002,2.6630000000000003,-4.666,-13.27396,-10.17653,-20.13707,0.1426,0.015568,1.1763700000000001,1270.0,15770.0,2890.0,46.5,10.1,00000000 00000000,32.830019876,34.946896895,10.804,-26.09,8.06,-0.35,0.13,6.49,-7.02,0.03,1.0,0.57,32.82802101,34.957936945,-11.136,1.32,220.33,1.24,307807770,2172,0,1001,0,0,100,0.0,0,20,20,100798,22.97,3
13086,219.30900000000003,2.918,-4.939,-11.818589999999999,-10.131639999999999,-32.964290000000005,0.120199,-0.005915,1.139389,1230.0,15810.0,2870.0,46.5,10.08,00000000 00000000,32.830021689,34.94688991,10.796,-26.11,8.06,-0.3,0.12,6.51,-6.97,0.0,1.01,0.58,32.82802101,34.957936945,-11.136,1.32,220.33,1.24,307807795,2172,0,1001,0,0,100,0.0,0,45,45,100798,22.97,0
13087,220.18900000000002,3.113,-5.297000000000001,-9.94948,-14.27985,-34.78065,0.044175,-0.034693,1.063317,1180.0,15870.0,2840.0,46.5,10.07,00000000 00000000,32.830023501999996,34.946882922,10.788,-26.11,8.05,-0.28,0.12,6.54,-6.92,-0.03,1.02,0.58,32.82802101,34.957936945,-11.136,1.32,220.33,1.24,307807820,2172,0,1001,0,0,100,0.0,0,20,20,100796,23.14,3
13088,221.083,3.2439999999999998,-5.699,-6.87212,-12.27346,-35.5446,-0.031779,-0.018888,0.9905520000000001,1100.0,15940.0,2800.0,46.5,10.07,00000000 00000000,32.830025311,34.946875935,10.781,-26.1,8.03,-0.27,0.12,6.56,-6.86,-0.03,1.02,0.55,32.82802101,34.957936945,-11.136,1.32,220.33,1.24,307807845,2172,0,1001,0,0,100,0.0,0,45,45,100796,23.05,0
13089,221.99200000000002,3.2539999999999996,-5.931,-1.21684,-1.09927,-36.16091,-0.055816,-0.029141000000000004,0.9511459999999999,1030.0,15990.0,2740.0,46.5,10.1,00000000 00000000,32.830027114,34.946868953,10.774,-26.08,8.0,-0.28,0.12,6.59,-6.81,-0.03,1.03,0.52,32.82802101,34.957936945,-11.136,1.32,220.33,1.24,307807870,2172,0,1001,0,0,100,0.0,0,20,20,100796,23.05,3
13090,222.85,3.139,-5.856,3.0632200000000003,9.67656,-31.72815,0.016944999999999998,-0.045982,0.9464379999999999,-960.0,16030.0,2690.0,46.5,10.08,00000000 00000000,32.830028911,34.946861975,10.767,-26.06,7.98,-0.3,0.11,6.62,-6.75,-0.01,1.03,0.48,32.82802101,34.957936945,-11.136,1.32,220.33,1.24,307807895,2172,0,1001,0,0,100,0.0,0,45,45,100796,23.05,0
13091,223.518,2.952,-5.648,6.42218,7.41448,-22.79792,0.12104100000000001,-0.022678,0.969147,-910.0,16050.0,2610.0,46.5,10.12,00000000 00000000,32.830030706,34.946855000999996,10.759,-26.06,7.97,-0.31,0.11,6.64,-6.7,0.0,1.03,0.47,32.82802101,34.957936945,-11.136,1.32,220.33,1.24,307807920,2172,0,1001,0,0,100,0.0,0,20,20,100798,22.97,3
13092,223.99,2.71,-5.5520000000000005,9.005989999999999,3.27598,-18.10331,0.122583,-0.006247,0.9886379999999999,-900.0,16060.0,2590.0,46.5,10.08,00000000 00000000,32.830032499,34.946848024,10.751,-26.08,7.97,-0.31,0.11,6.67,-6.65,0.0,1.03,0.48,32.82802101,34.957936945,-11.136,1.32,220.33,1.24,307807945,2172,0,1001,0,0,100,0.0,0,45,45,100798,22.89,0
13093,224.41400000000002,2.427,-5.485,10.00935,3.2837,-17.24682,0.11498900000000001,-0.041537,0.9690340000000001,-880.0,16070.0,2590.0,46.5,10.11,00000000 00000000,32.830034293000004,34.946841044,10.744,-26.09,7.97,-0.31,0.11,6.69,-6.59,0.0,1.04,0.48,32.82802101,34.957936945,-11.136,1.32,220.33,1.24,307807970,2172,0,1001,0,0,100,0.0,0,20,20,100798,22.89,3
13094,224.75,2.156,-5.421,8.66571,3.764,-11.56738,0.04623,-0.06914400000000001,0.947314,-860.0,16060.0,2590.0,46.5,10.07,00000000 00000000,32.830036086999996,34.946834063000004,10.736,-26.08,7.97,-0.32,0.1,6.72,-6.54,0.0,1.03,0.48,32.82802101,34.957936945,-11.136,1.32,220.33,1.24,307807995,2172,0,1001,0,0,100,0.0,0,45,45,100798,22.89,0
13095,224.954,1.954,-5.33,5.42785,3.97856,-5.96475,-0.012675,-0.10251600000000001,0.904108,-870.0,16080.0,2650.0,46.4,10.12,00000000 00000000,32.830037880999996,34.946827086,10.727,-26.06,7.97,-0.34,0.1,6.74,-6.48,0.02,1.01,0.46,32.82802101,34.957936945,-11.136,1.32,220.33,1.24,307808020,2172,0,1001,0,0,100,0.0,0,20,20,100798,22.97,3
13096,224.995,1.889,-5.221,-0.94604,5.04663,2.91918,-0.056854999999999996,-0.141323,0.8783559999999999,-870.0,16060.0,2620.0,46.4,10.08,00000000 00000000,32.830039674,34.946820116,10.718,-26.02,7.97,-0.36,0.1,6.77,-6.42,0.04,0.99,0.43,32.82802101,34.957936945,-11.136,1.32,220.33,1.24,307808045,2172,0,1001,0,0,100,0.0,0,45,45,100796,23.14,0
13097,224.78400000000002,2.022,-5.096,-7.95522,3.16836,14.74035,-0.034439,-0.11636500000000001,0.853511,-900.0,16060.0,2600.0,46.4,10.13,00000000 00000000,32.830041466,34.946813157,10.709,-25.99,7.96,-0.4,0.1,6.79,-6.37,0.08,0.96,0.4,32.82802101,34.957936945,-11.136,1.32,220.33,1.24,307808070,2172,0,1001,0,0,100,0.0,0,20,20,100796,23.14,3
13098,224.377,2.319,-5.013,-12.22327,3.54641,17.29167,-0.052632000000000005,-0.0598,0.9367850000000001,-950.0,16070.0,2580.0,46.4,10.08,00000000 00000000,32.830043255999996,34.946806207,10.698,-25.95,7.95,-0.42,0.1,6.82,-6.31,0.1,0.94,0.36,32.82802101,34.957936945,-11.136,1.32,220.33,1.24,307808095,2172,0,1001,0,0,100,0.0,0,45,45,100794,23.22,0
13099,224.065,2.674,-4.902,-13.71004,3.10112,9.2324,-0.014266999999999998,-0.047445,0.9720030000000001,1020.0,16110.0,2580.0,46.4,10.08,00000000 00000000,32.830045043,34.946799264,10.687,-25.94,7.93,-0.44,0.1,6.84,-6.25,0.12,0.93,0.33,32.82802101,34.957936945,-11.136,1.32,220.33,1.24,307808120,2172,0,1001,0,0,100,0.0,0,20,20,100796,23.05,3
13100,223.949,3.045,-4.888999999999999,-14.95069,-2.84342,3.43095,0.037521,-0.04994,1.001927,1070.0,16160.0,2570.0,46.4,10.08,00000000 00000000,32.830046827,34.946792325,10.676,-25.92,7.92,-0.44,0.1,6.87,-6.2,0.12,0.93,0.31,32.82802101,34.957936945,-11.136,1.32,220.33,1.24,307808145,2172,0,1001,0,0,100,0.0,0,45,45,100794,23.22,0
13101,223.951,3.409,-5.0360000000000005,-13.801639999999999,-7.694210000000001,-1.9240400000000002,0.036688,-0.032994,1.0422799999999999,1100.0,16210.0,2540.0,46.4,10.1,00000000 00000000,32.830048608,34.946785388,10.665,-25.92,7.91,-0.43,0.1,6.89,-6.14,0.11,0.93,0.3,32.82802101,34.957936945,-11.136,1.32,220.33,1.24,307808170,2172,0,1001,0,0,100,0.0,0,20,20,100796,23.14,3
13102,224.15599999999998,3.708,-5.199,-11.506260000000001,-3.15541,-12.028210000000001,0.032369,-0.043979000000000004,1.0478129999999999,1090.0,16280.0,2520.0,46.4,10.05,00000000 00000000,32.830050387,34.946778452,10.654,-25.92,7.9,-0.42,0.1,6.92,-6.08,0.1,0.94,0.29,32.82802101,34.957936945,-11.136,1.32,220.33,1.24,307808195,2172,0,1001,0,0,100,0.0,0,45,45,100798,22.97,0
13103,224.514,3.946,-5.256,-10.3555,-0.23046,-12.496739999999999,0.045597000000000006,-0.085737,1.01394,1070.0,16350.0,2500.0,46.4,10.09,00000000 00000000,32.830052162,34.946771516999995,10.644,-25.91,7.89,-0.42,0.11,6.94,-6.03,0.09,0.93,0.27,32.82802101,34.957936945,-11.136,1.32,220.33,1.24,307808220,2172,0,1001,0,0,100,0.0,0,20,20,100796,23.05,3
13104,224.787,4.178999999999999,-5.2589999999999995,-10.22964,2.55039,-8.06595,-0.009517,-0.069471,1.019559,1050.0,16420.0,2470.0,46.4,10.07,00000000 00000000,32.830053936,34.946764585,10.633,-25.9,7.88,-0.41,0.11,6.97,-5.97,0.09,0.93,0.25,32.82802101,34.957936945,-11.136,1.32,220.33,1.24,307808245,2172,0,1001,0,0,100,0.0,0,45,45,100796,23.14,0
13105,224.97,4.397,-5.132999999999999,-8.41864,8.50592,-4.68133,-0.022061,-0.066834,1.0078049999999998,1040.0,16490.0,2430.0,46.5,10.09,00000000 00000000,32.830055705999996,34.946757655999996,10.623,-25.88,7.86,-0.41,0.11,6.99,-5.91,0.09,0.93,0.23,32.82802101,34.957936945,-11.136,1.32,220.33,1.24,307808270,2172,0,1001,0,0,100,0.0,0,20,20,100798,22.97,3
13106,225.05599999999998,4.569,-4.862,-6.04895,13.93428,-1.02959,0.005365999999999999,-0.055033000000000006,1.000998,1050.0,16540.0,2390.0,46.5,10.09,00000000 00000000,32.830057472,34.946750731,10.613,-25.87,7.84,-0.41,0.11,7.02,-5.85,0.08,0.93,0.2,32.82802101,34.957936945,-11.136,1.32,220.33,1.24,307808295,2172,0,1001,0,0,100,0.0,0,45,45,100798,22.97,0
13107,225.065,4.698,-4.4430000000000005,-4.26852,20.070610000000002,0.61961,0.035881,-0.049917,1.0409540000000002,1070.0,16570.0,2320.0,46.5,10.11,00000000 00000000,32.830059234000004,34.946743809000004,10.602,-25.87,7.82,-0.4,0.11,7.05,-5.79,0.08,0.93,0.18,32.82802101,34.957936945,-11.136,1.32,220.33,1.24,307808320,2172,0,1001,0,0,100,0.0,0,20,20,100796,23.05,3
13108,225.053,4.787,-3.873,-2.59083,24.31634,0.8224100000000001,0.038461,-0.039863,1.05364,1110.0,16590.0,2260.0,46.5,10.07,00000000 00000000,32.830060992,34.946736886,10.592,-25.87,7.81,-0.39,0.11,7.07,-5.74,0.07,0.94,0.18,32.82802101,34.957936945,-11.136,1.32,220.33,1.24,307808345,2172,0,1001,0,0,100,0.0,0,45,45,100796,23.05,0
13109,225.051,4.833,-3.29,-1.44488,21.07356,-0.7811899999999999,0.008984,-0.045745999999999995,1.014023,1170.0,16620.0,2210.0,46.5,10.11,00000000 00000000,32.830062748,34.946729963,10.582,-25.87,7.8,-0.38,0.11,7.1,-5.68,0.06,0.95,0.17,32.82802101,34.957936945,-11.136,1.32,220.33,1.24,307808370,2172,0,1001,0,0,100,0.0,0,20,20,100796,23.05,3
13110,225.06799999999998,4.85,-2.917,0.1365,6.64352,0.97144,0.046641,-0.04715,1.046245,1210.0,16640.0,2170.0,46.5,10.07,00000000 00000000,32.8300645,34.946723039,10.573,-25.88,7.78,-0.38,0.1,7.12,-5.62,0.05,0.96,0.16,32.82802101,34.957936945,-11.136,1.32,220.33,1.24,307808395,2172,0,1001,0,0,100,0.0,0,45,45,100798,22.97,0
13111,224.97099999999998,4.867,-3.013,-2.04013,-14.75981,7.26669,0.121,-0.076976,1.081322,1240.0,16670.0,2160.0,46.5,10.11,00000000 00000000,32.830066251,34.946716113,10.563,-25.89,7.78,-0.36,0.1,7.15,-5.56,0.03,0.96,0.16,32.82802101,34.957936945,-11.136,1.32,220.33,1.24,307808420,2172,0,1001,0,0,100,0.0,0,20,20,100796,23.14,3
13112,224.701,5.0,-3.545,-7.485869999999999,-26.4781,14.092870000000001,0.111273,-0.088911,1.1112309999999999,1240.0,16680.0,2160.0,46.5,10.08,00000000 00000000,32.830068004,34.946709183,10.555,-25.9,7.79,-0.33,0.1,7.17,-5.5,0.01,0.96,0.18,32.82802101,34.957936945,-11.136,1.32,220.33,1.24,307808445,2172,0,1001,0,0,100,0.0,0,45,45,100796,23.05,0
13113,224.334,5.279,-4.138999999999999,-12.737210000000001,-21.77202,16.2333,0.02344,-0.11119200000000001,1.0914190000000001,1230.0,16690.0,2190.0,46.5,10.1,00000000 00000000,32.830069758,34.946702251,10.547,-25.9,7.79,-0.31,0.1,7.2,-5.44,-0.01,0.96,0.18,32.82802101,34.957936945,-11.136,1.32,220.33,1.24,307808470,2172,0,1001,0,0,100,0.0,0,20,20,100798,22.97,3
13114,223.921,5.685,-4.515,-16.44315,-10.91344,19.575,-0.005932,-0.138087,1.04425,1230.0,16700.0,2200.0,46.5,10.09,00000000 00000000,32.83007151,34.94669532,10.539,-25.89,7.79,-0.29,0.1,7.22,-5.38,-0.03,0.95,0.16,32.82802101,34.957936945,-11.136,1.32,220.33,1.24,307808495,2172,0,1001,0,0,100,0.0,0,45,45,100798,22.97,0
13115,223.40400000000002,6.122999999999999,-4.584,-14.05546,0.35975,24.41049,0.042262,-0.11021099999999999,1.019026,1270.0,16740.0,2190.0,46.4,10.11,00000000 00000000,32.830073261,34.946688395,10.532,-25.87,7.78,-0.28,0.09,7.25,-5.32,-0.04,0.94,0.14,32.82802101,34.957936945,-11.136,1.32,220.33,1.24,307808520,2172,0,1001,0,0,100,0.0,0,20,20,100798,22.97,3
13116,222.764,6.437,-4.439,-6.45121,5.11801,27.068959999999997,0.10736,-0.041203,1.010741,1340.0,16780.0,2150.0,46.4,10.08,00000000 00000000,32.83007501,34.946681471,10.525,-25.88,7.77,-0.27,0.09,7.27,-5.26,-0.04,0.94,0.14,32.82802101,34.957936945,-11.136,1.32,220.33,1.24,307808545,2172,0,1001,0,0,100,0.0,0,45,45,100798,22.97,0
13117,222.15099999999998,6.526,-4.178999999999999,3.13575,10.46035,20.77158,0.15146800000000002,0.0073620000000000005,0.9891200000000001,1410.0,16800.0,2090.0,46.4,10.09,00000000 00000000,32.830076758000004,34.946674542,10.518,-25.91,7.76,-0.27,0.09,7.3,-5.2,-0.05,0.97,0.15,32.82802101,34.957936945,-11.136,1.32,220.33,1.24,307808570,2172,0,1001,0,0,100,0.0,0,20,20,100798,22.89,3
13118,221.757,6.356,-3.812,12.27551,14.64623,9.441469999999999,0.163076,0.013378999999999999,0.931908,1480.0,16790.0,2040.0,46.4,10.08,00000000 00000000,32.830078503,34.946667603,10.511,-25.95,7.76,-0.28,0.09,7.32,-5.14,-0.04,0.99,0.17,32.82802101,34.957936945,-11.136,1.32,220.33,1.24,307808595,2172,0,1001,0,0,100,0.0,0,45,45,100800,22.8,0
13119,221.602,5.965,-3.4610000000000003,19.20064,10.667489999999999,1.9667,0.156564,0.001399,0.873408,1540.0,16760.0,2020.0,46.4,10.1,00000000 00000000,32.830080248,34.946660654,10.503,-25.98,7.76,-0.31,0.08,7.35,-5.08,-0.02,1.02,0.19,32.82802101,34.957936945,-11.136,1.32,220.33,1.24,307808620,2172,0,1001,0,0,100,0.0,0,20,20,100798,22.97,3
13120,221.58,5.428999999999999,-3.278,23.462670000000003,4.29549,-2.5544700000000002,0.126743,-0.012024,0.8483440000000001,1580.0,16720.0,2020.0,46.4,10.07,00000000 00000000,32.830081993,34.946653696,10.495,-26.02,7.76,-0.34,0.08,7.37,-5.02,0.01,1.03,0.22,32.82802101,34.957936945,-11.136,1.32,220.33,1.24,307808645,2172,0,1001,0,0,100,0.0,0,45,45,100798,22.97,0
13121,221.635,4.791,-3.2560000000000002,27.107029999999998,-2.31316,-4.19909,0.063664,-0.025618000000000002,0.829664,1580.0,16670.0,2030.0,46.4,10.1,00000000 00000000,32.830083738,34.94664673,10.486,-26.04,7.75,-0.38,0.08,7.4,-4.96,0.04,1.04,0.23,32.82802101,34.957936945,-11.136,1.32,220.33,1.24,307808670,2172,0,1001,0,0,100,0.0,0,20,20,100798,22.97,3
13122,221.71900000000002,4.066,-3.373,30.159340000000004,-5.30845,-6.42023,-0.001025,-0.011493000000000001,0.832773,1570.0,16620.0,2070.0,46.4,10.07,00000000 00000000,32.830085482,34.946639761,10.476,-26.04,7.74,-0.42,0.08,7.43,-4.9,0.09,1.05,0.23,32.82802101,34.957936945,-11.136,1.32,220.33,1.24,307808695,2172,0,1001,0,0,100,0.0,0,45,45,100798,22.97,0
13123,221.886,3.292,-3.495,30.15097,-2.88068,-10.55723,-0.019142,-0.023273,0.8777530000000001,1540.0,16550.0,2110.0,46.4,10.11,00000000 00000000,32.830087221999996,34.946632791999996,10.465,-26.04,7.73,-0.46,0.08,7.45,-4.83,0.12,1.06,0.21,32.82802101,34.957936945,-11.136,1.32,220.33,1.24,307808720,2172,0,1001,0,0,100,0.0,0,20,20,100796,23.14,3
13124,222.15,2.568,-3.5260000000000002,25.61034,1.01936,-13.918029999999998,-0.028071,-0.050213,0.8894299999999999,1490.0,16480.0,2140.0,46.5,10.1,00000000 00000000,32.830088958000005,34.946625824,10.453,-26.03,7.71,-0.49,0.08,7.48,-4.77,0.15,1.06,0.19,32.82802101,34.957936945,-11.136,1.32,220.33,1.24,307808745,2172,0,1001,0,0,100,0.0,0,45,45,100794,23.22,0
13125,222.498,2.0,-3.5060000000000002,17.870739999999998,1.23557,-15.96835,-0.022775,-0.073875,0.922616,1460.0,16440.0,2190.0,46.5,10.12,00000000 00000000,32.830090693,34.946618861,10.44,-26.01,7.7,-0.51,0.08,7.5,-4.71,0.18,1.05,0.17,32.82802101,34.957936945,-11.136,1.32,220.33,1.24,307808770,2172,0,1001,0,0,100,0.0,0,20,20,100794,23.22,3
13126,222.862,1.607,-3.463,12.13288,5.08261,-15.733,-0.029785000000000002,-0.072425,1.006412,1420.0,16410.0,2210.0,46.5,10.08,00000000 00000000,32.830092425,34.946611903000004,10.427,-25.99,7.7,-0.52,0.09,7.53,-4.65,0.19,1.03,0.15,32.82802101,34.957936945,-11.136,1.32,220.33,1.24,307808795,2172,0,1001,0,0,100,0.0,0,45,45,100794,23.22,0
13127,223.31,1.3330000000000002,-3.1839999999999997,7.667680000000001,18.677039999999998,-22.05898,0.051358,-0.041973,1.104379,1400.0,16410.0,2240.0,46.5,10.12,00000000 00000000,32.830094157,34.94660495,10.414,-25.98,7.69,-0.51,0.09,7.55,-4.59,0.17,1.02,0.13,32.82802101,34.957936945,-11.136,1.32,220.33,1.24,307808820,2172,0,1001,0,0,100,0.0,0,20,20,100794,23.31,3
13128,223.91,1.169,-2.622,2.7867,25.15494,-25.31915,0.16781400000000002,-0.059685,1.143073,1390.0,16420.0,2230.0,46.5,10.09,00000000 00000000,32.830095889,34.946597998,10.402,-25.98,7.71,-0.47,0.09,7.58,-4.52,0.14,1.01,0.14,32.82802101,34.957936945,-11.136,1.32,220.33,1.24,307808845,2172,0,1001,0,0,100,0.0,0,45,45,100798,22.97,0
13129,224.524,1.1320000000000001,-2.05,-1.11616,19.19846,-22.74677,0.216498,-0.054113999999999995,1.170168,1380.0,16450.0,2200.0,46.5,10.1,00000000 00000000,32.830097627,34.946591041,10.39,-26.0,7.74,-0.43,0.09,7.6,-4.46,0.1,1.0,0.18,32.82802101,34.957936945,-11.136,1.32,220.33,1.24,307808870,2172,0,1001,0,0,100,0.0,0,20,20,100796,23.05,3
13130,224.97,1.135,-1.824,0.0426,-1.22759,-12.28786,0.299935,-0.047233,1.253876,1370.0,16480.0,2170.0,46.5,10.08,00000000 00000000,32.830099373,34.946584078,10.38,-26.04,7.78,-0.38,0.09,7.63,-4.4,0.05,0.99,0.23,32.82802101,34.957936945,-11.136,1.32,220.33,1.24,307808895,2172,0,1001,0,0,100,0.0,0,45,45,100798,22.97,0
13131,225.15599999999998,1.11,-2.0180000000000002,1.05567,-11.692910000000001,-3.33388,0.30735,-0.026085,1.218429,1340.0,16500.0,2170.0,46.5,10.1,00000000 00000000,32.83010113,34.946577103,10.371,-26.09,7.83,-0.32,0.09,7.65,-4.34,0.0,0.98,0.29,32.82802101,34.957936945,-11.136,1.32,220.33,1.24,307808920,2172,0,1001,0,0,100,0.0,0,20,20,100798,22.97,3
13132,225.165,1.104,-2.3569999999999998,-1.3242399999999999,-14.207020000000002,1.44014,0.185452,0.002177,1.14129,1310.0,16520.0,2210.0,46.5,10.07,00000000 00000000,32.830102896999996,34.946570116,10.364,-26.13,7.87,-0.27,0.09,7.68,-4.27,-0.05,0.98,0.34,32.82802101,34.957936945,-11.136,1.32,220.33,1.24,307808945,2172,0,1001,0,0,100,0.0,0,45,45,100800,22.8,0
13133,225.15200000000002,1.182,-2.668,-4.62333,-9.70244,-0.9270700000000001,0.076038,0.042655,1.0615450000000002,1280.0,16530.0,2240.0,46.5,10.09,00000000 00000000,32.830104669,34.946563121,10.357,-26.15,7.88,-0.25,0.08,7.7,-4.21,-0.08,0.99,0.37,32.82802101,34.957936945,-11.136,1.32,220.33,1.24,307808970,2172,0,1001,0,0,100,0.0,0,20,20,100800,22.8,3
13134,225.22299999999998,1.3119999999999998,-2.8289999999999997,-5.50627,-3.2159,-3.85394,0.044289,0.06749400000000001,0.998921,1240.0,16540.0,2250.0,46.5,10.08,00000000 00000000,32.83010644,34.946556121,10.351,-26.16,7.86,-0.24,0.08,7.73,-4.15,-0.09,1.0,0.37,32.82802101,34.957936945,-11.136,1.32,220.33,1.24,307808995,2172,0,1001,0,0,100,0.0,0,45,45,100798,22.89,0
13135,225.345,1.426,-2.862,-3.90677,-0.2079,-5.16209,0.07649600000000001,0.077087,0.965572,1220.0,16570.0,2260.0,46.5,10.08,00000000 00000000,32.830108206999995,34.946549116999996,10.345,-26.18,7.85,-0.24,0.08,7.75,-4.08,-0.08,1.02,0.37,32.82802101,34.957936945,-11.136,1.32,220.33,1.24,307809020,2172,0,1001,0,0,100,0.0,0,20,20,100798,22.97,3
13136,225.477,1.4880000000000002,-2.903,-1.5282,-3.3985800000000004,-5.1315,0.148074,0.08408500000000001,0.940533,1190.0,16580.0,2240.0,46.5,10.07,00000000 00000000,32.830109971999995,34.946542105,10.338,-26.22,7.84,-0.25,0.07,7.78,-4.02,-0.07,1.05,0.38,32.82802101,34.957936945,-11.136,1.32,220.33,1.24,307809045,2172,0,1001,0,0,100,0.0,0,45,45,100800,22.8,0
13137,225.627,1.489,-3.0389999999999997,0.71741,-6.93209,-7.40596,0.191028,0.116692,0.9116700000000001,1150.0,16590.0,2240.0,46.5,10.09,00000000 00000000,32.830111736999996,34.946535084000004,10.332,-26.26,7.84,-0.27,0.07,7.8,-3.95,-0.06,1.07,0.41,32.82802101,34.957936945,-11.136,1.32,220.33,1.24,307809070,2172,0,1001,0,0,100,0.0,0,20,20,100798,22.97,3
13138,225.86,1.436,-3.26,2.29281,-10.464039999999999,-10.977269999999999,0.19437000000000001,0.105999,0.8725940000000001,1110.0,16600.0,2250.0,46.5,10.08,00000000 00000000,32.830113501999996,34.946528049,10.325,-26.31,7.85,-0.3,0.06,7.83,-3.89,-0.03,1.1,0.44,32.82802101,34.957936945,-11.136,1.32,220.33,1.24,307809095,2172,0,1001,0,0,100,0.0,0,45,45,100798,22.97,0
13139,226.127,1.339,-3.5839999999999996,4.19186,-14.643239999999999,-10.02881,0.1463,0.073146,0.8508370000000001,1060.0,16600.0,2290.0,46.5,10.08,00000000 00000000,32.830115268,34.946521002,10.317,-26.35,7.85,-0.33,0.06,7.85,-3.83,0.0,1.13,0.47,32.82802101,34.957936945,-11.136,1.32,220.33,1.24,307809120,2172,0,1001,0,0,100,0.0,0,20,20,100798,22.97,3
13140,226.34099999999998,1.203,-3.9619999999999997,5.40037,-13.989889999999999,-8.11233,0.063687,0.057137,0.834648,-990.0,16590.0,2330.0,46.5,10.08,00000000 00000000,32.830117034000004,34.946513945,10.308,-26.38,7.85,-0.37,0.06,7.87,-3.76,0.02,1.15,0.48,32.82802101,34.957936945,-11.136,1.32,220.33,1.24,307809145,2172,0,1001,0,0,100,0.0,0,45,45,100798,22.97,0
13141,226.54,1.054,-4.248,5.11536,-8.176110000000001,-8.88239,-0.001009,0.038569,0.818732,-900.0,16570.0,2340.0,46.5,10.11,00000000 00000000,32.830118797,34.946506884,10.298,-26.39,7.83,-0.41,0.06,7.9,-3.7,0.07,1.16,0.48,32.82802101,34.957936945,-11.136,1.32,220.33,1.24,307809170,2172,0,1001,0,0,100,0.0,0,20,20,100798,22.97,3
13142,226.765,0.929,-4.374,3.3023,-1.92975,-9.592839999999999,-0.03429,0.014372999999999999,0.8163590000000001,-840.0,16550.0,2360.0,46.5,10.09,00000000 00000000,32.830120556,34.946499823,10.287,-26.38,7.81,-0.45,0.06,7.92,-3.63,0.11,1.16,0.45,32.82802101,34.957936945,-11.136,1.32,220.33,1.24,307809195,2172,0,1001,0,0,100,0.0,0,45,45,100798,22.97,0
13143,227.011,0.863,-4.355,0.25989,3.95405,-10.52629,-0.045186000000000004,0.009119,0.848449,-780.0,16540.0,2370.0,46.5,10.11,00000000 00000000,32.83012231,34.946492765,10.275,-26.37,7.79,-0.5,0.06,7.94,-3.57,0.15,1.17,0.43,32.82802101,34.957936945,-11.136,1.32,220.33,1.24,307809220,2172,0,1001,0,0,100,0.0,0,20,20,100798,22.97,3
13144,227.273,0.871,-4.212,-2.40052,7.57793,-10.32563,-0.008313,0.022161,0.896415,-740.0,16540.0,2380.0,46.4,10.08,00000000 00000000,32.83012406,34.946485709,10.262,-26.36,7.76,-0.53,0.06,7.97,-3.5,0.19,1.17,0.4,32.82802101,34.957936945,-11.136,1.32,220.33,1.24,307809245,2172,0,1001,0,0,100,0.0,0,45,45,100798,22.89,0
13145,227.50799999999998,0.9620000000000001,-4.04,-6.562069999999999,4.93921,-6.7502,0.005197,-0.005575,0.919666,-700.0,16570.0,2360.0,46.4,10.12,00000000 00000000,32.830125805,34.946478655,10.249,-26.36,7.75,-0.55,0.07,7.99,-3.44,0.21,1.17,0.39,32.82802101,34.957936945,-11.136,1.32,220.33,1.24,307809270,2172,0,1001,0,0,100,0.0,0,20,20,100798,22.97,3
13146,227.61599999999999,1.188,-4.003,-11.699910000000001,-1.63544,-0.75079,0.0016059999999999998,-0.002663,0.986024,-660.0,16600.0,2350.0,46.4,10.08,00000000 00000000,32.830127547,34.946471601999995,10.234,-26.35,7.74,-0.56,0.07,8.01,-3.37,0.22,1.17,0.37,32.82802101,34.957936945,-11.136,1.32,220.33,1.24,307809295,2172,0,1001,0,0,100,0.0,0,45,45,100798,22.97,0
13147,227.606,1.51,-4.079,-13.107729999999998,-3.8822400000000004,3.43364,0.034356,0.019077,1.070368,-630.0,16640.0,2330.0,46.4,10.1,00000000 00000000,32.830129287,34.946464551,10.22,-26.35,7.72,-0.56,0.07,8.03,-3.31,0.22,1.18,0.35,32.82802101,34.957936945,-11.136,1.32,220.33,1.24,307809320,2172,0,1001,0,0,100,0.0,0,20,20,100800,22.8,3
13148,227.454,1.819,-4.168,-10.23577,-3.24267,10.59752,0.058071000000000005,0.044328,1.116515,-610.0,16670.0,2320.0,46.4,10.07,00000000 00000000,32.830131021999996,34.946457498,10.206,-26.36,7.71,-0.54,0.08,8.06,-3.24,0.19,1.19,0.34,32.82802101,34.957936945,-11.136,1.32,220.33,1.24,307809345,2172,0,1001,0,0,100,0.0,0,45,45,100798,22.89,0
13149,227.165,2.05,-4.151,-6.9324699999999995,5.673430000000001,11.9503,0.04596,0.070512,1.123174,-600.0,16710.0,2340.0,46.4,10.08,00000000 00000000,32.830132754,34.946450443,10.193,-26.37,7.69,-0.5,0.08,8.08,-3.17,0.16,1.21,0.34,32.82802101,34.957936945,-11.136,1.32,220.33,1.24,307809370,2172,0,1001,0,0,100,0.0,0,20,20,100800,22.72,3
13150,226.933,2.239,-3.8280000000000003,-7.3416,18.83248,7.3277399999999995,0.033609,0.050312,1.099832,-610.0,16710.0,2340.0,46.4,10.07,00000000 00000000,32.830134481,34.946443384,10.181,-26.38,7.66,-0.48,0.08,8.1,-3.11,0.13,1.23,0.32,32.82802101,34.957936945,-11.136,1.32,220.33,1.24,307809395,2172,0,1001,0,0,100,0.0,0,45,45,100800,22.8,0
13151,226.753,2.4290000000000003,-3.377,-6.15937,12.28163,9.59805,0.155132,0.024691,1.1446889999999998,-650.0,16730.0,2350.0,46.4,10.07,00000000 00000000,32.830136203,34.946436321,10.169,-26.4,7.65,-0.45,0.08,8.12,-3.04,0.11,1.25,0.32,32.82802101,34.957936945,-11.136,1.32,220.33,1.24,307809420,2172,0,1001,0,0,100,0.0,0,20,20,100800,22.72,3
13152,226.385,2.552,-3.3280000000000003,-1.2179,-10.389330000000001,21.37426,0.283539,-0.008087,1.207495,-680.0,16720.0,2350.0,46.4,10.07,00000000 00000000,32.830137926,34.94642925,10.158,-26.44,7.67,-0.4,0.08,8.14,-2.98,0.06,1.26,0.36,32.82802101,34.957936945,-11.136,1.32,220.33,1.24,307809445,2172,0,1001,0,0,100,0.0,0,45,45,100800,22.72,0
13153,225.718,2.5380000000000003,-3.741,5.8632,-21.303539999999998,29.93198,0.273122,0.003714,1.2136209999999998,-680.0,16700.0,2400.0,46.5,10.1,00000000 00000000,32.830139655,34.946422167,10.149,-26.49,7.7,-0.35,0.08,8.17,-2.91,0.0,1.26,0.41,32.82802101,34.957936945,-11.136,1.32,220.33,1.24,307809470,2172,0,1001,0,0,100,0.0,0,20,20,100800,22.72,3
13154,224.93900000000002,2.351,-4.216,13.14567,-18.48228,30.5207,0.186201,0.007072,1.161675,-690.0,16610.0,2490.0,46.5,10.05,00000000 00000000,32.83014139,34.946415073000004,10.141,-26.53,7.72,-0.3,0.08,8.19,-2.84,-0.04,1.27,0.45,32.82802101,34.957936945,-11.136,1.32,220.33,1.24,307809495,2172,0,1001,0,0,100,0.0,0,45,45,100802,22.55,0
13155,224.162,2.011,-4.592,18.615070000000003,-14.38626,29.593729999999997,0.130119,-0.00065,1.089698,-710.0,16520.0,2600.0,46.5,10.1,00000000 00000000,32.830143125999996,34.946407971,10.134,-26.55,7.72,-0.26,0.08,8.21,-2.78,-0.07,1.28,0.46,32.82802101,34.957936945,-11.136,1.32,220.33,1.24,307809520,2172,0,1001,0,0,100,0.0,0,20,20,100802,22.64,3
13156,223.35,1.56,-4.92,22.59839,-14.64679,33.028220000000005,0.124082,0.002639,1.033088,-750.0,16420.0,2680.0,46.5,10.08,00000000 00000000,32.830144863,34.946400864,10.127,-26.56,7.72,-0.25,0.07,8.23,-2.71,-0.09,1.29,0.47,32.82802101,34.957936945,-11.136,1.32,220.33,1.24,307809545,2172,0,1001,0,0,100,0.0,0,45,45,100802,22.55,0
13157,222.44099999999997,1.043,-5.287000000000001,24.79552,-15.67225,34.788990000000005,0.151134,0.030382999999999997,1.003572,-770.0,16320.0,2730.0,46.5,10.11,00000000 00000000,32.830146600999996,34.946393754,10.121,-26.58,7.72,-0.24,0.07,8.25,-2.64,-0.1,1.29,0.48,32.82802101,34.957936945,-11.136,1.32,220.33,1.24,307809570,2172,0,1001,0,0,100,0.0,0,20,20,100802,22.64,3
13158,221.537,0.501,-5.632999999999999,24.54857,-12.60968,32.38596,0.152946,0.044817,0.947209,-790.0,16230.0,2780.0,46.5,10.07,00000000 00000000,32.830148338,34.946386638,10.115,-26.6,7.72,-0.24,0.06,8.27,-2.57,-0.1,1.3,0.49,32.82802101,34.957936945,-11.136,1.32,220.33,1.24,307809595,2172,0,1001,0,0,100,0.0,0,45,45,100800,22.72,0
13159,220.757,0.024,-5.891,18.94979,-7.99367,25.395870000000002,0.134043,0.059735,0.885998,-830.0,16140.0,2860.0,46.5,10.12,00000000 00000000,32.830150076,34.946379517,10.108,-26.62,7.72,-0.26,0.06,8.29,-2.51,-0.08,1.31,0.5,32.82802101,34.957936945,-11.136,1.32,220.33,1.24,307809620,2172,0,1001,0,0,100,0.0,0,20,20,100800,22.72,3
13160,220.22099999999998,0.307,-6.0089999999999995,12.00353,-0.96252,13.988470000000001,0.12380999999999999,0.055238999999999996,0.8521780000000001,-860.0,16050.0,2920.0,46.5,10.08,00000000 00000000,32.830151813,34.946372391,10.101,-26.64,7.72,-0.29,0.06,8.31,-2.44,-0.05,1.32,0.51,32.82802101,34.957936945,-11.136,1.32,220.33,1.24,307809645,2172,0,1001,0,0,100,0.0,0,45,45,100800,22.72,0
13161,219.986,0.504,-5.986000000000001,5.8351,1.7667400000000002,3.56061,0.102499,0.030048000000000002,0.8058850000000001,-890.0,16000.0,2960.0,46.5,10.12,00000000 00000000,32.830153549,34.946365261,10.094,-26.65,7.72,-0.33,0.05,8.33,-2.37,-0.01,1.32,0.52,32.82802101,34.957936945,-11.136,1.32,220.33,1.24,307809670,2172,0,1001,0,0,100,0.0,0,20,20,100800,22.8,3
13162,219.993,0.5870000000000001,-5.946000000000001,0.9844799999999999,1.61134,-4.28357,0.09452,0.035694,0.7928390000000001,-910.0,15980.0,2990.0,46.5,10.08,00000000 00000000,32.830155284,34.946358126999996,10.085,-26.66,7.71,-0.38,0.05,8.35,-2.3,0.03,1.33,0.52,32.82802101,34.957936945,-11.136,1.32,220.33,1.24,307809695,2172,0,1001,0,0,100,0.0,0,45,45,100800,22.8,0
13163,220.169,0.601,-5.9110000000000005,-0.71104,1.39224,-9.586210000000001,0.095653,0.042707,0.813918,-930.0,15980.0,3020.0,46.4,10.12,00000000 00000000,32.83015702,34.946350992,10.074,-26.67,7.71,-0.43,0.05,8.37,-2.24,0.07,1.33,0.52,32.82802101,34.957936945,-11.136,1.32,220.33,1.24,307809720,2172,0,1001,0,0,100,0.0,0,20,20,100798,22.97,3
13164,220.47099999999998,0.611,-5.836,-1.0463799999999999,5.01152,-14.56536,0.079321,0.029664,0.8417309999999999,-930.0,15990.0,3030.0,46.4,10.07,00000000 00000000,32.830158754,34.946343854,10.063,-26.68,7.71,-0.47,0.05,8.39,-2.17,0.12,1.33,0.52,32.82802101,34.957936945,-11.136,1.32,220.33,1.24,307809745,2172,0,1001,0,0,100,0.0,0,45,45,100798,22.97,0
13165,220.896,0.631,-5.63,-0.87369,11.270010000000001,-19.26997,0.044938,0.006531,0.872116,-930.0,16030.0,3070.0,46.4,10.1,00000000 00000000,32.830160487,34.946336715,10.051,-26.67,7.7,-0.5,0.05,8.41,-2.1,0.15,1.33,0.51,32.82802101,34.957936945,-11.136,1.32,220.33,1.24,307809770,2172,0,1001,0,0,100,0.0,0,20,20,100800,22.8,3
13166,221.417,0.664,-5.285,-0.57423,15.42498,-22.24142,0.056,0.026704000000000002,0.9362010000000001,-930.0,16070.0,3080.0,46.4,10.07,00000000 00000000,32.830162219,34.946329578000004,10.038,-26.67,7.7,-0.53,0.06,8.43,-2.03,0.18,1.33,0.5,32.82802101,34.957936945,-11.136,1.32,220.33,1.24,307809795,2172,0,1001,0,0,100,0.0,0,45,45,100798,22.97,0
13167,221.997,0.711,-4.867,0.3107,17.2203,-24.22441,0.10396099999999998,0.045792,1.013492,-930.0,16100.0,3090.0,46.4,10.09,00000000 00000000,32.83016395,34.946322441,10.024,-26.67,7.69,-0.53,0.06,8.45,-1.96,0.18,1.33,0.5,32.82802101,34.957936945,-11.136,1.32,220.33,1.24,307809820,2172,0,1001,0,0,100,0.0,0,20,20,100800,22.8,3
13168,222.608,0.777,-4.437,1.01121,15.4822,-24.35635,0.18054800000000001,0.032399000000000004,1.073767,-930.0,16130.0,3090.0,46.4,10.04,00000000 00000000,32.83016568,34.946315301,10.011,-26.69,7.69,-0.52,0.06,8.47,-1.9,0.17,1.33,0.51,32.82802101,34.957936945,-11.136,1.32,220.33,1.24,307809845,2172,0,1001,0,0,100,0.0,0,45,45,100800,22.8,0
13169,223.192,0.855,-4.126,1.52381,8.23988,-22.57741,0.227385,0.008208,1.12365,-930.0,16150.0,3080.0,46.4,10.09,00000000 00000000,32.830167413000005,34.946308155,9.998,-26.71,7.72,-0.49,0.06,8.49,-1.83,0.14,1.33,0.53,32.82802101,34.957936945,-11.136,1.32,220.33,1.24,307809870,2172,0,1001,0,0,100,0.0,0,20,20,100800,22.72,3
13170,223.745,0.93,-4.0280000000000005,0.99424,-0.90801,-22.69426,0.221732,0.005968,1.116738,-900.0,16170.0,3090.0,46.4,10.07,00000000 00000000,32.830169151999996,34.946301002,9.986,-26.74,7.74,-0.46,0.07,8.51,-1.76,0.11,1.32,0.57,32.82802101,34.957936945,-11.136,1.32,220.33,1.24,307809895,2172,0,1001,0,0,100,0.0,0,45,45,100800,22.8,0
13171,224.352,0.973,-4.158,-0.81876,-11.49939,-25.80251,0.184867,0.033721,1.126023,-870.0,16180.0,3110.0,46.4,10.11,00000000 00000000,32.830170896999995,34.946293843,9.975,-26.76,7.77,-0.43,0.07,8.53,-1.69,0.08,1.31,0.6,32.82802101,34.957936945,-11.136,1.32,220.33,1.24,307809920,2172,0,1001,0,0,100,0.0,0,20,20,100800,22.72,3
13172,225.06,0.996,-4.609,-2.10304,-24.22223,-32.30751,0.16989200000000002,0.026192,1.1904780000000001,-770.0,16180.0,3100.0,46.4,10.07,00000000 00000000,32.830172646,34.946286678,9.965,-26.78,7.78,-0.39,0.07,8.55,-1.62,0.04,1.31,0.62,32.82802101,34.957936945,-11.136,1.32,220.33,1.24,307809945,2172,0,1001,0,0,100,0.0,0,45,45,100800,22.8,0
13173,226.042,0.972,-5.247999999999999,-7.443169999999999,-26.2596,-45.40674,0.18208,-0.010272,1.17021,-640.0,16200.0,3130.0,46.4,10.1,00000000 00000000,32.830174398000004,34.946279509,9.955,-26.8,7.79,-0.34,0.06,8.57,-1.55,0.0,1.31,0.63,32.82802101,34.957936945,-11.136,1.32,220.33,1.24,307809970,2172,0,1001,0,0,100,0.0,0,20,20,100800,22.8,3
13174,227.267,0.821,-5.8229999999999995,-13.468370000000002,-20.6684,-48.191990000000004,0.169349,0.00881,1.0794219999999999,-480.0,16230.0,3140.0,46.4,10.07,00000000 00000000,32.830176153000004,34.946272336999996,9.947,-26.8,7.81,-0.3,0.06,8.59,-1.48,-0.04,1.3,0.65,32.82802101,34.957936945,-11.136,1.32,220.33,1.24,307809995,2172,0,1001,0,0,100,0.0,0,45,45,100800,22.8,0
13175,228.405,0.56,-6.234,-16.44623,-12.681289999999999,-39.27391,0.128436,0.054283000000000005,1.014793,-360.0,16310.0,3210.0,46.4,10.08,00000000 00000000,32.830177911,34.946265161999996,9.94,-26.82,7.82,-0.29,0.06,8.61,-1.42,-0.06,1.3,0.66,32.82802101,34.957936945,-11.136,1.32,220.33,1.24,307810020,2172,0,1001,0,0,100,0.0,0,20,20,100798,22.89,3
13176,229.292,0.22699999999999998,-6.44,-18.01153,-4.97011,-27.98555,0.115219,0.08658300000000001,0.9636120000000001,-230.0,16380.0,3180.0,46.4,10.09,00000000 00000000,32.830179669,34.946257984,9.933,-26.83,7.81,-0.29,0.05,8.62,-1.35,-0.06,1.31,0.66,32.82802101,34.957936945,-11.136,1.32,220.33,1.24,307810045,2172,0,1001,0,0,100,0.0,0,45,45,100800,22.72,0
13177,229.886,0.174,-6.522,-19.4435,-2.2448799999999998,-15.717120000000001,0.134128,0.107281,0.952156,-140.0,16430.0,3130.0,46.4,10.11,00000000 00000000,32.830181425,34.9462508,9.925,-26.85,7.8,-0.3,0.05,8.64,-1.28,-0.05,1.33,0.66,32.82802101,34.957936945,-11.136,1.32,220.33,1.24,307810070,2172,0,1001,0,0,100,0.0,0,20,20,100798,22.89,3
13178,230.222,0.62,-6.577000000000001,-18.53535,-2.1253900000000003,-7.98975,0.158499,0.09490499999999999,0.96288,-90.0,16470.0,3090.0,46.4,10.05,00000000 00000000,32.830183176999995,34.94624361,9.918,-26.88,7.79,-0.31,0.05,8.66,-1.21,-0.04,1.35,0.67,32.82802101,34.957936945,-11.136,1.32,220.33,1.24,307810095,2172,0,1001,0,0,100,0.0,0,45,45,100796,23.05,0
13179,230.398,1.021,-6.649,-14.59467,-4.082319999999999,-2.5524400000000003,0.14916,0.08036900000000001,0.931884,-80.0,16510.0,3080.0,46.4,10.12,00000000 00000000,32.830184929,34.946236411,9.91,-26.91,7.78,-0.32,0.05,8.68,-1.14,-0.03,1.37,0.68,32.82802101,34.957936945,-11.136,1.32,220.33,1.24,307810120,2172,0,1001,0,0,100,0.0,0,20,20,100796,23.05,3
13180,230.435,1.328,-6.812,-10.221860000000001,-8.6526,2.18874,0.114607,0.051937,0.880666,-70.0,16530.0,3080.0,46.4,10.08,00000000 00000000,32.830186679,34.946229206,9.901,-26.93,7.77,-0.34,0.04,8.7,-1.07,-0.01,1.39,0.68,32.82802101,34.957936945,-11.136,1.32,220.33,1.24,307810145,2172,0,1001,0,0,100,0.0,0,45,45,100800,22.8,0
13181,230.412,1.5419999999999998,-7.002999999999999,-6.482080000000001,-4.5551699999999995,-0.009940000000000001,0.078208,0.042501,0.882351,-80.0,16540.0,3110.0,46.4,10.09,00000000 00000000,32.830188426,34.946221996,9.892,-26.95,7.76,-0.36,0.04,8.72,-1.0,0.01,1.4,0.68,32.82802101,34.957936945,-11.136,1.32,220.33,1.24,307810170,2172,0,1001,0,0,100,0.0,0,20,20,100800,22.72,3
13182,230.521,1.639,-7.001,-2.4544900000000003,4.245,-7.792510000000001,0.055013,0.014588999999999998,0.86895,-90.0,16550.0,3130.0,46.4,10.08,00000000 00000000,32.83019017,34.946214784,9.883,-26.95,7.74,-0.39,0.04,8.73,-0.93,0.04,1.41,0.66,32.82802101,34.957936945,-11.136,1.32,220.33,1.24,307810195,2172,0,1001,0,0,100,0.0,0,45,45,100798,22.89,0
13183,230.78099999999998,1.6340000000000001,-6.861000000000001,-0.04202,6.15965,-11.71823,0.039675999999999996,-0.013290999999999999,0.852543,-100.0,16550.0,3130.0,46.4,10.08,00000000 00000000,32.830191911,34.946207571,9.872,-26.95,7.73,-0.43,0.04,8.75,-0.86,0.07,1.41,0.65,32.82802101,34.957936945,-11.136,1.32,220.33,1.24,307810220,2172,0,1001,0,0,100,0.0,0,20,20,100800,22.8,3
13184,231.082,1.59,-6.725,0.50412,6.3226,-12.580810000000001,0.009192,-0.018234,0.8805290000000001,-90.0,16550.0,3110.0,46.4,10.07,00000000 00000000,32.830193649,34.94620036,9.861,-26.94,7.72,-0.46,0.04,8.77,-0.79,0.1,1.41,0.63,32.82802101,34.957936945,-11.136,1.32,220.33,1.24,307810245,2172,0,1001,0,0,100,0.0,0,45,45,100800,22.8,0
13185,231.405,1.5330000000000001,-6.513,0.8780600000000001,11.50257,-13.61767,0.005751,-0.020309,0.9190729999999999,-70.0,16560.0,3080.0,46.4,10.09,00000000 00000000,32.830195383,34.946193152,9.849,-26.93,7.7,-0.49,0.04,8.79,-0.72,0.13,1.41,0.6,32.82802101,34.957936945,-11.136,1.32,220.33,1.24,307810270,2172,0,1001,0,0,100,0.0,0,20,20,100800,22.8,3
13186,231.71200000000002,1.479,-6.211,0.09682,13.08113,-10.32361,0.039869999999999996,-0.045381,0.960249,-50.0,16570.0,3050.0,46.4,10.07,00000000 00000000,32.830197112,34.946185947,9.837,-26.92,7.68,-0.5,0.04,8.81,-0.65,0.15,1.4,0.58,32.82802101,34.957936945,-11.136,1.32,220.33,1.24,307810295,2172,0,1001,0,0,100,0.0,0,45,45,100800,22.72,0
13187,231.891,1.496,-5.8629999999999995,-3.1381,15.268979999999999,-3.6435199999999996,0.074391,-0.047869999999999996,1.0074379999999998,-70.0,16600.0,3030.0,46.4,10.1,00000000 00000000,32.83019884,34.946178745,9.824,-26.91,7.68,-0.51,0.05,8.82,-0.58,0.15,1.39,0.56,32.82802101,34.957936945,-11.136,1.32,220.33,1.24,307810320,2172,0,1001,0,0,100,0.0,0,20,20,100802,22.64,3
13188,231.90400000000002,1.6130000000000002,-5.496,-5.99249,13.67821,2.9607099999999997,0.138188,-0.031367,1.0564959999999999,-80.0,16610.0,2960.0,46.4,10.08,00000000 00000000,32.830200568,34.946171545,9.811,-26.9,7.68,-0.5,0.05,8.84,-0.51,0.14,1.38,0.56,32.82802101,34.957936945,-11.136,1.32,220.33,1.24,307810345,2172,0,1001,0,0,100,0.0,0,45,45,100800,22.72,0
13189,231.80200000000002,1.788,-5.2010000000000005,-7.2478,10.796439999999999,5.7727900000000005,0.150637,-0.019063,1.118087,-100.0,16620.0,2890.0,46.4,10.1,00000000 00000000,32.830202297,34.946164344,9.799,-26.92,7.69,-0.47,0.05,8.86,-0.44,0.12,1.38,0.57,32.82802101,34.957936945,-11.136,1.32,220.33,1.24,307810370,2172,0,1001,0,0,100,0.0,0,20,20,100800,22.72,3
13190,231.662,1.992,-4.896,-7.73487,12.88698,6.986,0.153883,-0.005067,1.122374,-120.0,16630.0,2830.0,46.4,10.08,00000000 00000000,32.830204028000004,34.946157138000004,9.787,-26.93,7.7,-0.44,0.05,8.87,-0.37,0.08,1.38,0.58,32.82802101,34.957936945,-11.136,1.32,220.33,1.24,307810395,2172,0,1001,0,0,100,0.0,0,45,45,100802,22.64,0
13191,231.484,2.185,-4.62,-6.20706,7.673360000000001,8.11178,0.107821,0.007883,1.1195979999999999,-160.0,16650.0,2790.0,46.4,10.12,00000000 00000000,32.830205761,34.946149929,9.776,-26.95,7.7,-0.41,0.05,8.89,-0.3,0.05,1.39,0.59,32.82802101,34.957936945,-11.136,1.32,220.33,1.24,307810420,2172,0,1001,0,0,100,0.0,0,20,20,100800,22.72,3
13192,231.285,2.307,-4.544,-1.7384,-3.55039,9.20708,0.16272,0.011267000000000001,1.1585809999999999,-200.0,16650.0,2770.0,46.5,10.08,00000000 00000000,32.830207493,34.946142715,9.767,-26.97,7.7,-0.37,0.05,8.91,-0.22,0.02,1.4,0.6,32.82802101,34.957936945,-11.136,1.32,220.33,1.24,307810445,2172,0,1001,0,0,100,0.0,0,45,45,100800,22.8,0
13193,230.982,2.318,-4.852,2.20566,-21.42771,15.389429999999999,0.23757899999999998,-0.009656,1.163894,-200.0,16640.0,2780.0,46.5,10.1,00000000 00000000,32.830209227,34.946135495,9.758,-26.99,7.72,-0.33,0.05,8.93,-0.15,-0.01,1.41,0.62,32.82802101,34.957936945,-11.136,1.32,220.33,1.24,307810470,2172,0,1001,0,0,100,0.0,0,20,20,100800,22.8,3
13194,230.565,2.285,-5.422999999999999,2.89111,-21.71376,15.937170000000002,0.167075,-0.0032270000000000003,1.12035,-170.0,16600.0,2830.0,46.5,10.08,00000000 00000000,32.830210965,34.946128268,9.75,-27.02,7.73,-0.29,0.05,8.94,-0.08,-0.06,1.41,0.65,32.82802101,34.957936945,-11.136,1.32,220.33,1.24,307810495,2172,0,1001,0,0,100,0.0,0,45,45,100800,22.72,0
13195,230.209,2.262,-5.818,1.48993,-11.39278,12.94581,0.123418,-0.034497,1.024468,-150.0,16570.0,2900.0,46.5,10.11,00000000 00000000,32.830212705,34.946121035,9.743,-27.03,7.73,-0.27,0.04,8.96,-0.01,-0.08,1.41,0.65,32.82802101,34.957936945,-11.136,1.32,220.33,1.24,307810520,2172,0,1001,0,0,100,0.0,0,20,20,100802,22.64,3
13196,229.821,2.286,-6.064,0.05702,-11.800889999999999,20.23283,0.129348,-0.07169,0.954792,-140.0,16540.0,2930.0,46.5,10.07,00000000 00000000,32.830214445,34.9461138,9.736,-27.03,7.74,-0.27,0.04,8.98,0.05,-0.08,1.41,0.66,32.82802101,34.957936945,-11.136,1.32,220.33,1.24,307810545,2172,0,1001,0,0,100,0.0,0,45,45,100802,22.64,0
13197,229.13400000000001,2.3609999999999998,-6.435,0.6274,-19.82617,34.70799,0.127005,-0.075612,0.9507639999999999,-150.0,16510.0,2950.0,46.5,10.09,00000000 00000000,32.830216188,34.946106566,9.729,-27.03,7.75,-0.28,0.03,8.99,0.12,-0.07,1.39,0.66,32.82802101,34.957936945,-11.136,1.32,220.33,1.24,307810570,2172,0,1001,0,0,100,0.0,0,20,20,100802,22.64,3
13198,228.15599999999998,2.43,-6.905,2.94408,-18.87404,41.344120000000004,0.135292,-0.061783000000000005,0.937384,-200.0,16490.0,3000.0,46.5,10.08,00000000 00000000,32.830217933,34.946099331,9.721,-27.03,7.76,-0.29,0.03,9.01,0.19,-0.06,1.38,0.66,32.82802101,34.957936945,-11.136,1.32,220.33,1.24,307810595,2172,0,1001,0,0,100,0.0,0,45,45,100802,22.55,0
13199,227.13099999999997,2.468,-7.231,3.64302,-9.4074,38.8188,0.151835,-0.03896,0.9020790000000001,-270.0,16460.0,3050.0,46.5,10.1,00000000 00000000,32.83021968,34.946092097,9.714,-27.03,7.77,-0.31,0.03,9.03,0.26,-0.04,1.37,0.67,32.82802101,34.957936945,-11.136,1.32,220.33,1.24,307810620,2172,0,1001,0,0,100,0.0,0,20,20,100800,22.72,3
13200,226.27700000000002,2.497,-7.27,2.84864,2.43368,28.624059999999997,0.202931,0.026608,0.8975920000000001,-330.0,16410.0,3090.0,46.5,10.07,00000000 00000000,32.830221428,34.94608486,9.706,-27.05,7.77,-0.33,0.02,9.04,0.34,-0.02,1.37,0.68,32.82802101,34.957936945,-11.136,1.32,220.33,1.24,307810645,2172,0,1001,0,0,100,0.0,0,45,45,100802,22.55,0
13201,225.697,2.485,-7.114,3.99404,6.31792,17.782529999999998,0.21436100000000002,0.031239999999999997,0.8574209999999999,-400.0,16380.0,3110.0,46.5,10.07,00000000 00000000,32.830223178000004,34.946077616,9.697,-27.09,7.78,-0.35,0.02,9.06,0.41,0.0,1.39,0.7,32.82802101,34.957936945,-11.136,1.32,220.33,1.24,307810670,2172,0,1001,0,0,100,0.0,0,20,20,100802,22.55,3
13202,225.335,2.4219999999999997,-6.986000000000001,4.32635,1.78482,11.40859,0.16161099999999998,0.016459,0.798611,-470.0,16360.0,3120.0,46.5,10.07,00000000 00000000,32.830224929,34.946070364,9.688,-27.11,7.79,-0.39,0.02,9.07,0.48,0.03,1.4,0.72,32.82802101,34.957936945,-11.136,1.32,220.33,1.24,307810695,2172,0,1001,0,0,100,0.0,0,45,45,100802,22.55,0
13203,225.079,2.356,-7.001,3.39814,-3.3453699999999995,8.770669999999999,0.10218300000000001,0.026057,0.784508,-520.0,16340.0,3130.0,46.5,10.08,00000000 00000000,32.830226681,34.946063106,9.677,-27.13,7.78,-0.44,0.02,9.09,0.55,0.08,1.41,0.73,32.82802101,34.957936945,-11.136,1.32,220.33,1.24,307810720,2172,0,1001,0,0,100,0.0,0,20,20,100802,22.64,3
13204,224.873,2.2969999999999997,-7.109,3.6084699999999996,-5.05753,6.815689999999999,0.067312,0.031694,0.8213,-550.0,16330.0,3140.0,46.5,10.07,00000000 00000000,32.830228431,34.946055844,9.665,-27.14,7.77,-0.49,0.02,9.11,0.62,0.12,1.42,0.72,32.82802101,34.957936945,-11.136,1.32,220.33,1.24,307810745,2172,0,1001,0,0,100,0.0,0,45,45,100802,22.55,0
13205,224.727,2.194,-7.191,6.33801,-1.04082,4.09141,0.069715,0.009745,0.887401,-550.0,16310.0,3120.0,46.5,10.12,00000000 00000000,32.830230177,34.946048581,9.652,-27.14,7.76,-0.53,0.02,9.12,0.69,0.16,1.43,0.71,32.82802101,34.957936945,-11.136,1.32,220.33,1.24,307810770,2172,0,1001,0,0,100,0.0,0,20,20,100800,22.72,3
13206,224.59599999999998,2.0,-7.153,10.37191,3.56342,4.72084,0.07568899999999999,0.008095999999999999,0.932544,-550.0,16290.0,3130.0,46.5,10.08,00000000 00000000,32.830231921,34.946041316,9.639,-27.15,7.74,-0.55,0.03,9.14,0.77,0.18,1.43,0.7,32.82802101,34.957936945,-11.136,1.32,220.33,1.24,307810795,2172,0,1001,0,0,100,0.0,0,45,45,100800,22.72,0
13207,224.43900000000002,1.716,-6.9879999999999995,13.57975,9.872,4.5334699999999994,0.097699,0.013980000000000001,0.973182,-580.0,16260.0,3160.0,46.5,10.12,00000000 00000000,32.830233661,34.946034051,9.625,-27.15,7.73,-0.56,0.03,9.15,0.84,0.19,1.44,0.69,32.82802101,34.957936945,-11.136,1.32,220.33,1.24,307810820,2172,0,1001,0,0,100,0.0,0,20,20,100800,22.72,3
13208,224.292,1.359,-6.649,16.10012,16.450779999999998,4.20611,0.17491600000000002,0.009609,1.046252,-630.0,16220.0,3190.0,46.5,10.07,00000000 00000000,32.830235399,34.946026785,9.611,-27.16,7.72,-0.55,0.03,9.17,0.91,0.19,1.44,0.69,32.82802101,34.957936945,-11.136,1.32,220.33,1.24,307810845,2172,0,1001,0,0,100,0.0,0,45,45,100800,22.8,0
13209,224.105,0.96,-6.229,17.412589999999998,15.29075,7.32561,0.238825,0.003827,1.123111,-670.0,16180.0,3220.0,46.5,10.12,00000000 00000000,32.830237138,34.946019514,9.597,-27.18,7.74,-0.53,0.04,9.19,0.98,0.17,1.45,0.71,32.82802101,34.957936945,-11.136,1.32,220.33,1.24,307810870,2172,0,1001,0,0,100,0.0,0,20,20,100800,22.72,3
13210,223.88,0.526,-5.899,18.93109,12.08179,4.6656,0.2526,0.002856,1.208639,-730.0,16110.0,3250.0,46.5,10.08,00000000 00000000,32.83023888,34.946012236,9.584,-27.21,7.75,-0.48,0.04,9.2,1.05,0.12,1.45,0.73,32.82802101,34.957936945,-11.136,1.32,220.33,1.24,307810895,2172,0,1001,0,0,100,0.0,0,45,45,100802,22.64,0
13211,223.90200000000002,0.040999999999999995,-5.545,19.106379999999998,17.10918,-12.21702,0.221428,0.003214,1.217115,-790.0,16050.0,3300.0,46.5,10.11,00000000 00000000,32.830240626999995,34.946004951,9.573,-27.23,7.77,-0.42,0.04,9.22,1.13,0.06,1.44,0.76,32.82802101,34.957936945,-11.136,1.32,220.33,1.24,307810920,2172,0,1001,0,0,100,0.0,0,20,20,100800,22.72,3
