,Heading,Pitch,Roll,Gyro_X,Gyro_Y,Gyro_Z,Acc_X,Acc_Y,Acc_Z,Magn_X,Magn_Y,Magn_Z,Temperature,Vdd,USW (L/H),Latitude,Longitude,Altitude,V_East,V_North,V_Up,Heave,Surge,Sway,V_Heave,V_Surge,V_Sway,Lat_GNSS,Long_GNSS,Height_GNSS,Hor_spd,Trk_gnd,Ver_spd,ms_gps,GPS_Week,GNSS_info_1,GNSS_info_2,#solnSVs,V_latency,anglesPosType,Heading_GNSS,Latency_ms_head,Latency_ms_pos,Latency_ms_vel,P_Bar,H_Bar,New_GPS
7049,19.87,3.3539999999999996,10.058,-21.5163,-0.62629,-16.1843,0.041752,0.070423,0.84672,6190.0,7820.0,2300.0,47.0,10.1,00000000 00000000,32.826356417,34.956763286,23.129,-0.92,1.2,-0.08,-0.21,1.57,7.19,0.05,0.06,-0.7,32.825991467,34.956635829,23.624,0.95,36.35,0.41,307557620,2172,10000,11111100,12,0,100,0.0,0,20,20,100796,23.05,3
7050,20.355,2.925,-9.969,-18.713,6.66863,-16.048939999999998,0.037655,0.0913,0.899674,6180.0,7800.0,2330.0,47.0,10.07,00000000 00000000,32.826356689,34.956763036999995,23.127,-0.94,1.21,-0.11,-0.21,1.56,7.19,0.08,0.07,-0.73,32.825991467,34.956635829,23.624,0.95,36.35,0.41,307557645,2172,10000,11111100,12,0,100,0.0,0,45,45,100796,23.14,0
7051,20.79,2.577,-9.673,-14.6862,14.588479999999999,-12.513630000000001,0.034179,0.07273500000000001,0.9374709999999999,6150.0,7810.0,2390.0,47.0,10.1,00000000 00000000,32.826356856,34.95676265,23.118,-0.96,1.23,-0.13,-0.21,1.54,7.18,0.1,0.08,-0.75,32.825983631999996,34.956611785,26.391,1.04,34.04,-0.21,307557670,2172,10000,11111100,11,0,100,0.0,0,20,20,100794,23.31,3
7052,21.051,2.301,-9.258,-10.66826,16.9782,-4.25007,0.032227,0.083258,0.9692270000000001,6130.0,7800.0,2430.0,47.0,10.08,00000000 00000000,32.826357136,34.956762389,23.115,-0.98,1.25,-0.14,-0.21,1.53,7.17,0.11,0.09,-0.78,32.825983631999996,34.956611785,26.391,1.04,34.04,-0.21,307557695,2172,10000,11111100,11,0,100,0.0,0,45,45,100796,23.14,0
7053,21.104,2.097,-8.82,-5.812,18.3725,1.7857599999999998,0.055230999999999995,0.103121,1.0488,6090.0,7810.0,2490.0,47.0,10.07,00000000 00000000,32.826357426,34.956762006999995,23.111,-1.0,1.27,-0.14,-0.21,1.51,7.16,0.11,0.1,-0.81,32.825991787,34.956635192,23.751,1.04,34.04,-0.21,307557720,2172,10000,11111100,12,0,100,0.0,0,20,70,100796,23.14,1
7054,21.041,2.032,-8.308,1.54502,22.53343,3.5294800000000004,0.114381,0.10596400000000002,1.1259350000000001,6070.0,7780.0,2500.0,47.0,10.08,00000000 00000000,32.826357378000004,34.956761737,23.109,-1.01,1.29,-0.12,-0.21,1.5,7.16,0.09,0.12,-0.83,32.825991787,34.956635192,23.751,0.54,289.23,1.14,307557745,2172,10000,11111100,12,0,100,0.0,0,45,45,100796,23.05,2
7055,20.881999999999998,2.141,-7.791,8.42848,17.22932,9.43754,0.163105,0.101408,1.133227,6030.0,7750.0,2530.0,47.0,10.11,00000000 00000000,32.826357679000004,34.956761293,23.108,-1.01,1.31,-0.08,-0.21,1.48,7.15,0.06,0.13,-0.83,32.825970136,34.956572896,29.214,0.54,289.23,1.14,307557770,2172,110000,11111100,11,0,100,0.0,0,20,70,100798,22.89,1
7056,20.475,2.376,-7.496,13.79393,8.61159,19.431929999999998,0.12532000000000001,0.102907,1.138076,6010.0,7720.0,2540.0,47.1,10.07,00000000 00000000,32.826354394,34.956761019,23.105,-1.0,1.3,-0.04,-0.21,1.47,7.14,0.02,0.15,-0.83,32.825970136,34.956572896,29.214,3.19,68.47,-2.56,307557795,2172,110000,11111100,11,0,100,0.0,0,45,45,100798,22.89,2
7057,19.854,2.7110000000000003,-7.34,18.73864,6.28,25.20502,0.048785,0.084549,1.133467,6020.0,7730.0,2560.0,47.1,10.13,00000000 00000000,32.826354419,34.956760619,23.091,-1.01,1.31,-0.01,-0.21,1.45,7.14,-0.01,0.16,-0.84,32.825995813,34.956611663000004,26.94,0.76,72.41,-0.18,307557820,2172,10000,11111100,10,0,100,0.0,0,20,20,100798,22.89,3
7058,19.183,3.123,-7.2410000000000005,20.271739999999998,4.0599099999999995,23.192970000000003,0.10455999999999999,0.041378,1.131802,6050.0,7720.0,2530.0,47.1,10.07,00000000 00000000,32.826354716,34.956760344,23.091,-1.03,1.32,0.01,-0.21,1.44,7.13,-0.04,0.16,-0.86,32.825995813,34.956611663000004,26.94,0.76,72.41,-0.18,307557845,2172,10000,11111100,10,0,100,0.0,0,45,45,100798,22.97,0
7059,18.516,3.55,-7.24,21.014689999999998,1.35978,25.62561,0.206096,0.031344,1.172548,6080.0,7730.0,2530.0,47.1,10.12,00000000 00000000,32.826354815,34.956759906,23.095,-1.03,1.31,0.05,-0.21,1.42,7.12,-0.08,0.15,-0.85,32.825972419,34.956577738,28.863,0.5,353.04,1.54,307557870,2172,110000,11111100,8,0,100,0.0,0,20,20,100798,22.97,3
7060,17.793,4.001,-7.117000000000001,21.67746,13.04935,26.99713,0.241042,0.017619,1.1502709999999998,6130.0,7740.0,2520.0,47.1,10.09,00000000 00000000,32.826355108,34.956759632,23.097,-1.01,1.29,0.1,-0.21,1.41,7.11,-0.12,0.14,-0.83,32.825972419,34.956577738,28.863,0.5,353.04,1.54,307557895,2172,110000,11111100,8,0,100,0.0,0,45,45,100798,22.97,0
7061,17.089000000000002,4.439,-6.678,19.57169,25.139860000000002,24.0771,0.216252,-0.017825999999999998,1.029568,6140.0,7760.0,2540.0,47.1,10.12,00000000 00000000,32.826355251,34.956759204,23.096,-0.99,1.26,0.13,-0.21,1.39,7.1,-0.15,0.12,-0.8,32.82597213,34.956576625,29.195,1.1,51.96,0.05,307557920,2172,110000,11111100,8,0,100,0.0,0,20,20,100798,22.97,3
7062,16.464000000000002,4.828,-6.042000000000001,16.935660000000002,27.82831,22.822589999999998,0.191702,-0.044827,0.9443950000000001,6110.0,7750.0,2560.0,47.1,10.09,00000000 00000000,32.826355532,34.95675894,23.099,-0.97,1.23,0.13,-0.21,1.38,7.1,-0.15,0.09,-0.78,32.82597213,34.956576625,29.195,1.1,51.96,0.05,307557945,2172,110000,11111100,8,0,100,0.0,0,45,45,100798,22.97,0
7063,15.828,5.166,-5.499,13.87704,18.40796,23.77971,0.184133,-0.00206,0.925423,6060.0,7730.0,2570.0,47.1,10.11,00000000 00000000,32.826350095,34.956758515,23.105,-0.96,1.15,0.11,-0.21,1.36,7.09,-0.14,0.06,-0.75,32.82597252,34.956576786,29.231,1.06,28.05,0.64,307557970,2172,110000,11111100,8,0,100,0.0,0,20,20,100798,22.89,3
7064,15.238,5.405,-5.242000000000001,9.263710000000001,6.9627300000000005,20.96319,0.17995,0.028089,0.9300729999999999,6060.0,7710.0,2540.0,47.1,10.05,00000000 00000000,32.826350352,34.95675826,23.108,-0.94,1.13,0.1,-0.21,1.35,7.08,-0.12,0.04,-0.73,32.82597252,34.956576786,29.231,1.06,28.05,0.64,307557995,2172,110000,11111100,8,0,100,0.0,0,45,45,100798,22.89,8
7065,14.722999999999999,5.525,-5.212000000000001,3.30579,-0.29814,19.47296,0.170684,0.027714,0.9214610000000001,6070.0,7730.0,2560.0,47.1,10.11,00000000 00000000,32.826347018,34.956757844,23.113,-0.92,1.08,0.08,-0.21,1.33,7.07,-0.11,0.03,-0.7,32.825971729,34.956575357,29.439,0.96,342.79,1.43,307558020,2172,110000,11111100,8,0,100,0.0,0,20,20,100798,22.89,3
7066,14.205,5.473,-5.36,-4.1376,-7.36637,22.17223,0.157171,0.027231,0.9092819999999999,6110.0,7740.0,2520.0,47.0,10.08,00000000 00000000,32.826347261,34.956757599,23.115,-0.9,1.06,0.06,-0.21,1.32,7.06,-0.09,0.01,-0.68,32.825971729,34.956575357,29.439,0.96,342.79,1.43,307558045,2172,110000,11111100,8,0,100,0.0,0,45,45,100798,22.89,0
7067,13.636,5.23,-5.646,-10.80199,-10.547830000000001,23.7184,0.128808,0.049185,0.89066,6160.0,7790.0,2510.0,47.0,10.1,00000000 00000000,32.826342805,34.956757192,23.119,-0.89,1.02,0.04,-0.21,1.3,7.05,-0.07,0.0,-0.66,32.825972549,34.956574951,29.441,0.79,344.88,0.71,307558070,2172,110000,11111100,8,0,100,0.0,0,20,20,100798,22.97,3
7068,13.117,4.871,-5.936,-12.972760000000001,-8.29846,19.445829999999997,0.096399,0.075877,0.875014,6230.0,7880.0,2520.0,47.0,10.09,00000000 00000000,32.826343034000004,34.956756954,23.12,-0.88,1.01,0.02,-0.21,1.29,7.04,-0.04,0.0,-0.65,32.825972549,34.956574951,29.441,0.79,344.88,0.71,307558095,2172,110000,11111100,8,0,100,0.0,0,45,45,100796,23.05,0
7069,12.753,4.5280000000000005,-6.146,-11.11599,-6.25858,12.05413,0.073451,0.091284,0.86621,6280.0,7990.0,2530.0,47.0,10.09,00000000 00000000,32.826341795,34.956756629000004,23.105,-0.88,1.0,0.0,-0.21,1.28,7.04,-0.01,0.0,-0.65,32.826015292,34.95665625,18.858,1.04,28.8,-0.17,307558120,2172,10000,11111100,8,0,100,0.0,0,20,20,100798,22.89,3
7070,12.561,4.253,-6.3260000000000005,-9.37627,-7.28722,5.56119,0.036405,0.086448,0.8436020000000001,6320.0,8060.0,2500.0,47.0,10.07,00000000 00000000,32.826342023,34.956756391,23.105,-0.89,1.01,-0.04,-0.21,1.26,7.03,0.01,0.0,-0.66,32.826015292,34.95665625,18.858,1.04,28.8,-0.17,307558145,2172,10000,11111100,8,0,100,0.0,0,45,45,100798,22.97,0
7071,12.548,4.019,-6.51,-9.28766,-6.52485,-2.9305,-0.015667,0.079699,0.852784,6360.0,8080.0,2450.0,47.0,10.1,00000000 00000000,32.826342309,34.956756002,23.105,-0.9,1.02,-0.08,-0.2,1.25,7.02,0.05,0.01,-0.68,32.825974088,34.956578172,28.914,2.61,57.76,-3.68,307558170,2172,110000,11111100,8,0,100,0.0,0,20,20,100798,22.97,3
7072,12.742,3.806,-6.609,-9.404760000000001,-2.1533599999999997,-9.56976,-0.051726,0.050758,0.879967,6390.0,8100.0,2400.0,47.0,10.07,00000000 00000000,32.826342541,34.956755755,23.103,-0.93,1.03,-0.11,-0.2,1.23,7.01,0.08,0.01,-0.71,32.825974088,34.956578172,28.914,2.61,57.76,-3.68,307558195,2172,110000,11111100,8,0,100,0.0,0,45,45,100798,22.97,0
7073,13.025,3.612,-6.586,-8.305819999999999,2.53755,-10.4865,-0.060327,0.031313,0.914811,6400.0,8100.0,2370.0,47.0,10.09,00000000 00000000,32.826342839,34.956755339000004,23.101,-0.97,1.04,-0.14,-0.2,1.22,7.0,0.11,0.01,-0.74,32.825974345,34.956578951,28.815,2.91,60.67,-3.79,307558220,2172,110000,11111100,8,0,100,0.0,0,20,20,100798,22.97,3
7074,13.308,3.4730000000000003,-6.446000000000001,-4.7801599999999995,7.650810000000001,-11.42468,-0.037166000000000005,0.07972,0.9775299999999999,6390.0,8080.0,2330.0,47.0,10.09,00000000 00000000,32.826343074,34.956755072,23.097,-1.01,1.04,-0.15,-0.2,1.2,6.99,0.13,0.01,-0.78,32.825974345,34.956578951,28.815,2.91,60.67,-3.79,307558245,2172,110000,11111100,8,0,100,0.0,0,45,45,100798,22.89,0
7075,13.674000000000001,3.457,-6.1579999999999995,0.78054,13.192039999999999,-17.32788,0.036523,0.119601,1.0506010000000001,6360.0,8060.0,2310.0,47.0,10.08,00000000 00000000,32.826345518000004,34.956754653000004,23.093,-1.03,1.08,-0.15,-0.2,1.19,6.98,0.12,0.02,-0.81,32.825974740999996,34.956579328000004,28.799,2.14,55.18,-2.73,307558270,2172,110000,11111100,8,0,100,0.0,0,20,20,100798,22.89,3
7076,14.151,3.592,-5.7989999999999995,5.489730000000001,12.107560000000001,-21.01309,0.12651300000000001,0.11141,1.112341,6320.0,8020.0,2300.0,47.0,10.1,00000000 00000000,32.826345763,34.956754375,23.089,-1.03,1.09,-0.13,-0.2,1.17,6.97,0.1,0.03,-0.81,32.825974740999996,34.956579328000004,28.799,2.14,55.18,-2.73,307558295,2172,110000,11111100,8,0,100,0.0,0,45,45,100798,22.89,0
7077,14.673,3.815,-5.496,7.8386,10.21157,-22.03324,0.179089,0.11414,1.176156,6270.0,7970.0,2310.0,47.0,10.1,00000000 00000000,32.826346714,34.956753950999996,23.086,-1.02,1.1,-0.09,-0.2,1.16,6.96,0.07,0.04,-0.8,32.825974874,34.956578427,28.908,1.83,50.92,-2.85,307558320,2172,110000,11111100,8,0,100,0.0,0,20,20,100798,22.89,3
7078,15.222000000000001,4.079,-5.191,9.373560000000001,11.0808,-23.6034,0.183597,0.08582100000000001,1.17924,6220.0,7900.0,2310.0,47.0,10.08,00000000 00000000,32.826346963,34.95675368,23.085,-1.0,1.1,-0.04,-0.2,1.15,6.95,0.02,0.04,-0.78,32.825974874,34.956578427,28.908,1.83,50.92,-2.85,307558345,2172,110000,11111100,8,0,100,0.0,0,45,45,100798,22.89,0
7079,15.839,4.405,-4.877,12.31681,9.503810000000001,-29.078840000000003,0.146627,0.06354,1.154807,6170.0,7830.0,2300.0,47.0,10.12,00000000 00000000,32.826347171,34.956753335,23.082,-0.98,1.09,0.0,-0.2,1.13,6.94,-0.02,0.04,-0.76,32.826017054,34.956657948,18.582,0.99,40.08,-1.14,307558370,2172,10000,11111100,8,0,100,0.0,0,20,20,100798,22.89,3
7080,16.614,4.815,-4.744,15.26632,-6.56363,-32.74331,0.180991,0.068022,1.190782,6130.0,7760.0,2290.0,47.0,10.07,00000000 00000000,32.826347417,34.956753073,23.082,-0.97,1.08,0.04,-0.2,1.12,6.93,-0.06,0.03,-0.75,32.826017054,34.956657948,18.582,0.99,40.08,-1.14,307558395,2172,10000,11111100,8,0,100,0.0,0,45,45,100798,22.89,0
7081,17.261,5.284,-5.113,17.17475,-25.99318,-19.73377,0.161406,0.11361500000000001,1.1756659999999999,6110.0,7670.0,2270.0,47.0,10.12,00000000 00000000,32.826349218000004,34.956752672,23.083,-0.95,1.09,0.09,-0.2,1.1,6.92,-0.11,0.03,-0.72,32.825976698000005,34.956580951999996,28.571,1.92,50.85,-2.88,307558420,2172,110000,11111100,8,0,100,0.0,0,20,20,100798,22.97,3
7082,17.553,5.702000000000001,-5.787999999999999,13.281329999999999,-25.74791,-8.22516,0.089317,0.092127,1.1243020000000001,6120.0,7580.0,2220.0,47.0,10.07,00000000 00000000,32.826349463,34.956752418,23.086,-0.94,1.08,0.13,-0.2,1.09,6.91,-0.15,0.03,-0.72,32.825976698000005,34.956580951999996,28.571,1.92,50.85,-2.88,307558445,2172,110000,11111100,8,0,100,0.0,0,45,45,100798,22.97,0
7083,17.680999999999997,5.9879999999999995,-6.2010000000000005,8.58896,-6.91723,-5.3557,0.053167,0.046932,1.0289760000000001,6150.0,7530.0,2180.0,47.0,10.09,00000000 00000000,32.826349652,34.956752083000005,23.09,-0.96,1.08,0.15,-0.2,1.08,6.9,-0.18,0.02,-0.73,32.826018665999996,34.956659086,18.752,0.58,347.99,2.33,307558470,2172,10000,11111100,8,0,100,0.0,0,20,20,100798,22.97,3
7084,17.816,6.172000000000001,-6.135,5.10158,8.61605,-7.60485,0.096491,0.07323500000000001,0.941775,6150.0,7510.0,2170.0,47.0,10.07,00000000 00000000,32.826349894,34.956751824,23.094,-0.97,1.07,0.15,-0.2,1.06,6.89,-0.17,0.0,-0.73,32.826018665999996,34.956659086,18.752,0.58,347.99,2.33,307558495,2172,10000,11111100,8,0,100,0.0,0,45,45,100798,22.89,0
7085,18.049,6.296,-5.896,2.90725,5.30428,-11.65655,0.16606500000000002,0.083044,0.894425,6130.0,7490.0,2170.0,47.0,10.08,00000000 00000000,32.826350190999996,34.956751413,23.099,-0.96,1.06,0.13,-0.2,1.05,6.88,-0.16,0.0,-0.72,32.825978211999995,34.956583506,28.351,2.99,59.93,-3.64,307558520,2172,110000,11111100,8,0,100,0.0,0,20,20,100798,22.89,3
7086,18.366,6.372999999999999,-5.896,0.51171,-7.88748,-13.591079999999998,0.20558800000000002,0.080444,0.886649,6080.0,7460.0,2180.0,47.0,10.08,00000000 00000000,32.826350429,34.956751159,23.102,-0.93,1.05,0.11,-0.2,1.03,6.87,-0.13,0.0,-0.7,32.825978211999995,34.956583506,28.351,2.99,59.93,-3.64,307558545,2172,110000,11111100,8,0,100,0.0,0,45,45,100798,22.89,0
7087,18.709,6.381,-6.1739999999999995,-2.96686,-16.73316,-13.152829999999998,0.241975,0.069133,0.918236,6070.0,7410.0,2160.0,47.0,10.11,00000000 00000000,32.826350802,34.95675076,23.107,-0.91,1.03,0.09,-0.2,1.02,6.85,-0.11,0.0,-0.67,32.825979036999996,34.95658368,28.134,3.31,48.62,-5.44,307558570,2172,110000,11111100,8,0,100,0.0,0,20,20,100800,22.8,3
7088,19.011,6.303,-6.646,-5.62815,-23.2392,-9.68495,0.249115,0.082482,0.9361799999999999,6080.0,7360.0,2150.0,47.0,10.09,00000000 00000000,32.826351034,34.956750521,23.109,-0.87,1.02,0.08,-0.2,1.01,6.84,-0.1,-0.01,-0.63,32.825979036999996,34.95658368,28.134,3.31,48.62,-5.44,307558595,2172,110000,11111100,8,0,100,0.0,0,45,45,100800,22.8,0
7089,19.233,6.162999999999999,-7.257999999999999,-7.48345,-27.045340000000003,-6.9625699999999995,0.188486,0.091316,0.917849,6100.0,7350.0,2160.0,47.0,10.11,00000000 00000000,32.826351403000004,34.956750144000004,23.112,-0.85,1.0,0.07,-0.2,0.99,6.83,-0.09,-0.01,-0.6,32.825982293,34.956588492,27.575,3.99,56.78,-5.72,307558620,2172,110000,11111100,8,0,100,0.0,0,20,20,100800,22.8,3
7090,19.435,5.976,-7.905,-9.50815,-25.55729,-7.28667,0.086738,0.063971,0.870064,6140.0,7360.0,2140.0,47.0,10.08,00000000 00000000,32.826351629,34.956749918,23.114,-0.84,1.0,0.04,-0.2,0.98,6.82,-0.07,-0.02,-0.59,32.825982293,34.956588492,27.575,3.99,56.78,-5.72,307558645,2172,110000,11111100,8,0,100,0.0,0,45,45,100798,22.89,0
7091,19.647000000000002,5.747000000000001,-8.482999999999999,-10.716610000000001,-22.88344,-5.9753300000000005,0.011696999999999999,0.045879,0.808584,6170.0,7390.0,2170.0,47.0,10.13,00000000 00000000,32.82635202,34.956749546,23.116,-0.86,1.0,0.0,-0.2,0.96,6.81,-0.03,-0.02,-0.6,32.825983226999995,34.956590780999996,27.24,3.8,50.93,-5.49,307558670,2172,110000,11111100,9,0,100,0.0,0,20,20,100798,22.89,3
7092,19.785999999999998,5.49,-9.024,-11.6575,-21.206129999999998,-1.7393599999999998,-0.021769,0.040644,0.791401,6230.0,7410.0,2170.0,47.0,10.1,00000000 00000000,32.826352246,34.956749310999996,23.115,-0.89,1.0,-0.04,-0.2,0.95,6.8,0.01,-0.03,-0.63,32.825983226999995,34.956590780999996,27.24,3.8,50.93,-5.49,307558695,2172,110000,11111100,9,0,100,0.0,0,45,45,100798,22.89,0
7093,19.859,5.176,-9.45,-14.32035,-11.60162,-0.73214,-0.026649000000000003,0.03864,0.8348559999999999,6280.0,7410.0,2190.0,47.0,10.12,00000000 00000000,32.826352589,34.956748934000004,23.115,-0.93,1.01,-0.09,-0.2,0.94,6.78,0.06,-0.04,-0.67,32.825983398000005,34.956589025999996,27.52,2.59,39.07,-4.57,307558720,2172,110000,11111100,9,0,100,0.0,0,20,20,100798,22.89,3
7094,19.957,4.808,-9.571,-15.597389999999999,0.29025,-2.4532,-0.014928,0.059307000000000006,0.876495,6320.0,7400.0,2190.0,47.0,10.08,00000000 00000000,32.826352817,34.95674868,23.112,-0.96,1.01,-0.13,-0.2,0.92,6.77,0.1,-0.05,-0.71,32.825983398000005,34.956589025999996,27.52,2.59,39.07,-4.57,307558745,2172,110000,11111100,9,0,100,0.0,0,45,45,100798,22.89,0
7095,20.12,4.441,-9.472999999999999,-15.60193,5.80835,-5.52355,0.00643,0.049395,0.9564950000000001,6340.0,7400.0,2200.0,47.0,10.12,00000000 00000000,32.826353096999995,34.95674828,23.108,-1.0,1.02,-0.15,-0.2,0.91,6.76,0.12,-0.05,-0.74,32.825983666999996,34.956588833000005,27.487,1.58,26.17,-2.94,307558770,2172,110000,11111100,9,0,100,0.0,0,20,20,100798,22.89,3
7096,20.317,4.072,-9.261000000000001,-16.024420000000003,10.188839999999999,-4.2156400000000005,0.050837,0.045294,1.056801,6360.0,7390.0,2180.0,47.0,10.08,00000000 00000000,32.826353329,34.956748006,23.104,-1.03,1.03,-0.15,-0.19,0.9,6.75,0.13,-0.06,-0.78,32.825983666999996,34.956588833000005,27.487,1.58,26.17,-2.94,307558795,2172,110000,11111100,9,0,100,0.0,0,45,45,100798,22.97,0
7097,20.445,3.705,-8.939,-14.112029999999999,15.32644,-1.79152,0.10843299999999999,0.09063600000000001,1.156763,6360.0,7400.0,2190.0,47.0,10.12,00000000 00000000,32.826353655,34.956747588,23.102,-1.05,1.04,-0.12,-0.19,0.88,6.74,0.1,-0.06,-0.8,32.825984974,34.956595201,26.564,2.88,51.53,-5.18,307558820,2172,110000,11111100,9,0,100,0.0,0,20,20,100796,23.05,3
7098,20.539,3.4160000000000004,-8.456,-9.8842,23.45192,-2.56168,0.155023,0.12116400000000001,1.230815,6330.0,7400.0,2190.0,47.0,10.09,00000000 00000000,32.826353891,34.956747304000004,23.099,-1.06,1.05,-0.07,-0.19,0.87,6.72,0.05,-0.05,-0.81,32.825984974,34.956595201,26.564,2.88,51.53,-5.18,307558845,2172,110000,11111100,9,0,100,0.0,0,45,45,100798,22.89,0
7099,20.65,3.23,-7.7620000000000005,-5.63443,31.12371,-3.55628,0.210188,0.142217,1.225687,6280.0,7380.0,2240.0,47.0,10.12,00000000 00000000,32.826357232,34.95674689,23.099,-1.05,1.08,-0.01,-0.19,0.86,6.71,0.0,-0.04,-0.81,32.825985721,34.956596563000005,26.395,2.73,60.31,-4.67,307558870,2172,110000,11111100,9,0,100,0.0,0,20,20,100798,22.89,3
7100,20.784000000000002,3.1519999999999997,-6.928,-2.17123,33.65652,-6.40217,0.20477599999999999,0.127646,1.131599,6230.0,7370.0,2310.0,47.0,10.09,00000000 00000000,32.826357478,34.95674661,23.099,-1.03,1.09,0.03,-0.19,0.84,6.7,-0.05,-0.02,-0.79,32.825985721,34.956596563000005,26.395,2.73,60.31,-4.67,307558895,2172,110000,11111100,9,0,100,0.0,0,45,45,100798,22.89,0
7101,20.967,3.141,-6.153,-1.0881100000000001,24.31652,-7.51135,0.12503,0.08505399999999999,1.0566790000000001,6170.0,7360.0,2390.0,47.0,10.09,00000000 00000000,32.826357778,34.956746201,23.102,-1.02,1.1,0.06,-0.19,0.83,6.69,-0.08,-0.01,-0.78,32.825986166999996,34.956597516,26.389,2.64,54.39,-4.32,307558920,2172,110000,11111100,9,0,100,0.0,0,20,20,100798,22.89,3
7102,21.103,3.109,-5.853,-2.32242,-1.10022,-0.60656,0.179503,0.054749,1.132159,6110.0,7360.0,2450.0,47.0,10.08,00000000 00000000,32.826358027,34.956745929,23.104,-1.01,1.1,0.08,-0.19,0.82,6.67,-0.1,-0.01,-0.77,32.825986166999996,34.956597516,26.389,2.64,54.39,-4.32,307558945,2172,110000,11111100,9,0,100,0.0,0,45,45,100798,22.89,0
7103,20.916,3.076,-6.112,2.59444,-15.21468,15.35246,0.221246,0.10369500000000001,1.159617,6120.0,7370.0,2470.0,47.0,10.1,00000000 00000000,32.826359844,34.956745545,23.105,-0.98,1.11,0.13,-0.19,0.8,6.66,-0.14,0.0,-0.74,32.825986766999996,34.956598304,26.25,2.05,52.13,-3.02,307558970,2172,110000,11111100,9,0,100,0.0,0,20,20,100798,22.97,3
7104,20.464000000000002,3.187,-6.468999999999999,9.75216,-8.16721,16.53169,0.161921,0.09734,1.098098,6190.0,7380.0,2470.0,47.0,10.05,00000000 00000000,32.826360094,34.956745284,23.108,-0.96,1.11,0.16,-0.19,0.79,6.65,-0.18,0.0,-0.72,32.825986766999996,34.956598304,26.25,2.05,52.13,-3.02,307558995,2172,110000,11111100,9,0,100,0.0,0,45,45,100798,22.89,8
7105,20.111,3.449,-6.4910000000000005,13.627,7.8777800000000004,9.22772,0.091193,0.057116,0.9997870000000001,6210.0,7420.0,2520.0,47.0,10.1,00000000 00000000,32.826358357,34.956744894,23.134,-0.96,1.1,0.18,-0.19,0.78,6.63,-0.2,0.0,-0.72,32.825985394,34.956594129,26.843,1.01,26.66,0.41,307559020,2172,110000,11111100,9,0,100,0.0,0,20,20,100798,22.89,3
7106,19.892,3.7960000000000003,-6.162999999999999,15.63031,16.95586,6.00094,0.07633200000000001,0.06434,0.9149440000000001,6210.0,7400.0,2460.0,47.0,10.08,00000000 00000000,32.826358606,34.956744637,23.139,-0.96,1.1,0.17,-0.19,0.76,6.62,-0.19,0.0,-0.72,32.825985394,34.956594129,26.843,1.01,26.66,0.41,307559045,2172,110000,11111100,9,0,100,0.0,0,45,45,100798,22.89,0
7107,19.680999999999997,4.167,-5.82,14.63396,8.98672,8.234210000000001,0.100604,0.061577999999999994,0.883758,6170.0,7370.0,2390.0,47.0,10.1,00000000 00000000,32.82635651,34.956744242,23.146,-0.96,1.08,0.15,-0.19,0.75,6.6,-0.17,0.0,-0.72,32.82598635,34.956594348,26.843,0.89,339.69,1.7,307559070,2172,110000,11111100,9,0,100,0.0,0,20,20,100798,22.89,3
7108,19.349,4.457,-5.789,10.34607,-3.47787,17.2965,0.11984000000000002,0.037380000000000004,0.911993,6160.0,7360.0,2310.0,47.0,10.1,00000000 00000000,32.826356754,34.956743984,23.149,-0.96,1.08,0.12,-0.19,0.74,6.59,-0.14,0.0,-0.72,32.82598635,34.956594348,26.843,0.89,339.69,1.7,307559095,2172,110000,11111100,9,0,100,0.0,0,45,45,100798,22.89,0
7109,18.732,4.579,-5.979,4.66823,-5.61996,30.03977,0.11174300000000001,0.069343,0.945008,6200.0,7380.0,2220.0,47.0,10.11,00000000 00000000,32.826356968,34.956743484,23.154,-0.95,1.07,0.11,-0.19,0.72,6.57,-0.13,0.0,-0.71,32.825942609,34.956469256,52.731,0.7,331.99,1.73,307559120,2172,110000,11111100,9,0,100,0.0,0,20,20,100798,22.89,3
7110,17.917,4.564,-6.0889999999999995,1.52372,3.03194,32.22777,0.107439,0.109319,0.9456180000000001,6240.0,7430.0,2140.0,47.0,10.08,00000000 00000000,32.82635721,34.956743229000004,23.156,-0.95,1.07,0.1,-0.19,0.71,6.56,-0.12,0.0,-0.7,32.825942609,34.956469256,52.731,0.7,331.99,1.73,307559145,2172,110000,11111100,9,0,100,0.0,0,45,45,100798,22.97,0
7111,17.218,4.513999999999999,-5.943,0.62848,12.46446,22.68741,0.106118,0.130873,0.927212,6280.0,7500.0,2100.0,47.0,10.08,00000000 00000000,32.826357853000005,34.956742743,23.158,-0.94,1.09,0.09,-0.19,0.7,6.54,-0.11,0.0,-0.7,32.825943298,34.956470769,52.584,1.69,48.02,-0.42,307559170,2172,110000,11111100,9,0,100,0.0,0,20,20,100798,22.97,3
7112,16.750999999999998,4.4639999999999995,-5.632999999999999,-1.1548,14.13026,15.50714,0.078231,0.098929,0.8848020000000001,6300.0,7570.0,2080.0,47.0,10.07,00000000 00000000,32.8263581,34.956742491,23.16,-0.93,1.1,0.07,-0.19,0.69,6.52,-0.09,0.02,-0.7,32.825943298,34.956470769,52.584,1.69,48.02,-0.42,307559195,2172,110000,11111100,9,0,100,0.0,0,45,45,100798,22.89,0
7113,16.399,4.371,-5.367999999999999,-3.17972,7.908110000000001,14.0734,0.063113,0.06666,0.866993,6300.0,7630.0,2070.0,47.0,10.11,00000000 00000000,32.826358358,34.956742041999995,23.168,-0.93,1.1,0.04,-0.19,0.67,6.51,-0.06,0.02,-0.7,32.825960689,34.956521962,42.33,1.69,48.02,-0.42,307559220,2172,110000,11111100,11,0,100,0.0,0,20,70,100798,22.89,1
7114,16.055999999999997,4.257,-5.297000000000001,-3.00356,0.45833,13.592329999999999,0.051308000000000006,0.060530999999999995,0.874574,6310.0,7660.0,2040.0,47.0,10.09,00000000 00000000,32.826357265,34.956741798,23.153,-0.94,1.09,0.01,-0.19,0.66,6.49,-0.03,0.02,-0.7,32.825960689,34.956521962,42.33,1.24,41.66,-0.15,307559245,2172,110000,11111100,11,0,100,0.0,0,45,45,100798,22.89,2
7115,15.764000000000001,4.185,-5.35,-0.31006999999999996,-1.8365200000000002,9.27102,0.032147,0.068609,0.902431,6320.0,7700.0,2020.0,47.0,10.08,00000000 00000000,32.826357474,34.956741305,23.153,-0.95,1.09,-0.01,-0.19,0.65,6.47,0.0,0.02,-0.71,32.82594317,34.956469443,52.871,0.46,2.38,0.55,307559270,2172,110000,11111100,9,0,100,0.0,0,20,20,100798,22.89,3
7116,15.618,4.186,-5.398,1.1836799999999998,-0.42278000000000004,2.4009,0.009372,0.078195,0.911925,6340.0,7730.0,1990.0,47.0,10.05,00000000 00000000,32.826357722,34.95674105,23.152,-0.96,1.1,-0.03,-0.19,0.63,6.45,0.01,0.02,-0.72,32.82594317,34.956469443,52.871,0.46,2.38,0.55,307559295,2172,110000,11111100,9,0,100,0.0,0,45,45,100798,22.89,0
7117,15.635,4.221,-5.356,1.38249,3.9173199999999997,-3.8551599999999997,-0.015865,0.064743,0.9225399999999999,6360.0,7740.0,1950.0,47.0,10.12,00000000 00000000,32.82635795,34.956740601999996,23.178,-0.98,1.11,-0.05,-0.19,0.62,6.44,0.03,0.02,-0.74,32.82596116,34.95652267,42.371,0.88,32.76,0.17,307559320,2172,110000,11111100,10,0,100,0.0,0,20,20,100800,22.8,3
7118,15.786,4.284,-5.196000000000001,2.95132,7.778560000000001,-8.21675,0.001085,0.07795,0.983483,6350.0,7750.0,1940.0,47.0,10.08,00000000 00000000,32.826358201,34.956740335999996,23.177,-1.0,1.11,-0.07,-0.19,0.61,6.42,0.05,0.02,-0.76,32.82596116,34.95652267,42.371,0.88,32.76,0.17,307559345,2172,110000,11111100,10,0,100,0.0,0,45,45,100800,22.8,0
7119,16.02,4.412,-4.941,5.48779,11.515460000000001,-11.263110000000001,0.060497,0.115128,1.0818,6310.0,7740.0,1960.0,47.0,10.1,00000000 00000000,32.826358401,34.956739929,23.207,-1.01,1.12,-0.05,-0.19,0.6,6.4,0.04,0.03,-0.78,32.826001272,34.956577674,37.438,0.64,51.72,0.24,307559370,2172,10000,11111100,11,0,100,0.0,0,20,20,100798,22.89,3
7120,16.323,4.584,-4.546,5.62217,18.50731,-13.373820000000002,0.13835799999999998,0.115066,1.149445,6290.0,7690.0,1910.0,47.0,10.07,00000000 00000000,32.826358656,34.956739658000004,23.206,-1.0,1.13,-0.02,-0.19,0.58,6.38,0.01,0.03,-0.77,32.826001272,34.956577674,37.438,0.64,51.72,0.24,307559395,2172,10000,11111100,11,0,100,0.0,0,45,45,100798,22.89,0
7121,16.656,4.717,-3.985,3.26892,23.85742,-14.537320000000001,0.133933,0.126152,1.138798,6240.0,7670.0,1920.0,47.0,10.1,00000000 00000000,32.826358878,34.956739333,23.21,-0.99,1.13,0.01,-0.18,0.57,6.36,-0.02,0.04,-0.76,32.82602546,34.956666206,18.304,0.9,37.79,0.08,307559420,2172,10000,11111100,8,0,100,0.0,0,20,20,100798,22.97,3
7122,17.067,4.8389999999999995,-3.3480000000000003,5.1591,22.32139,-19.11981,0.10673099999999999,0.135785,1.108209,6180.0,7630.0,1930.0,47.0,10.05,00000000 00000000,32.826359135,34.95673907,23.21,-0.97,1.14,0.04,-0.18,0.56,6.34,-0.05,0.05,-0.74,32.82602546,34.956666206,18.304,0.9,37.79,0.08,307559445,2172,10000,11111100,8,0,100,0.0,0,45,45,100796,23.05,0
7123,17.586,5.045,-2.878,8.39275,10.19743,-21.394170000000003,0.15470799999999998,0.112052,1.067017,6110.0,7580.0,1950.0,47.0,10.12,00000000 00000000,32.826359335,34.956738701999996,23.216,-0.95,1.14,0.07,-0.18,0.54,6.32,-0.08,0.06,-0.72,32.82601068,34.956608366,31.01,0.56,48.74,1.35,307559470,2172,10000,11111100,10,0,100,0.0,0,20,20,100796,23.14,3
7124,18.059,5.269,-2.812,7.1325199999999995,-8.622,-16.5984,0.218829,0.111205,1.0491110000000001,6070.0,7530.0,1950.0,47.0,10.07,00000000 00000000,32.826359591999996,34.956738451,23.218,-0.92,1.13,0.08,-0.18,0.53,6.3,-0.1,0.06,-0.69,32.82601068,34.956608366,31.01,0.56,48.74,1.35,307559495,2172,10000,11111100,10,0,100,0.0,0,45,45,100798,22.97,0
7125,18.422,5.437,-3.193,4.81123,-23.0863,-14.056820000000002,0.210186,0.097661,1.023617,6050.0,7500.0,1940.0,47.0,10.12,00000000 00000000,32.826359783,34.956737994,23.231,-0.87,1.12,0.1,-0.18,0.52,6.28,-0.11,0.06,-0.65,32.825954458000005,34.956495655,48.364,0.57,288.43,2.41,307559520,2172,110000,11111100,9,0,100,0.0,0,20,20,100798,22.97,3
7126,18.819000000000003,5.54,-3.7769999999999997,0.8492200000000001,-23.88201,-19.13865,0.115908,0.088995,0.957781,6080.0,7450.0,1880.0,47.0,10.1,00000000 00000000,32.826360035,34.956737761999996,23.234,-0.85,1.11,0.1,-0.18,0.51,6.26,-0.11,0.06,-0.62,32.825954458000005,34.956495655,48.364,0.57,288.43,2.41,307559545,2172,110000,11111100,9,0,100,0.0,0,45,45,100798,22.97,0
7127,19.375999999999998,5.521,-4.261,-5.8689599999999995,-20.35131,-24.2504,0.080315,0.094237,0.893711,6090.0,7420.0,1830.0,47.0,10.11,00000000 00000000,32.826358596,34.956737415999996,23.239,-0.84,1.1,0.08,-0.18,0.49,6.24,-0.1,0.06,-0.61,32.826009581,34.956599746,32.799,0.94,21.45,-0.59,307559570,2172,10000,11111100,11,0,100,0.0,0,20,20,100798,22.97,3
7128,20.019000000000002,5.332999999999999,-4.758,-13.114020000000002,-25.5738,-24.88992,0.11012100000000001,0.077547,0.8844280000000001,6120.0,7410.0,1790.0,47.0,10.07,00000000 00000000,32.826358843,34.956737191,23.241,-0.83,1.09,0.06,-0.18,0.48,6.22,-0.07,0.06,-0.6,32.826009581,34.956599746,32.799,0.94,21.45,-0.59,307559595,2172,10000,11111100,11,0,100,0.0,0,45,45,100796,23.05,0
7129,20.625999999999998,4.9719999999999995,-5.434,-20.074820000000003,-31.695790000000002,-19.7832,0.11588699999999999,0.057134000000000004,0.8913620000000001,6140.0,7390.0,1780.0,47.0,10.1,00000000 00000000,32.826358734,34.956736858,23.244,-0.82,1.09,0.03,-0.18,0.47,6.2,-0.05,0.06,-0.59,32.826007149,34.956598205,31.874,1.83,55.31,-1.27,307559620,2172,10000,11111100,11,0,100,0.0,0,20,20,100798,22.97,3
7130,21.087,4.442,-6.176,-25.132279999999998,-29.134529999999998,-12.86271,0.101311,0.055092999999999996,0.916701,6170.0,7390.0,1760.0,47.0,10.09,00000000 00000000,32.826358979,34.956736637,23.244,-0.82,1.08,0.01,-0.18,0.46,6.18,-0.02,0.05,-0.58,32.826007149,34.956598205,31.874,1.83,55.31,-1.27,307559645,2172,10000,11111100,11,0,100,0.0,0,45,45,100796,23.05,0
7131,21.45,3.8489999999999998,-6.778,-24.58089,-21.04024,-11.55605,0.103698,0.081086,0.922006,6200.0,7420.0,1760.0,47.0,10.09,00000000 00000000,32.826357266,34.956736293,23.249,-0.82,1.06,0.0,-0.18,0.44,6.15,-0.01,0.05,-0.58,32.826004774,34.956588321999995,34.363,1.27,51.83,0.0,307559670,2172,10000,11111100,12,0,100,0.0,0,20,20,100796,23.14,3
7132,21.820999999999998,3.3289999999999997,-7.187,-20.41951,-13.98052,-12.68985,0.077424,0.077905,0.883798,6230.0,7470.0,1790.0,47.0,10.1,00000000 00000000,32.826357507,34.956736073,23.249,-0.82,1.07,-0.02,-0.18,0.43,6.13,0.0,0.06,-0.58,32.826004774,34.956588321999995,34.363,1.27,51.83,0.0,307559695,2172,10000,11111100,12,0,100,0.0,0,45,45,100796,23.14,0
7133,22.206999999999997,2.9019999999999997,-7.466,-18.01379,-10.70352,-14.062779999999998,0.058977999999999996,0.075019,0.864108,6250.0,7510.0,1820.0,47.0,10.11,00000000 00000000,32.826355849,34.956735738,23.252,-0.82,1.07,-0.05,-0.18,0.42,6.11,0.03,0.06,-0.59,32.826012667,34.956605519,31.95,0.78,6.45,1.65,307559720,2172,10000,11111100,11,0,100,0.0,0,20,20,100796,23.05,3
7134,22.677,2.535,-7.695,-15.83441,-9.735660000000001,-19.46128,0.057405,0.086306,0.865784,6260.0,7530.0,1850.0,46.9,10.09,00000000 00000000,32.826356091,34.956735515,23.251,-0.83,1.08,-0.08,-0.18,0.41,6.09,0.06,0.07,-0.61,32.826012667,34.956605519,31.95,0.78,6.45,1.65,307559745,2172,10000,11111100,11,0,100,0.0,0,45,45,100798,22.97,0
7135,23.241,2.251,-7.928999999999999,-13.02281,-10.65754,-20.913320000000002,0.037801999999999995,0.065288,0.865507,6230.0,7540.0,1920.0,46.9,10.1,00000000 00000000,32.826354954,34.956735181999996,23.252,-0.84,1.09,-0.11,-0.18,0.4,6.06,0.1,0.08,-0.62,32.826013258,34.95660633,31.807,1.05,34.41,-0.09,307559770,2172,10000,11111100,11,0,100,0.0,0,20,20,100796,23.14,3
7136,23.747,2.025,-8.129,-10.3208,-5.6482,-16.13203,0.0007570000000000001,0.06671,0.882704,6250.0,7520.0,1910.0,46.9,10.08,00000000 00000000,32.826355201999995,34.956734953,23.249,-0.86,1.1,-0.14,-0.18,0.38,6.04,0.13,0.09,-0.64,32.826013258,34.95660633,31.807,1.05,34.41,-0.09,307559795,2172,10000,11111100,11,0,100,0.0,0,45,45,100796,23.14,0
7137,24.13,1.867,-8.158,-6.33592,1.55771,-12.723519999999999,0.00861,0.082942,0.912323,6270.0,7500.0,1900.0,46.9,10.1,00000000 00000000,32.826355424,34.956734614,23.249,-0.88,1.13,-0.17,-0.18,0.37,6.02,0.15,0.1,-0.67,32.826009095,34.956602290999996,32.387,1.24,60.8,-0.15,307559820,2172,10000,11111100,11,0,100,0.0,0,20,20,100796,23.05,3
7138,24.430999999999997,1.814,-8.07,-1.51536,4.43253,-10.61792,0.019087,0.078315,0.957124,6280.0,7460.0,1860.0,46.9,10.09,00000000 00000000,32.826355681,34.956734374,23.245,-0.9,1.15,-0.19,-0.18,0.36,5.99,0.17,0.11,-0.7,32.826009095,34.956602290999996,32.387,1.24,60.8,-0.15,307559845,2172,10000,11111100,11,0,100,0.0,0,45,45,100798,22.89,0
7139,24.645,1.844,-7.9110000000000005,0.7883,7.95852,-5.43821,0.031564,0.040382,1.013083,6270.0,7440.0,1830.0,46.9,10.13,00000000 00000000,32.826355926,34.956733981999996,23.247,-0.92,1.17,-0.19,-0.18,0.35,5.97,0.18,0.12,-0.72,32.826024329,34.956555001,43.163,1.29,49.46,0.23,307559870,2172,10000,11111100,10,0,100,0.0,0,20,20,100798,22.89,3
7140,24.639,1.825,-7.689,-3.2617,9.190760000000001,6.5602,0.071426,0.02418,1.038808,6280.0,7410.0,1800.0,46.9,10.1,00000000 00000000,32.826356191,34.956733732,23.242,-0.94,1.18,-0.18,-0.18,0.34,5.95,0.17,0.12,-0.74,32.826024329,34.956555001,43.163,1.29,49.46,0.23,307559895,2172,10000,11111100,10,0,100,0.0,0,45,45,100798,22.89,0
7141,24.403000000000002,1.618,-7.454,-11.17849,11.45309,12.23127,0.067849,0.045381,1.049562,6290.0,7410.0,1800.0,46.9,10.11,00000000 00000000,32.826356365,34.956733262,23.217,-0.95,1.18,-0.17,-0.18,0.32,5.92,0.16,0.12,-0.76,32.825945442,34.956485038000004,51.625,0.5,164.12,-0.41,307559920,2172,110000,11111100,10,0,100,0.0,0,20,20,100798,22.89,3
7142,24.17,1.19,-7.067,-20.89136,21.10728,9.50716,0.062664,0.057601,1.066009,6300.0,7440.0,1840.0,46.9,10.08,00000000 00000000,32.826356634,34.956733005,23.213,-0.96,1.2,-0.16,-0.18,0.31,5.9,0.14,0.13,-0.77,32.825945442,34.956485038000004,51.625,0.5,164.12,-0.41,307559945,2172,110000,11111100,10,0,100,0.0,0,45,45,100798,22.89,0
7143,24.096,0.514,-6.482,-31.370929999999998,22.03579,2.76288,0.167621,0.103574,1.129732,6290.0,7520.0,1940.0,46.9,10.12,00000000 00000000,32.826356765999996,34.956732503000005,23.208,-0.96,1.21,-0.14,-0.18,0.3,5.87,0.12,0.14,-0.78,32.825936047,34.956457446,57.146,1.31,188.74,-1.12,307559970,2172,110000,11111100,11,0,100,0.0,0,20,20,100798,22.89,3
7144,24.11,0.278,-6.228,-28.397679999999998,-5.29844,5.27185,0.336383,0.08737,1.301576,6290.0,7610.0,2070.0,47.0,10.08,00000000 00000000,32.82635704,34.956732249,23.205,-0.92,1.22,-0.08,-0.18,0.29,5.85,0.07,0.17,-0.75,32.825936047,34.956457446,57.146,1.31,188.74,-1.12,307559995,2172,110000,11111100,11,0,100,0.0,0,45,45,100798,22.97,8
7145,23.99,0.85,-6.695,-16.02769,-27.94264,7.7625,0.358381,0.020432,1.314922,6330.0,7750.0,2250.0,47.0,10.08,00000000 00000000,32.826357327,34.956731789,23.205,-0.86,1.21,0.0,-0.18,0.28,5.82,-0.01,0.18,-0.7,32.825946409000004,34.956488234,50.711,1.31,188.74,-1.12,307560020,2172,110000,11111100,10,0,100,0.0,0,20,70,100798,22.97,1
7146,23.924,1.13,-7.332000000000001,-6.117430000000001,-18.268539999999998,-2.02489,0.23650900000000002,0.008462,1.207962,6410.0,7880.0,2370.0,47.0,10.09,00000000 00000000,32.826357601,34.956731559,23.206,-0.83,1.21,0.07,-0.18,0.26,5.8,-0.08,0.19,-0.66,32.825946409000004,34.956488234,50.711,2.45,213.7,4.16,307560045,2172,110000,11111100,10,0,100,0.0,0,45,45,100798,22.89,2
7147,24.201999999999998,1.155,-7.502000000000001,1.27293,5.20602,-20.02393,0.175094,-0.028717000000000003,1.108727,6490.0,7910.0,2380.0,47.0,10.11,00000000 00000000,32.826357889,34.956731099,23.208,-0.81,1.21,0.12,-0.18,0.25,5.77,-0.13,0.2,-0.64,32.82594285,34.956476541,52.988,3.03,220.77,4.31,307560070,2172,110000,11111100,10,0,100,0.0,0,20,20,100798,22.89,3
7148,24.849,0.925,-7.196000000000001,10.84328,16.79672,-31.866940000000003,0.14516800000000002,-0.050700999999999996,1.030457,6480.0,7860.0,2340.0,47.0,10.08,00000000 00000000,32.826358161,34.95673088,23.212,-0.81,1.2,0.14,-0.17,0.24,5.75,-0.15,0.19,-0.63,32.82594285,34.956476541,52.988,3.03,220.77,4.31,307560095,2172,110000,11111100,10,0,100,0.0,0,45,45,100798,22.89,0
7149,25.613000000000003,0.446,-6.888999999999999,18.60005,5.19342,-31.49475,0.179279,-0.028610000000000003,0.964691,6400.0,7750.0,2280.0,47.0,10.12,00000000 00000000,32.826358274,34.956730432,23.215,-0.8,1.19,0.14,-0.17,0.23,5.72,-0.16,0.18,-0.62,32.82594458,34.956479759000004,52.029,2.06,218.33,3.39,307560120,2172,110000,11111100,10,0,100,0.0,0,20,20,100798,22.89,3
7150,26.234,0.126,-7.005,20.12894,-13.38473,-22.806,0.18906900000000001,0.033304,0.944737,6360.0,7630.0,2170.0,47.0,10.09,00000000 00000000,32.826358541,34.956730218000004,23.219,-0.79,1.18,0.13,-0.17,0.22,5.7,-0.15,0.18,-0.61,32.82594458,34.956479759000004,52.029,2.06,218.33,3.39,307560145,2172,110000,11111100,10,0,100,0.0,0,45,45,100800,22.8,0
7151,26.623,0.662,-7.486000000000001,17.926660000000002,-23.76972,-13.67605,0.15223699999999998,0.042506999999999996,0.948792,6360.0,7560.0,2100.0,47.0,10.09,00000000 00000000,32.826358776999996,34.95672986,23.231,-0.77,1.18,0.12,-0.17,0.21,5.67,-0.14,0.19,-0.59,32.82601526,34.956552683000005,44.768,0.8,41.56,0.61,307560170,2172,10000,11111100,12,0,100,0.0,0,20,20,100800,22.8,3
7152,26.813000000000002,1.0959999999999999,-8.109,14.412889999999999,-24.452070000000003,-6.6583,0.08069,0.0301,0.9235959999999999,6410.0,7520.0,2020.0,47.0,10.08,00000000 00000000,32.826359044,34.956729654,23.234,-0.77,1.19,0.11,-0.17,0.19,5.65,-0.13,0.19,-0.59,32.82601526,34.956552683000005,44.768,0.8,41.56,0.61,307560195,2172,10000,11111100,12,0,100,0.0,0,45,45,100800,22.8,0
7153,26.879,1.432,-8.639,11.573319999999999,-17.35037,-3.03788,0.01137,0.021968,0.870022,6480.0,7460.0,1900.0,47.0,10.1,00000000 00000000,32.826359201,34.956729219,23.239,-0.78,1.2,0.09,-0.17,0.18,5.62,-0.1,0.19,-0.61,32.825939809,34.956473765,53.925,0.89,198.62,3.06,307560220,2172,110000,11111100,11,0,100,0.0,0,20,20,100800,22.8,3
7154,26.886,1.706,-8.981,10.15728,-10.23842,-1.00826,-0.009003,0.01651,0.838933,6540.0,7410.0,1780.0,47.0,10.09,00000000 00000000,32.826359472,34.956729004,23.241,-0.81,1.21,0.05,-0.17,0.17,5.59,-0.06,0.19,-0.64,32.825939809,34.956473765,53.925,0.89,198.62,3.06,307560245,2172,110000,11111100,11,0,100,0.0,0,45,45,100800,22.8,0
7155,26.875,1.949,-9.13,8.99238,-1.11409,-2.24554,-0.003237,0.029345,0.833536,6570.0,7410.0,1680.0,47.0,10.12,00000000 00000000,32.826359662,34.956728565,23.243,-0.84,1.22,0.0,-0.17,0.16,5.57,-0.02,0.19,-0.67,32.825943091999996,34.956482178,52.371,0.36,196.43,1.36,307560270,2172,110000,11111100,11,0,100,0.0,0,20,20,100798,22.89,3
7156,26.965,2.161,-9.041,6.3703199999999995,7.490060000000001,-7.54438,0.010012,0.012270999999999999,0.8213959999999999,6590.0,7410.0,1590.0,47.0,10.08,00000000 00000000,32.82635994,34.956728336,23.243,-0.87,1.24,-0.03,-0.17,0.15,5.54,0.01,0.19,-0.7,32.825943091999996,34.956482178,52.371,0.36,196.43,1.36,307560295,2172,110000,11111100,11,0,100,0.0,0,45,45,100798,22.89,0
7157,27.186999999999998,2.312,-8.774,2.65878,12.40974,-11.65327,0.043643,-0.016156999999999998,0.825081,6580.0,7400.0,1530.0,47.0,10.13,00000000 00000000,32.826360146,34.956728102,23.242,-0.89,1.24,-0.07,-0.17,0.14,5.51,0.06,0.18,-0.72,32.825925581999996,34.956425560999996,63.334,0.47,274.08,1.05,307560320,2172,110000,11111100,11,0,100,0.0,0,20,20,100798,22.89,3
7158,27.504,2.381,-8.449,-0.7297600000000001,11.95246,-13.90197,0.093957,-0.011724,0.8747959999999999,6560.0,7380.0,1470.0,47.0,10.08,00000000 00000000,32.826360425,34.95672786,23.24,-0.91,1.23,-0.11,-0.17,0.12,5.49,0.1,0.17,-0.74,32.825925581999996,34.956425560999996,63.334,0.47,274.08,1.05,307560345,2172,110000,11111100,11,0,100,0.0,0,45,45,100798,22.97,0
7159,27.886999999999997,2.4019999999999997,-8.134,-1.49442,12.62655,-16.76361,0.11371099999999999,0.017694,0.945382,6520.0,7360.0,1450.0,47.0,10.1,00000000 00000000,32.826360599000004,34.956727621,23.238,-0.92,1.23,-0.13,-0.17,0.11,5.46,0.12,0.16,-0.74,32.825903266,34.956355198000004,77.038,0.47,199.19,0.63,307560370,2172,110000,11111100,11,0,100,0.0,0,20,20,100796,23.05,3
7160,28.336,2.439,-7.778,-0.38825,14.35825,-18.84799,0.14621800000000001,0.034131,1.032766,6500.0,7330.0,1430.0,47.0,10.07,00000000 00000000,32.826360876,34.956727374,23.234,-0.92,1.23,-0.13,-0.17,0.1,5.43,0.12,0.15,-0.74,32.825903266,34.956355198000004,77.038,0.47,199.19,0.63,307560395,2172,110000,11111100,11,0,100,0.0,0,45,45,100798,22.97,0
7161,28.814,2.5269999999999997,-7.377000000000001,2.6053,16.319229999999997,-20.12646,0.16955499999999998,0.05449299999999999,1.100343,6470.0,7300.0,1430.0,47.0,10.12,00000000 00000000,32.826361023000004,34.956727138000005,23.231,-0.91,1.22,-0.11,-0.17,0.09,5.4,0.1,0.15,-0.73,32.825898839000004,34.956349861,78.088,0.9,167.51,0.36,307560420,2172,110000,11111100,12,0,100,0.0,0,20,20,100798,22.97,3
7162,29.337,2.699,-6.885,5.2878,21.3959,-22.35916,0.162153,0.027594,1.1316950000000001,6440.0,7250.0,1420.0,47.0,10.09,00000000 00000000,32.826361298,34.956726893,23.229,-0.91,1.22,-0.08,-0.17,0.08,5.38,0.07,0.15,-0.73,32.825898839000004,34.956349861,78.088,0.9,167.51,0.36,307560445,2172,110000,11111100,12,0,100,0.0,0,45,45,100798,22.97,0
7163,29.824,2.9019999999999997,-6.303999999999999,6.5551,20.937,-16.72361,0.175617,-0.003857,1.131199,6390.0,7200.0,1450.0,47.0,10.1,00000000 00000000,32.826361526999996,34.956726671999995,23.227,-0.9,1.2,-0.04,-0.17,0.07,5.35,0.03,0.14,-0.71,32.825903943,34.956362501,75.586,1.56,68.26,-3.3,307560470,2172,110000,11111100,11,0,100,0.0,0,20,20,100798,22.97,3
7164,30.090999999999998,3.1439999999999997,-5.975,10.99213,0.44383,-6.34984,0.236499,0.01135,1.161577,6370.0,7170.0,1480.0,47.0,10.07,00000000 00000000,32.826361796,34.956726431,23.227,-0.89,1.18,-0.01,-0.17,0.06,5.32,0.0,0.12,-0.7,32.825903943,34.956362501,75.586,1.56,68.26,-3.3,307560495,2172,110000,11111100,11,0,100,0.0,0,45,45,100798,22.97,0
7165,30.094,3.483,-6.371,15.6758,-31.248659999999997,2.91597,0.377979,0.060051,1.2283469999999999,6390.0,7140.0,1510.0,47.0,10.1,00000000 00000000,32.826362081999996,34.956726221,23.227,-0.85,1.15,0.04,-0.17,0.05,5.29,-0.05,0.11,-0.65,32.825905141,34.956364666999995,75.179,2.48,48.57,-3.88,307560520,2172,110000,11111100,11,0,100,0.0,0,20,20,100798,22.97,3
7166,29.898000000000003,3.875,-7.395,16.28426,-43.200759999999995,6.33073,0.350402,0.062955,1.224679,6480.0,7110.0,1450.0,47.0,10.09,00000000 00000000,32.826362338,34.956725998,23.229,-0.81,1.12,0.1,-0.17,0.04,5.26,-0.11,0.11,-0.6,32.825905141,34.956364666999995,75.179,2.48,48.57,-3.88,307560545,2172,110000,11111100,11,0,100,0.0,0,45,45,100798,22.97,0
7167,29.74,4.26,-8.372,15.894979999999999,-32.15064,0.9557899999999999,0.20556799999999997,0.07962799999999999,1.125211,6570.0,7110.0,1420.0,47.0,10.1,00000000 00000000,32.826362659000004,34.956725808,23.233,-0.78,1.1,0.16,-0.17,0.02,5.24,-0.17,0.1,-0.56,32.825909546,34.956371848,73.788,2.93,35.56,-4.38,307560570,2172,110000,11111100,10,0,100,0.0,0,20,20,100798,22.97,3
7168,29.758000000000003,4.622,-8.999,11.78931,-19.08185,-6.22802,0.114357,0.097218,1.003816,6660.0,7120.0,1400.0,47.0,10.07,00000000 00000000,32.826362907,34.956725598,23.237,-0.78,1.1,0.18,-0.17,0.01,5.21,-0.19,0.1,-0.56,32.825909546,34.956371848,73.788,2.93,35.56,-4.38,307560595,2172,110000,11111100,10,0,100,0.0,0,45,45,100798,22.97,0
7169,29.912,4.851,-9.392000000000001,3.87187,-15.581629999999999,-7.38302,0.11165599999999999,0.057828,0.918008,6740.0,7110.0,1360.0,47.0,10.1,00000000 00000000,32.826363218000004,34.956725408000004,23.242,-0.79,1.11,0.17,-0.17,0.0,5.18,-0.18,0.1,-0.57,32.825902641,34.956364091,75.718,2.64,32.61,-3.5,307560620,2172,110000,11111100,11,0,100,0.0,0,20,20,100798,22.89,3
7170,30.025,4.853,-9.822000000000001,-5.04103,-19.63082,-0.409,0.13692000000000001,0.018808000000000002,0.89113,6810.0,7100.0,1290.0,47.0,10.1,00000000 00000000,32.826363468000004,34.956725193000004,23.246,-0.8,1.1,0.15,-0.17,0.0,5.15,-0.16,0.09,-0.58,32.825902641,34.956364091,75.718,2.64,32.61,-3.5,307560645,2172,110000,11111100,11,0,100,0.0,0,45,45,100800,22.8,0
7171,29.96,4.636,10.335999999999999,-10.24118,-19.5603,7.50362,0.151626,0.068672,0.8913040000000001,6850.0,7090.0,1300.0,47.0,10.11,00000000 00000000,32.826363848,34.956725006999996,23.25,-0.8,1.1,0.12,-0.17,-0.01,5.12,-0.14,0.08,-0.58,32.825920351,34.956387524,71.972,4.03,32.26,-5.25,307560670,2172,110000,11111100,10,0,100,0.0,0,20,20,100798,22.89,3
7172,29.835,4.348,10.741,-9.70734,-11.3911,4.93235,0.150394,0.093986,0.8948799999999999,6900.0,7110.0,1320.0,47.0,10.07,00000000 00000000,32.826364096,34.956724791,23.253,-0.8,1.1,0.1,-0.17,-0.02,5.09,-0.12,0.08,-0.58,32.825920351,34.956387524,71.972,4.03,32.26,-5.25,307560695,2172,110000,11111100,10,0,100,0.0,0,45,45,100798,22.89,0
7173,29.787,4.128,10.968,-7.095680000000001,-8.57254,4.08598,0.148977,0.045797000000000004,0.8569549999999999,6960.0,7150.0,1370.0,46.9,10.1,00000000 00000000,32.826364369000004,34.956724591,23.255,-0.8,1.1,0.08,-0.16,-0.03,5.06,-0.09,0.09,-0.58,32.825906923000005,34.956375301,73.265,1.79,28.15,-4.2,307560720,2172,110000,11111100,11,0,100,0.0,0,20,20,100798,22.89,3
7174,29.625,3.931,11.276,-6.45571,-14.940579999999999,11.64361,0.125079,0.022227,0.8233590000000001,6990.0,7210.0,1410.0,46.9,10.09,00000000 00000000,32.826364618,34.956724374000004,23.257,-0.81,1.1,0.04,-0.16,-0.04,5.03,-0.05,0.08,-0.59,32.825906923000005,34.956375301,73.265,1.79,28.15,-4.2,307560745,2172,110000,11111100,11,0,100,0.0,0,45,45,100798,22.89,0
7175,29.366999999999997,3.6839999999999997,11.61,-8.8758,-7.386010000000001,11.32744,0.06915700000000001,0.048493,0.825807,7030.0,7290.0,1470.0,46.9,10.11,00000000 00000000,32.826364899,34.956724175,23.258,-0.83,1.1,0.0,-0.16,-0.05,5.0,-0.01,0.07,-0.6,32.825908638,34.956378226999995,72.765,2.12,36.15,-4.2,307560770,2172,110000,11111100,10,0,100,0.0,0,20,20,100798,22.97,3
7176,29.179000000000002,3.3939999999999997,11.615,-10.44321,7.60925,8.07355,0.06211900000000001,0.052381,0.828125,7080.0,7350.0,1520.0,46.9,10.08,00000000 00000000,32.826365149000004,34.95672395,23.257,-0.85,1.12,-0.03,-0.16,-0.06,4.97,0.02,0.07,-0.62,32.825908638,34.956378226999995,72.765,2.12,36.15,-4.2,307560795,2172,110000,11111100,10,0,100,0.0,0,45,45,100798,22.97,0
7177,29.06,3.0980000000000003,11.319,-10.90517,15.29253,6.63322,0.071426,0.034881999999999996,0.8392209999999999,7110.0,7390.0,1600.0,46.9,10.12,00000000 00000000,32.826365376999995,34.956723734,23.256,-0.87,1.13,-0.07,-0.16,-0.07,4.95,0.06,0.07,-0.65,32.825905658,34.956379018,73.106,0.96,37.16,-3.78,307560820,2172,110000,11111100,11,0,100,0.0,0,20,20,100798,22.97,3
7178,28.923000000000002,2.784,10.915,-11.56284,16.74608,9.53172,0.082208,0.030427999999999997,0.844676,7130.0,7410.0,1660.0,46.9,10.09,00000000 00000000,32.826365633,34.956723499,23.254,-0.89,1.14,-0.11,-0.16,-0.08,4.92,0.1,0.07,-0.67,32.825905658,34.956379018,73.106,0.96,37.16,-3.78,307560845,2172,110000,11111100,11,0,100,0.0,0,45,45,100798,22.97,0
7179,28.666999999999998,2.438,10.549000000000001,-12.0608,14.0247,15.6061,0.071762,0.039263,0.8721389999999999,7150.0,7460.0,1730.0,46.9,10.12,00000000 00000000,32.826365845,34.956723039,23.249,-0.9,1.14,-0.15,-0.16,-0.09,4.89,0.13,0.07,-0.69,32.825978814,34.956466479,75.243,0.75,68.49,-1.52,307560870,2172,10000,11111100,10,0,100,0.0,0,20,20,100798,22.97,3
7180,28.295,2.04,10.187999999999999,-13.953970000000002,16.123160000000002,19.52573,0.122178,0.062999,0.9621059999999999,7190.0,7520.0,1790.0,46.9,10.08,00000000 00000000,32.826366105,34.956722795,23.245,-0.92,1.15,-0.17,-0.16,-0.1,4.86,0.16,0.07,-0.7,32.825978814,34.956466479,75.243,0.75,68.49,-1.52,307560895,2172,10000,11111100,10,0,100,0.0,0,45,45,100800,22.8,0
7181,27.823,1.6119999999999999,-9.786,-12.34173,16.81087,22.73805,0.200473,0.088295,1.073499,7250.0,7600.0,1860.0,46.9,10.12,00000000 00000000,32.826366330999996,34.956722559,23.238,-0.91,1.17,-0.16,-0.16,-0.11,4.83,0.15,0.08,-0.71,32.825908203000004,34.956381925,72.437,0.62,4.79,-2.76,307560920,2172,110000,11111100,10,0,100,0.0,0,20,20,100800,22.72,3
7182,27.318,1.2919999999999998,-9.397,-5.74125,15.09198,20.72521,0.246344,0.09258200000000001,1.128414,7290.0,7680.0,1930.0,47.0,10.08,00000000 00000000,32.826366595,34.956722316,23.235,-0.9,1.17,-0.13,-0.16,-0.13,4.8,0.12,0.1,-0.7,32.825908203000004,34.956381925,72.437,0.62,4.79,-2.76,307560945,2172,110000,11111100,10,0,100,0.0,0,45,45,100800,22.8,0
7183,26.82,1.143,-9.076,-0.41153,11.64592,21.14774,0.246211,0.104657,1.157957,7310.0,7750.0,2030.0,47.0,10.1,00000000 00000000,32.82636682,34.956721801,23.233,-0.88,1.18,-0.08,-0.16,-0.14,4.77,0.08,0.11,-0.68,32.825907153,34.956382333,73.048,1.27,243.29,0.73,307560970,2172,110000,11111100,10,0,100,0.0,0,20,20,100800,22.8,3
7184,26.199,1.104,-8.871,5.63781,3.82179,29.868570000000002,0.205249,0.135202,1.199182,7350.0,7810.0,2170.0,47.0,10.07,00000000 00000000,32.826367088000005,34.956721566999995,23.231,-0.86,1.2,-0.03,-0.16,-0.15,4.74,0.03,0.13,-0.66,32.825907153,34.956382333,73.048,1.27,243.29,0.73,307560995,2172,110000,11111100,10,0,100,0.0,0,45,45,100798,22.89,8
7185,25.285999999999998,1.2,-9.009,13.285860000000001,-12.87927,40.38392,0.204497,0.14568599999999998,1.23369,7410.0,7910.0,2290.0,47.0,10.1,00000000 00000000,32.826367218,34.956721485,23.232,-0.84,1.22,0.01,-0.16,-0.16,4.71,-0.02,0.16,-0.66,32.825907111,34.956382869,72.899,0.9,231.82,0.66,307561020,2172,110000,11111100,10,0,100,0.0,0,20,20,100798,22.89,3
7186,24.131999999999998,1.4269999999999998,-9.439,19.189510000000002,-16.94144,47.86548,0.280434,0.091206,1.317944,7530.0,8020.0,2340.0,47.0,10.07,00000000 00000000,32.826367495999996,34.956721261999995,23.233,-0.82,1.24,0.09,-0.16,-0.17,4.68,-0.09,0.19,-0.65,32.825907111,34.956382869,72.899,0.9,231.82,0.66,307561045,2172,110000,11111100,10,0,100,0.0,0,45,45,100800,22.8,0
7187,22.803,1.776,-9.779,26.188660000000002,-3.68543,49.43188,0.28632199999999997,0.060729,1.262162,7670.0,8170.0,2370.0,47.0,10.12,00000000 00000000,32.826367710999996,34.956721052,23.236,-0.8,1.24,0.17,-0.16,-0.18,4.65,-0.17,0.2,-0.63,32.82590785,34.956382575,72.906,0.2,349.55,-0.19,307561070,2172,110000,11111100,10,0,100,0.0,0,20,20,100800,22.8,3
7188,21.585,2.294,-9.651,30.1216,16.72727,38.16002,0.20396,0.028144,1.0952110000000002,7760.0,8320.0,2420.0,47.0,10.08,00000000 00000000,32.826367991,34.956720839,23.241,-0.79,1.24,0.22,-0.16,-0.19,4.62,-0.23,0.2,-0.62,32.82590785,34.956382575,72.906,0.2,349.55,-0.19,307561095,2172,110000,11111100,10,0,100,0.0,0,45,45,100800,22.8,0
7189,20.691,2.91,-9.091000000000001,29.57788,28.3954,25.127110000000002,0.174541,-0.011361,0.920069,7770.0,8410.0,2470.0,47.0,10.12,00000000 00000000,32.826367657,34.956720658,23.248,-0.78,1.22,0.23,-0.16,-0.2,4.59,-0.24,0.19,-0.61,32.825909702,34.95638598,72.318,2.33,61.03,-4.39,307561120,2172,110000,11111100,10,0,100,0.0,0,20,20,100798,22.89,3
7190,20.059,3.5269999999999997,-8.49,26.435540000000003,18.82544,18.70284,0.208992,-0.015062,0.837151,7720.0,8370.0,2440.0,47.0,10.07,00000000 00000000,32.826367931,34.956720446999995,23.253,-0.77,1.2,0.2,-0.16,-0.21,4.55,-0.21,0.17,-0.6,32.825909702,34.95638598,72.318,2.33,61.03,-4.39,307561145,2172,110000,11111100,10,0,100,0.0,0,45,45,100798,22.97,0
7191,19.542,4.041,-8.318,20.095270000000003,-3.1712599999999997,16.49086,0.229971,-0.0058909999999999995,0.815742,7640.0,8290.0,2410.0,47.0,10.1,00000000 00000000,32.82636812,34.956720267,23.255,-0.75,1.18,0.16,-0.16,-0.22,4.52,-0.17,0.15,-0.57,32.825786628,34.956326401,87.181,1.57,93.52,-2.79,307561170,2172,10000,11111100,10,0,100,0.0,0,20,20,100798,22.89,3
7192,19.097,4.398,-8.658,13.39724,-18.94086,13.941220000000001,0.20788099999999998,0.01243,0.842982,7640.0,8240.0,2340.0,47.0,10.08,00000000 00000000,32.826368383,34.956720067,23.259,-0.74,1.16,0.12,-0.16,-0.23,4.49,-0.14,0.14,-0.55,32.825786628,34.956326401,87.181,1.57,93.52,-2.79,307561195,2172,10000,11111100,10,0,100,0.0,0,45,45,100798,22.89,0
7193,18.759,4.595,-9.218,6.58487,-21.98539,10.33943,0.186417,0.038194,0.884315,7690.0,8260.0,2290.0,47.0,10.1,00000000 00000000,32.826368699,34.95671987,23.262,-0.72,1.14,0.1,-0.16,-0.24,4.46,-0.11,0.13,-0.53,32.825832744,34.956365801,85.424,3.37,51.22,-4.2,307561220,2172,10000,11111100,10,0,100,0.0,0,20,20,100800,22.8,3
7194,18.523,4.665,-9.765,2.5422700000000003,-19.83305,7.55215,0.141468,0.059778,0.8718899999999999,7770.0,8290.0,2220.0,47.0,10.09,00000000 00000000,32.826368955,34.956719676,23.264,-0.72,1.13,0.07,-0.16,-0.25,4.43,-0.08,0.12,-0.52,32.825832744,34.956365801,85.424,3.37,51.22,-4.2,307561245,2172,10000,11111100,10,0,100,0.0,0,45,45,100798,22.89,0
7195,18.354,4.6739999999999995,10.225,0.93875,-15.83854,6.0614300000000005,0.085997,0.055941,0.845232,7800.0,8300.0,2190.0,47.0,10.08,00000000 00000000,32.82636925,34.956719512,23.266,-0.73,1.14,0.04,-0.16,-0.26,4.4,-0.05,0.12,-0.53,32.825872385,34.956360787,80.968,2.63,43.53,-4.04,307561270,2172,10000,11111100,11,0,100,0.0,0,20,20,100798,22.89,3
7196,18.211,4.662,10.595,-0.01681,-12.03012,4.897469999999999,0.055284,0.051674,0.828845,7840.0,8280.0,2140.0,47.0,10.1,00000000 00000000,32.826369506999995,34.956719314000004,23.267,-0.74,1.14,0.0,-0.16,-0.27,4.37,-0.01,0.11,-0.55,32.825872385,34.956360787,80.968,2.63,43.53,-4.04,307561295,2172,10000,11111100,11,0,100,0.0,0,45,45,100800,22.8,0
7197,18.163,4.621,10.779000000000002,-2.18001,-2.09401,-0.69991,0.080355,0.09644,0.8550989999999999,7880.0,8290.0,2080.0,47.0,10.1,00000000 00000000,32.826371337,34.956718901,23.266,-0.76,1.16,-0.03,-0.16,-0.28,4.34,0.02,0.11,-0.57,32.825894165,34.956461213000004,67.7,2.11,47.29,-3.26,307561320,2172,10000,11111100,10,0,100,0.0,0,20,20,100798,22.89,3
7198,18.262999999999998,4.571000000000001,10.713,-2.9544799999999998,6.5163400000000005,-6.61402,0.12088399999999999,0.124199,0.893754,7880.0,8290.0,2030.0,47.0,10.08,00000000 00000000,32.826371601,34.956718694,23.265,-0.77,1.17,-0.06,-0.16,-0.29,4.31,0.05,0.12,-0.58,32.825894165,34.956461213000004,67.7,2.11,47.29,-3.26,307561345,2172,10000,11111100,10,0,100,0.0,0,45,45,100798,22.97,0
7199,18.521,4.548,10.475999999999999,-2.70396,9.17667,-13.02765,0.146307,0.100337,0.9155790000000001,7830.0,8280.0,2020.0,47.0,10.12,00000000 00000000,32.826371875999996,34.956718325,23.263,-0.78,1.19,-0.08,-0.15,-0.29,4.28,0.07,0.13,-0.59,32.826047878000004,34.956545949,54.487,9.5,46.25,-11.18,307561370,2172,110000,11111100,8,0,100,0.0,0,20,20,100798,22.97,3
7200,18.892,4.544,10.28,-3.3547,3.79075,-15.025520000000002,0.15196700000000002,0.054061,0.9571930000000001,7790.0,8250.0,2040.0,47.0,10.07,00000000 00000000,32.826372144000004,34.956718115,23.261,-0.78,1.19,-0.09,-0.15,-0.3,4.25,0.08,0.13,-0.59,32.826047878000004,34.956545949,54.487,9.5,46.25,-11.18,307561395,2172,110000,11111100,8,0,100,0.0,0,45,45,100798,22.97,0
7201,19.265,4.493,10.192,-6.17555,2.31157,-13.69599,0.172016,0.059225,1.027649,7730.0,8230.0,2090.0,47.0,10.07,00000000 00000000,32.826373146,34.956718119,23.25,-0.78,1.19,-0.09,-0.15,-0.31,4.22,0.08,0.13,-0.6,32.826591568000005,34.956960598,1.737,18.45,32.82,-16.39,307561420,2172,110000,11111100,8,0,100,0.0,0,20,20,100798,22.97,3
7202,19.645,4.387,10.061,-7.1013399999999995,6.31099,-15.799710000000001,0.19828099999999999,0.097763,1.092619,7690.0,8200.0,2110.0,47.0,10.1,00000000 00000000,32.826373413,34.956717908,23.248,-0.78,1.18,-0.07,-0.15,-0.32,4.18,0.06,0.12,-0.6,32.826591568000005,34.956960598,1.737,18.45,32.82,-16.39,307561445,2172,110000,11111100,8,0,100,0.0,0,45,45,100796,23.05,0
7203,20.128,4.316,-9.824,-4.85445,9.205910000000001,-20.37894,0.191957,0.056282000000000006,1.130097,7660.0,8150.0,2100.0,47.0,10.12,00000000 00000000,32.826373656,34.956717706,23.245,-0.78,1.18,-0.03,-0.15,-0.33,4.15,0.03,0.12,-0.59,32.825928558,34.956408257,72.576,0.76,353.61,-2.03,307561470,2172,110000,11111100,9,0,100,0.0,0,20,20,100798,22.97,3
7204,20.636999999999997,4.306,-9.523,-2.95181,12.42682,-17.95994,0.11933800000000001,-0.032389,1.139785,7620.0,8100.0,2120.0,47.0,10.07,00000000 00000000,32.826373921999995,34.956717495,23.245,-0.79,1.17,0.0,-0.15,-0.34,4.12,0.0,0.11,-0.6,32.825928558,34.956408257,72.576,0.76,353.61,-2.03,307561495,2172,110000,11111100,9,0,100,0.0,0,45,45,100798,22.89,0
7205,21.014,4.291,-9.101,-3.13267,19.83072,-12.09055,0.034037,-0.064063,1.103162,7560.0,8050.0,2180.0,47.0,10.1,00000000 00000000,32.826374230999996,34.956717313,23.245,-0.83,1.15,0.02,-0.15,-0.35,4.09,-0.03,0.07,-0.62,32.825932611,34.956412608,72.064,2.96,43.53,-4.77,307561520,2172,110000,11111100,9,0,100,0.0,0,20,20,100798,22.89,3
7206,21.318,4.243,-8.519,-4.8411800000000005,23.4922,-12.25153,0.07321,0.0016489999999999999,1.0722209999999999,7500.0,8010.0,2220.0,47.0,10.08,00000000 00000000,32.826374488,34.956717085,23.246,-0.87,1.13,0.04,-0.15,-0.36,4.06,-0.05,0.04,-0.65,32.825932611,34.956412608,72.064,2.96,43.53,-4.77,307561545,2172,110000,11111100,9,0,100,0.0,0,45,45,100798,22.89,0
7207,21.673000000000002,4.112,-7.934,-9.784089999999999,20.232960000000002,-13.801029999999999,0.23677399999999998,0.058064,1.086435,7410.0,7980.0,2300.0,47.0,10.12,00000000 00000000,32.826374795999996,34.95671689,23.248,-0.87,1.12,0.06,-0.15,-0.37,4.03,-0.07,0.03,-0.65,32.825849401,34.956365767,80.949,3.11,44.1,-4.46,307561570,2172,110000,11111100,8,0,100,0.0,0,20,20,100798,22.89,3
7208,22.073,3.864,-7.466,-13.58905,15.43679,-15.344879999999998,0.330359,0.065573,1.078185,7320.0,7940.0,2400.0,47.0,10.08,00000000 00000000,32.826375048,34.956716661,23.25,-0.83,1.11,0.09,-0.15,-0.38,4.0,-0.1,0.03,-0.62,32.825849401,34.956365767,80.949,3.11,44.1,-4.46,307561595,2172,110000,11111100,8,0,100,0.0,0,45,45,100798,22.97,0
7209,22.583000000000002,3.5789999999999997,-7.077000000000001,-13.57027,11.420960000000001,-21.61496,0.33912600000000004,0.08551,1.031207,7230.0,7930.0,2510.0,47.0,10.12,00000000 00000000,32.82637537,34.956716443000005,23.253,-0.78,1.09,0.12,-0.15,-0.39,3.97,-0.12,0.03,-0.57,32.825871828000004,34.956383447,77.056,3.78,49.88,-4.76,307561620,2172,110000,1111100,7,0,100,0.0,0,20,20,100798,22.89,3
7210,23.186999999999998,3.339,-6.925,-11.18177,-2.8380799999999997,-23.354110000000002,0.274686,0.139318,0.984663,7160.0,7920.0,2590.0,47.0,10.1,00000000 00000000,32.826375614,34.956716239,23.256,-0.74,1.08,0.13,-0.15,-0.4,3.93,-0.13,0.04,-0.52,32.825871828000004,34.956383447,77.056,3.78,49.88,-4.76,307561645,2172,110000,1111100,7,0,100,0.0,0,45,45,100798,22.89,0
7211,23.799,3.167,-7.176,-8.50596,-19.834629999999997,-22.75684,0.22732199999999997,0.155109,0.9790909999999999,7100.0,7900.0,2620.0,46.9,10.11,00000000 00000000,32.826375725,34.95671607,23.259,-0.69,1.09,0.13,-0.15,-0.41,3.9,-0.13,0.06,-0.48,32.82592901,34.956405538,71.584,1.67,138.79,-0.26,307561670,2172,110000,11111100,9,0,100,0.0,0,20,20,100798,22.97,3
7212,24.340999999999998,3.05,-7.796,-6.56952,-30.48585,-17.78875,0.18291500000000002,0.102905,0.981931,7080.0,7870.0,2620.0,46.9,10.1,00000000 00000000,32.826375972,34.956715887,23.263,-0.67,1.1,0.13,-0.15,-0.42,3.87,-0.13,0.08,-0.46,32.82592901,34.956405538,71.584,1.67,138.79,-0.26,307561695,2172,110000,11111100,9,0,100,0.0,0,45,45,100798,22.89,0
7213,24.689,2.951,-8.58,-5.2449699999999995,-32.168040000000005,-8.55795,0.142402,0.075942,0.9465030000000001,7100.0,7830.0,2610.0,46.9,10.12,00000000 00000000,32.826376236,34.956715480999996,23.266,-0.66,1.1,0.13,-0.15,-0.43,3.84,-0.13,0.09,-0.45,32.825976378,34.956499676,58.571,4.16,216.51,4.22,307561720,2172,110000,11111100,8,0,100,0.0,0,20,20,100800,22.8,3
7214,24.836,2.862,-9.335,-3.5404400000000003,-28.75825,-3.1454,0.102924,0.061645000000000005,0.8935350000000001,7130.0,7830.0,2580.0,46.9,10.09,00000000 00000000,32.826376486,34.956715303,23.269,-0.66,1.11,0.11,-0.15,-0.43,3.81,-0.12,0.09,-0.46,32.825976378,34.956499676,58.571,4.16,216.51,4.22,307561745,2172,110000,11111100,8,0,100,0.0,0,45,45,100798,22.89,0
7215,24.899,2.8080000000000003,10.033999999999999,-1.81782,-27.835829999999998,-1.12396,0.05946,0.031069,0.8416809999999999,7150.0,7860.0,2570.0,46.9,10.12,00000000 00000000,32.826376574,34.956715129,23.273,-0.67,1.12,0.08,-0.15,-0.44,3.78,-0.09,0.1,-0.47,32.825936176,34.956411738,70.731,1.84,189.59,0.92,307561770,2172,110000,11111100,9,0,100,0.0,0,20,20,100798,22.89,3
