,Heading,Pitch,Roll,Gyro_X,Gyro_Y,Gyro_Z,Acc_X,Acc_Y,Acc_Z,Magn_X,Magn_Y,Magn_Z,Temperature,Vdd,USW (L/H),Latitude,Longitude,Altitude,V_East,V_North,V_Up,Heave,Surge,Sway,V_Heave,V_Surge,V_Sway,Lat_GNSS,Long_GNSS,Height_GNSS,Hor_spd,Trk_gnd,Ver_spd,ms_gps,GPS_Week,GNSS_info_1,GNSS_info_2,#solnSVs,V_latency,anglesPosType,Heading_GNSS,Latency_ms_head,Latency_ms_pos,Latency_ms_vel,P_Bar,H_Bar,New_GPS
1164,277.007,2.8369999999999997,-4.441,-0.05715,-1.4499799999999998,-1.60238,0.06784,0.043987,0.9929540000000001,6460.0,16670.0,3120.0,47.7,10.13,00000000 00000000,32.825782425,34.956317544,22.435,0.0,-0.02,-0.06,-0.02,-3.81,-1.91,-0.01,-0.12,-0.54,32.825782554,34.956317515,22.416,0.02,298.32,0.02,307316520,2172,1000,11111100,30,25,100,0.0,0,20,20,100828,20.38,3
1165,277.028,2.83,-4.4639999999999995,-0.8423299999999999,-0.8477299999999999,0.11094000000000001,0.077446,0.042713,0.991344,6480.0,16650.0,3090.0,47.7,10.12,00000000 00000000,32.82578242,34.956317546,22.433,0.0,-0.02,-0.06,-0.02,-3.82,-1.91,-0.01,-0.12,-0.54,32.825782554,34.956317515,22.416,0.02,298.32,0.02,307316545,2172,1000,11111100,30,25,100,0.0,0,45,45,100828,20.38,0
1166,277.004,2.795,-4.497,-1.7567599999999999,-2.17918,1.67619,0.078856,0.043916000000000004,0.995793,6470.0,16660.0,3100.0,47.7,10.13,00000000 00000000,32.825782425,34.956317544,22.431,0.0,-0.02,-0.06,-0.02,-3.82,-1.91,-0.01,-0.12,-0.54,32.82578255,34.956317514,22.41,0.01,278.07,-0.04,307316570,2172,1000,11111100,30,25,100,0.0,0,20,20,100828,20.38,3
1167,276.972,2.734,-4.585,-2.94385,-4.80954,0.9343299999999999,0.07255299999999999,0.043299000000000004,0.996469,6480.0,16660.0,3080.0,47.7,10.08,00000000 00000000,32.82578242,34.956317546,22.43,0.0,-0.02,-0.06,-0.02,-3.83,-1.9,-0.01,-0.12,-0.54,32.82578255,34.956317514,22.41,0.01,278.07,-0.04,307316595,2172,1000,11111100,30,25,100,0.0,0,45,45,100828,20.38,0
1168,276.97900000000004,2.6460000000000004,-4.736000000000001,-4.02459,-7.16565,-0.91512,0.06523999999999999,0.03718,1.006167,6490.0,16670.0,3060.0,47.7,10.13,00000000 00000000,32.825782424,34.956317547,22.428,0.0,-0.02,-0.06,-0.02,-3.84,-1.9,-0.01,-0.12,-0.54,32.825782546999996,34.956317518,22.41,0.0,132.11,0.0,307316620,2172,1000,11111100,30,25,100,0.0,0,20,20,100826,20.55,3
1169,277.03,2.542,-4.9239999999999995,-4.36193,-7.694939999999999,-2.36225,0.067838,0.028539,1.022303,6520.0,16680.0,3030.0,47.7,10.1,00000000 00000000,32.825782419,34.95631755,22.426,0.01,-0.02,-0.05,-0.02,-3.84,-1.9,-0.01,-0.13,-0.54,32.825782546999996,34.956317518,22.41,0.0,132.11,0.0,307316645,2172,1000,11111100,30,25,100,0.0,0,45,45,100826,20.55,0
1170,277.106,2.4419999999999997,-5.0969999999999995,-4.1732,-6.03964,-2.94906,0.06994199999999999,0.02865,1.028345,6540.0,16690.0,3010.0,47.7,10.13,00000000 00000000,32.825782423,34.956317553000005,22.424,0.01,-0.02,-0.04,-0.02,-3.85,-1.89,-0.02,-0.13,-0.54,32.825782548,34.956317535,22.404,0.02,61.75,-0.04,307316670,2172,1000,11111100,30,25,100,0.0,0,20,20,100826,20.55,3
1171,277.20099999999996,2.3480000000000003,-5.2,-4.2475,-2.41393,-3.8666199999999997,0.07525499999999999,0.028239999999999998,1.026142,6560.0,16700.0,2990.0,47.7,10.09,00000000 00000000,32.825782417,34.956317557,22.423,0.01,-0.03,-0.04,-0.02,-3.86,-1.89,-0.03,-0.13,-0.55,32.825782548,34.956317535,22.404,0.02,61.75,-0.04,307316695,2172,1000,11111100,30,25,100,0.0,0,45,45,100826,20.55,0
1172,277.306,2.247,-5.215,-4.46479,0.30653,-3.51701,0.080108,0.029979000000000002,1.011663,6580.0,16700.0,2970.0,47.7,10.12,00000000 00000000,32.825782421,34.956317553000005,22.421,0.01,-0.03,-0.03,-0.02,-3.86,-1.89,-0.03,-0.13,-0.55,32.825782554,34.956317507,22.405,0.05,284.07,0.01,307316720,2172,1000,11111100,30,25,100,0.0,0,20,20,100828,20.46,3
1173,277.393,2.135,-5.182,-5.2335400000000005,2.1019099999999997,-2.5598799999999997,0.079088,0.035726999999999995,0.9967290000000001,6590.0,16710.0,2960.0,47.7,10.09,00000000 00000000,32.825782414,34.956317558,22.421,0.01,-0.03,-0.03,-0.02,-3.87,-1.88,-0.04,-0.14,-0.55,32.825782554,34.956317507,22.405,0.05,284.07,0.01,307316745,2172,1000,11111100,30,25,100,0.0,0,45,45,100828,20.46,0
1174,277.46,1.9980000000000002,-5.104,-5.94508,3.63455,-1.7677,0.080242,0.038474,0.989115,6580.0,16720.0,2960.0,47.7,10.1,00000000 00000000,32.82578242,34.95631756,22.419,0.01,-0.03,-0.03,-0.02,-3.88,-1.88,-0.04,-0.13,-0.55,32.825782563000004,34.956317523,22.402,0.03,30.05,0.0,307316770,2172,1000,11111100,29,25,100,0.0,0,20,20,100828,20.46,3
1175,277.518,1.8519999999999999,-5.001,-5.99302,4.38298,-2.07311,0.080926,0.045097000000000005,0.984899,6580.0,16730.0,2950.0,47.7,10.08,00000000 00000000,32.825782413,34.956317565,22.418,0.01,-0.03,-0.03,-0.02,-3.89,-1.88,-0.03,-0.13,-0.55,32.825782563000004,34.956317523,22.402,0.03,30.05,0.0,307316795,2172,1000,11111100,29,25,100,0.0,0,45,45,100830,20.29,0
1176,277.593,1.71,-4.891,-5.66576,3.76904,-2.8261,0.085499,0.048085,0.9787469999999999,6580.0,16740.0,2940.0,47.7,10.15,00000000 00000000,32.825782415999996,34.95631756,22.417,0.01,-0.02,-0.03,-0.02,-3.89,-1.87,-0.03,-0.13,-0.55,32.82578256,34.956317501,22.407,0.04,259.7,0.09,307316820,2172,1000,11111100,29,25,100,0.0,0,20,20,100830,20.29,3
1177,277.673,1.5830000000000002,-4.8180000000000005,-4.95715,1.89585,-2.50549,0.084985,0.037045,0.9802489999999999,6580.0,16740.0,2920.0,47.7,10.1,00000000 00000000,32.82578241,34.956317563,22.416,0.0,-0.02,-0.04,-0.02,-3.9,-1.87,-0.03,-0.12,-0.55,32.82578256,34.956317501,22.407,0.04,259.7,0.09,307316845,2172,1000,11111100,29,25,100,0.0,0,45,45,100830,20.29,0
1178,277.732,1.4769999999999999,-4.785,-3.69951,0.567,-1.52565,0.076706,0.03505,0.9762850000000001,6580.0,16750.0,2920.0,47.7,10.15,00000000 00000000,32.825782417,34.956317561,22.415,0.0,-0.02,-0.04,-0.03,-3.91,-1.87,-0.02,-0.12,-0.55,32.825782567,34.95631751,22.403,0.02,14.02,0.0,307316870,2172,1000,11111100,29,25,100,0.0,0,20,20,100828,20.38,3
1179,277.779,1.406,-4.788,-2.25906,-1.07118,-1.98079,0.076833,0.040297,0.971741,6580.0,16760.0,2900.0,47.7,10.08,00000000 00000000,32.825782411999995,34.956317561,22.414,0.0,-0.02,-0.05,-0.03,-3.91,-1.86,-0.02,-0.12,-0.55,32.825782567,34.95631751,22.403,0.02,14.02,0.0,307316895,2172,1000,11111100,29,25,100,0.0,0,45,45,100830,20.29,0
1180,277.835,1.369,-4.836,-1.11205,-2.80193,-1.6877400000000002,0.083441,0.028607,0.981562,6580.0,16760.0,2910.0,47.7,10.12,00000000 00000000,32.825782419,34.95631756,22.412,0.0,-0.02,-0.05,-0.03,-3.92,-1.86,-0.01,-0.11,-0.54,32.825782572,34.956317522,22.403,0.02,60.82,-0.01,307316920,2172,1000,11111100,29,25,100,0.0,0,20,20,100828,20.38,3
1181,277.851,1.355,-4.913,-0.0372,-3.16103,0.3882,0.07484099999999999,0.01936,0.9961559999999999,6600.0,16760.0,2890.0,47.7,10.1,00000000 00000000,32.825782415,34.95631756,22.411,0.0,-0.01,-0.05,-0.03,-3.93,-1.86,-0.01,-0.11,-0.54,32.825782572,34.956317522,22.403,0.02,60.82,-0.01,307316945,2172,1000,11111100,29,25,100,0.0,0,45,45,100828,20.46,0
1182,277.841,1.369,-4.979,1.21421,-2.48008,0.0655,0.069803,0.019968,0.998446,6590.0,16770.0,2900.0,47.7,10.12,00000000 00000000,32.825782425,34.956317558,22.409,0.0,-0.02,-0.05,-0.03,-3.93,-1.85,-0.01,-0.11,-0.55,32.825782586,34.956317533,22.4,0.04,13.93,0.0,307316970,2172,1000,11111100,29,25,100,0.0,0,20,20,100828,20.38,3
1183,277.846,1.405,-5.0489999999999995,1.38937,-3.56152,-0.27764,0.078454,0.018001,0.9914209999999999,6600.0,16770.0,2900.0,47.7,10.1,00000000 00000000,32.82578242,34.956317557,22.408,0.0,-0.02,-0.05,-0.03,-3.94,-1.85,-0.01,-0.12,-0.55,32.825782586,34.956317533,22.4,0.04,13.93,0.0,307316995,2172,1000,11111100,29,25,100,0.0,0,45,45,100828,20.46,8
1184,277.824,1.425,-5.166,0.39403,-5.56936,2.3672,0.077734,0.009207,1.000861,6590.0,16790.0,2930.0,47.7,10.09,00000000 00000000,32.825782425999996,34.956317556,22.406,0.0,-0.02,-0.05,-0.03,-3.95,-1.85,-0.01,-0.12,-0.55,32.825782586,34.956317538,22.398,0.0,87.82,-0.04,307317020,2172,1000,11111100,29,25,100,0.0,0,20,20,100828,20.38,3
1185,277.735,1.4180000000000001,-5.3,-0.23714000000000002,-4.7133400000000005,4.23146,0.060182000000000006,0.006579000000000001,1.011425,6610.0,16780.0,2900.0,47.7,10.1,00000000 00000000,32.825782421,34.956317557,22.404,0.0,-0.02,-0.05,-0.03,-3.95,-1.85,-0.01,-0.12,-0.55,32.825782586,34.956317538,22.398,0.0,87.82,-0.04,307317045,2172,1000,11111100,29,25,100,0.0,0,45,45,100830,20.29,0
1186,277.642,1.393,-5.405,-1.05308,-3.68603,2.9776,0.046607,0.020801,1.0029620000000001,6620.0,16780.0,2880.0,47.7,10.1,00000000 00000000,32.825782431,34.956317555,22.403,0.0,-0.03,-0.05,-0.03,-3.96,-1.84,-0.02,-0.12,-0.56,32.8257826,34.956317535,22.394,0.04,338.77,0.0,307317070,2172,1000,11111100,29,25,100,0.0,0,20,20,100830,20.29,3
1187,277.59,1.348,-5.497999999999999,-2.20693,-4.08568,2.1692,0.042365,0.010107,1.00004,6630.0,16790.0,2850.0,47.7,10.11,00000000 00000000,32.825782421999996,34.956317555,22.402,0.0,-0.04,-0.05,-0.03,-3.97,-1.84,-0.02,-0.12,-0.57,32.8257826,34.956317535,22.394,0.04,338.77,0.0,307317095,2172,1000,11111100,29,25,100,0.0,0,45,45,100828,20.38,0
1188,277.507,1.275,-5.624,-2.8376200000000003,-6.25117,5.5452699999999995,0.030622000000000003,-0.00635,1.015001,6630.0,16810.0,2850.0,47.7,10.12,00000000 00000000,32.825782425999996,34.956317554,22.4,0.0,-0.05,-0.05,-0.03,-3.97,-1.84,-0.02,-0.13,-0.58,32.825782605,34.95631753,22.394,0.01,321.08,0.0,307317120,2172,1000,11111100,29,25,100,0.0,0,20,20,100828,20.46,3
1189,277.35200000000003,1.176,-5.797999999999999,-4.0015,-6.629060000000001,6.959219999999999,0.015444999999999999,0.007137,1.026774,6630.0,16820.0,2820.0,47.7,10.1,00000000 00000000,32.825782411999995,34.956317556,22.399,0.0,-0.07,-0.04,-0.03,-3.98,-1.83,-0.02,-0.14,-0.6,32.825782605,34.95631753,22.394,0.01,321.08,0.0,307317145,2172,1000,11111100,29,25,100,0.0,0,45,45,100828,20.38,0
1190,277.21299999999997,1.047,-5.9110000000000005,-4.7439599999999995,-1.99815,5.51054,0.011945,0.023402000000000003,1.0396889999999999,6630.0,16850.0,2810.0,47.7,10.13,00000000 00000000,32.825782414,34.956317552,22.398,0.0,-0.09,-0.03,-0.03,-3.99,-1.83,-0.03,-0.14,-0.62,32.825782614,34.956317516,22.392,0.04,306.29,0.0,307317170,2172,1000,11111100,29,25,100,0.0,0,20,20,100830,20.29,3
1191,277.094,0.9159999999999999,-5.902,-4.9259900000000005,2.27337,5.18976,0.011273,0.007501000000000001,1.048311,6630.0,16870.0,2780.0,47.7,10.08,00000000 00000000,32.82578239,34.956317553000005,22.397,0.0,-0.11,-0.02,-0.03,-3.99,-1.83,-0.04,-0.14,-0.64,32.825782614,34.956317516,22.392,0.04,306.29,0.0,307317195,2172,1000,11111100,29,25,100,0.0,0,45,45,100830,20.29,0
1192,276.982,0.7609999999999999,-5.841,-6.33182,1.46355,5.94336,0.011106999999999999,0.001656,1.054519,6610.0,16900.0,2770.0,47.7,10.12,00000000 00000000,32.825782393000004,34.956317547,22.396,0.0,-0.13,-0.01,-0.03,-4.0,-1.82,-0.05,-0.14,-0.66,32.82578264,34.956317495,22.394,0.07,326.57,0.02,307317220,2172,1000,11111100,29,25,100,0.0,0,20,20,100830,20.29,3
1193,276.827,0.573,-5.834,-7.13433,-0.33908,8.25146,0.021188,0.007398999999999999,1.0588899999999999,6590.0,16920.0,2740.0,47.7,10.11,00000000 00000000,32.82578236,34.956317547,22.396,0.0,-0.15,0.0,-0.03,-4.01,-1.82,-0.06,-0.14,-0.68,32.82578264,34.956317495,22.394,0.07,326.57,0.02,307317245,2172,1000,11111100,29,25,100,0.0,0,45,45,100830,20.29,0
1194,276.61,0.366,-5.84,-7.25811,0.31185999999999997,12.18426,0.020041999999999997,-0.0021260000000000003,1.0569389999999999,6570.0,16960.0,2720.0,47.7,10.12,00000000 00000000,32.825782342,34.956317537,22.396,0.0,-0.17,0.01,-0.03,-4.01,-1.82,-0.08,-0.14,-0.7,32.825782675999996,34.956317465,22.391,0.1,322.89,0.0,307317270,2172,1000,11111100,29,25,100,0.0,0,20,20,100828,20.46,3
1195,276.315,0.157,-5.772,-6.8733699999999995,6.25397,11.44281,0.012695,0.016994,1.048643,6530.0,17000.0,2700.0,47.7,10.08,00000000 00000000,32.825782301,34.956317536,22.396,0.0,-0.19,0.02,-0.03,-4.02,-1.81,-0.09,-0.14,-0.72,32.825782675999996,34.956317465,22.391,0.1,322.89,0.0,307317295,2172,1000,11111100,29,25,100,0.0,0,45,45,100826,20.55,0
1196,276.17,0.023,-5.5,-5.86406,14.759839999999999,3.6962099999999998,0.034338,0.044001,1.026071,6480.0,17040.0,2700.0,47.7,10.13,00000000 00000000,32.825782281,34.956317516999995,22.397,-0.01,-0.21,0.03,-0.03,-4.03,-1.81,-0.1,-0.13,-0.74,32.825782726,34.9563174,22.397,0.16,311.94,0.11,307317320,2172,1000,11111100,29,25,100,0.0,0,20,20,100828,20.38,3
1197,276.159,0.155,-5.105,-4.45129,15.2595,-0.50305,0.065261,0.028801,0.9908950000000001,6440.0,17070.0,2700.0,47.7,10.09,00000000 00000000,32.825782233000005,34.956317511,22.398,-0.02,-0.21,0.03,-0.03,-4.03,-1.81,-0.1,-0.12,-0.75,32.825782726,34.9563174,22.397,0.16,311.94,0.11,307317345,2172,1000,11111100,29,25,100,0.0,0,45,45,100828,20.46,0
1198,276.224,0.253,-4.783,-3.48136,9.91381,-1.74548,0.058071000000000005,0.041777,0.9606040000000001,6380.0,17090.0,2730.0,47.7,10.13,00000000 00000000,32.825782218,34.956317484,22.399,-0.03,-0.21,0.02,-0.03,-4.04,-1.81,-0.1,-0.11,-0.75,32.825782795,34.956317336,22.401,0.2,321.5,0.13,307317370,2172,1000,11111100,29,25,100,0.0,0,20,20,100828,20.46,3
1199,276.344,0.324,-4.584,-2.91419,6.520980000000001,-8.06071,0.05414,0.05889,0.945723,6360.0,17080.0,2720.0,47.7,10.09,00000000 00000000,32.825782169,34.956317471999995,22.4,-0.05,-0.21,0.01,-0.03,-4.05,-1.8,-0.09,-0.1,-0.76,32.825782795,34.956317336,22.401,0.2,321.5,0.13,307317395,2172,1000,11111100,29,25,100,0.0,0,45,45,100828,20.46,0
1200,276.661,0.374,-4.467,-2.8387599999999997,1.95005,-13.78165,0.050638,0.038808999999999996,0.9161879999999999,6340.0,17090.0,2750.0,47.7,10.13,00000000 00000000,32.825782163,34.956317436999996,22.401,-0.06,-0.21,0.0,-0.03,-4.05,-1.8,-0.07,-0.08,-0.76,32.825782871,34.95631726,22.41,0.22,319.69,0.17,307317420,2172,1000,11111100,29,25,100,0.0,0,20,20,100828,20.46,3
1201,277.035,0.43,-4.519,-4.1222,-6.38246,-14.844870000000002,0.023888999999999997,0.013752,0.908276,6370.0,17060.0,2730.0,47.7,10.1,00000000 00000000,32.825782113,34.956317417,22.401,-0.07,-0.22,-0.01,-0.03,-4.06,-1.8,-0.05,-0.08,-0.76,32.825782871,34.95631726,22.41,0.22,319.69,0.17,307317445,2172,1000,11111100,29,25,100,0.0,0,45,45,100826,20.63,0
1202,277.452,0.525,-4.779,-5.26711,-14.17552,-14.83518,0.005979,0.015869,0.9265680000000001,6410.0,17050.0,2710.0,47.7,10.13,00000000 00000000,32.825782115,34.956317373000005,22.401,-0.08,-0.23,-0.03,-0.03,-4.06,-1.79,-0.03,-0.07,-0.78,32.825782987,34.956317172,22.414,0.31,326.78,0.14,307317470,2172,1000,11111100,29,25,100,0.0,0,20,20,100826,20.63,3
1203,277.851,0.615,-5.192,-4.64217,-18.05171,-16.128870000000003,0.002089,0.021806,0.928176,6470.0,17030.0,2670.0,47.7,10.1,00000000 00000000,32.825782061,34.956317349,22.4,-0.09,-0.24,-0.05,-0.03,-4.07,-1.79,-0.01,-0.06,-0.79,32.825782987,34.956317172,22.414,0.31,326.78,0.14,307317495,2172,1000,11111100,29,25,100,0.0,0,45,45,100828,20.46,0
1204,278.311,0.695,-5.65,-4.70335,-17.76136,-15.5943,-0.017705000000000002,0.023044,0.922775,6530.0,17020.0,2660.0,47.7,10.13,00000000 00000000,32.825782068,34.956317298,22.399,-0.11,-0.26,-0.07,-0.03,-4.08,-1.79,0.0,-0.06,-0.81,32.825783128000005,34.956317073,22.421,0.36,329.3,0.13,307317520,2172,1000,11111100,29,25,100,0.0,0,20,20,100828,20.46,3
1205,278.693,0.794,-6.061,-6.59461,-14.91528,-13.789229999999998,-0.038727,0.015577,0.9208850000000001,6630.0,16990.0,2580.0,47.7,10.1,00000000 00000000,32.825782006,34.956317266999996,22.397,-0.12,-0.28,-0.09,-0.03,-4.08,-1.79,0.02,-0.05,-0.84,32.825783128000005,34.956317073,22.421,0.36,329.3,0.13,307317545,2172,1000,11111100,29,25,100,0.0,0,45,45,100828,20.46,0
1206,279.08,0.955,-6.414,-8.24509,-14.311929999999998,-9.853,-0.044654,0.012487,0.9259270000000001,6690.0,16990.0,2550.0,47.7,10.12,00000000 00000000,32.825782016,34.956317208,22.395,-0.13,-0.31,-0.11,-0.03,-4.09,-1.78,0.04,-0.04,-0.87,32.825783275999996,34.956316965,22.418,0.39,327.84,0.0,307317570,2172,1000,11111100,29,25,100,0.0,0,20,20,100828,20.46,3
1207,279.268,1.1340000000000001,-6.808,-7.57303,-17.018620000000002,-3.09492,-0.055607000000000004,0.007111,0.934866,6760.0,16980.0,2480.0,47.7,10.09,00000000 00000000,32.825781941,34.95631717,22.392,-0.15,-0.35,-0.13,-0.04,-4.1,-1.78,0.06,-0.03,-0.91,32.825783275999996,34.956316965,22.418,0.39,327.84,0.0,307317595,2172,1000,11111100,29,25,100,0.0,0,45,45,100828,20.38,0
1208,279.361,1.301,-7.231,-5.11145,-16.87509,4.68119,-0.088889,0.013019999999999999,0.9549059999999999,6800.0,17000.0,2430.0,47.7,10.15,00000000 00000000,32.825781950999996,34.9563171,22.389,-0.16,-0.38,-0.15,-0.04,-4.1,-1.78,0.08,-0.03,-0.95,32.825783448,34.956316832,22.411,0.45,326.77,-0.14,307317620,2172,1000,11111100,29,25,100,0.0,0,20,20,100828,20.38,3
1209,279.182,1.4140000000000001,-7.5889999999999995,-1.71298,-11.89284,10.63428,-0.109819,0.006166,0.9861059999999999,6840.0,17010.0,2370.0,47.7,10.09,00000000 00000000,32.825781858,34.956317053,22.385,-0.18,-0.43,-0.16,-0.04,-4.11,-1.78,0.09,-0.02,-1.0,32.825783448,34.956316832,22.411,0.45,326.77,-0.14,307317645,2172,1000,11111100,29,25,100,0.0,0,45,45,100828,20.46,0
1210,278.916,1.4280000000000002,-7.813,5.2291300000000005,-8.0579,16.04261,-0.11130699999999999,0.0022600000000000003,1.0158280000000002,6850.0,17040.0,2340.0,47.7,10.15,00000000 00000000,32.825781865,34.95631698,22.382,-0.2,-0.48,-0.17,-0.04,-4.12,-1.77,0.1,-0.01,-1.06,32.825783642,34.95631672,22.4,0.48,333.54,-0.19,307317670,2172,1000,11111100,29,25,100,0.0,0,20,20,100830,20.29,3
1211,278.475,1.2429999999999999,-7.9639999999999995,14.00901,-4.0281,15.539710000000001,-0.09387000000000001,0.011306,1.06981,6830.0,17070.0,2330.0,47.7,10.09,00000000 00000000,32.825781749,34.956316924,22.377,-0.22,-0.54,-0.16,-0.04,-4.12,-1.77,0.09,0.0,-1.11,32.825783642,34.95631672,22.4,0.48,333.54,-0.19,307317695,2172,1000,11111100,29,25,100,0.0,0,45,45,100828,20.38,0
1212,278.126,0.895,-7.968,17.11907,2.9123,14.21106,-0.004724,-0.0032450000000000005,1.129383,6810.0,17070.0,2350.0,47.7,10.13,00000000 00000000,32.825781628,34.95631684,22.374,-0.23,-0.58,-0.14,-0.04,-4.13,-1.77,0.07,0.0,-1.16,32.825783843,34.956316576999996,22.394,0.51,329.04,-0.11,307317720,2172,1000,11111100,29,25,100,0.0,0,20,20,100828,20.46,3
1213,277.694,0.522,-7.796,17.13575,10.4684,15.36307,0.035932,0.015291999999999998,1.134021,6770.0,17060.0,2380.0,47.7,10.11,00000000 00000000,32.825781492,34.956316776,22.371,-0.24,-0.61,-0.11,-0.04,-4.13,-1.77,0.04,0.0,-1.19,32.825783843,34.956316576999996,22.394,0.51,329.04,-0.11,307317745,2172,1000,11111100,29,25,100,0.0,0,45,45,100828,20.46,0
1214,277.46,0.133,-7.459,18.20443,15.78101,11.108260000000001,0.050918,0.044226999999999995,1.1053819999999999,6700.0,17050.0,2460.0,47.7,10.1,00000000 00000000,32.82578136,34.956316673,22.369,-0.26,-0.64,-0.08,-0.04,-4.14,-1.76,0.01,0.01,-1.21,32.825784041999995,34.956316377,22.387,0.58,319.5,-0.1,307317770,2172,1000,11111100,29,25,100,0.0,0,20,20,100828,20.46,3
1215,277.19599999999997,0.293,-7.016,18.08401,18.97329,6.43271,0.054567,0.051309,1.06843,6630.0,17020.0,2540.0,47.7,10.08,00000000 00000000,32.825781214,34.956316601,22.367,-0.27,-0.65,-0.06,-0.04,-4.15,-1.76,0.0,0.02,-1.23,32.825784041999995,34.956316377,22.387,0.58,319.5,-0.1,307317795,2172,1000,11111100,29,25,100,0.0,0,45,45,100828,20.46,0
1216,277.184,0.698,-6.531000000000001,15.88135,20.00065,6.7549399999999995,0.048839,0.032029,1.054748,6560.0,16990.0,2620.0,47.7,10.1,00000000 00000000,32.825781076999995,34.956316484,22.365,-0.29,-0.67,-0.05,-0.04,-4.15,-1.76,-0.01,0.03,-1.25,32.825784284,34.956316146999995,22.375,0.68,321.14,-0.23,307317820,2172,1000,11111100,29,25,100,0.0,0,20,20,100828,20.46,3
1217,276.949,1.01,-6.039,10.35021,19.10074,9.03895,0.06804199999999999,0.022345,1.067445,6500.0,16950.0,2690.0,47.7,10.08,00000000 00000000,32.825780924,34.956316405,22.364,-0.29,-0.68,-0.03,-0.04,-4.16,-1.76,-0.03,0.03,-1.26,32.825784284,34.956316146999995,22.375,0.68,321.14,-0.23,307317845,2172,1000,11111100,29,25,100,0.0,0,45,45,100828,20.46,0
1218,276.834,1.1740000000000002,-5.595,5.9022,16.78941,9.38594,0.11833199999999999,0.045729,1.105868,6430.0,16940.0,2770.0,47.7,10.15,00000000 00000000,32.825780785,34.956316291,22.364,-0.3,-0.68,-0.01,-0.04,-4.16,-1.76,-0.05,0.03,-1.26,32.825784556,34.956315951,22.378,0.71,328.55,0.1,307317870,2172,1000,11111100,29,25,100,0.0,0,20,20,100828,20.46,3
1219,276.55400000000003,1.286,-5.218,5.3559,13.50866,12.16592,0.14204,0.052178999999999996,1.10014,6360.0,16930.0,2820.0,47.7,10.09,00000000 00000000,32.825780632,34.956316209,22.364,-0.31,-0.67,0.01,-0.04,-4.17,-1.75,-0.08,0.04,-1.25,32.825784556,34.956315951,22.378,0.71,328.55,0.1,307317895,2172,1000,11111100,29,25,100,0.0,0,45,45,100828,20.46,0
1220,276.277,1.3840000000000001,-4.928999999999999,5.01645,10.419189999999999,14.040460000000001,0.134457,0.030636,1.075094,6290.0,16940.0,2870.0,47.7,10.12,00000000 00000000,32.825780498,34.9563161,22.366,-0.31,-0.65,0.03,-0.04,-4.18,-1.75,-0.1,0.04,-1.23,32.825784827,34.956315783,22.38,0.67,332.3,0.04,307317920,2172,1000,11111100,29,25,100,0.0,0,20,20,100828,20.46,3
1221,275.921,1.4909999999999999,-4.681,6.34165,10.589319999999999,13.01717,0.11034200000000001,0.024546000000000002,1.0459969999999998,6220.0,16950.0,2890.0,47.7,10.11,00000000 00000000,32.825780351,34.956316016,22.367,-0.31,-0.64,0.05,-0.04,-4.18,-1.75,-0.12,0.04,-1.22,32.825784827,34.956315783,22.38,0.67,332.3,0.04,307317945,2172,1000,11111100,29,25,100,0.0,0,45,45,100828,20.38,0
1222,275.653,1.652,-4.414,8.28674,10.959019999999999,9.65448,0.061975999999999996,0.009536,0.9952979999999999,6150.0,16970.0,2940.0,47.7,10.15,00000000 00000000,32.825780224,34.956315914,22.368,-0.31,-0.64,0.06,-0.04,-4.19,-1.75,-0.13,0.04,-1.21,32.825785076,34.95631564,22.372,0.62,333.68,-0.13,307317970,2172,1000,11111100,29,25,100,0.0,0,20,20,100830,20.29,3
1223,275.42400000000004,1.85,-4.19,8.64412,5.680619999999999,8.20706,0.050296,-0.015559,0.944174,6100.0,16960.0,2970.0,47.7,10.1,00000000 00000000,32.825780079,34.95631583,22.37,-0.3,-0.64,0.05,-0.04,-4.19,-1.75,-0.12,0.03,-1.21,32.825785076,34.95631564,22.372,0.62,333.68,-0.13,307317995,2172,1000,11111100,29,25,100,0.0,0,45,45,100830,20.29,8
1224,275.296,2.039,-4.211,8.24235,-7.29097,10.27229,0.063095,-0.023144,0.938768,6040.0,16970.0,3040.0,47.8,10.09,00000000 00000000,32.825779956,34.956315722,22.371,-0.29,-0.64,0.04,-0.04,-4.2,-1.75,-0.11,0.02,-1.21,32.825785334,34.956315451,22.378,0.67,328.41,0.12,307318020,2172,1000,11111100,28,25,100,0.0,0,20,20,100828,20.38,3
1225,275.014,2.2230000000000003,-4.524,8.133610000000001,-15.429520000000002,10.43498,0.080623,-0.007661,0.945264,6030.0,16960.0,3050.0,47.8,10.1,00000000 00000000,32.82577981,34.956315644,22.372,-0.28,-0.64,0.02,-0.04,-4.21,-1.75,-0.09,0.01,-1.21,32.825785334,34.956315451,22.378,0.67,328.41,0.12,307318045,2172,1000,11111100,28,25,100,0.0,0,45,45,100828,20.46,0
1226,274.874,2.397,-4.942,7.52226,-17.1023,9.17334,0.07572100000000001,0.002503,0.9307139999999999,6040.0,16940.0,3020.0,47.8,10.12,00000000 00000000,32.825779692,34.956315541,22.373,-0.27,-0.64,0.01,-0.04,-4.21,-1.75,-0.08,0.0,-1.21,32.825785648,34.956315278000005,22.378,0.77,334.64,0.02,307318070,2172,1000,11111100,28,25,100,0.0,0,20,20,100826,20.55,3
1227,274.627,2.5540000000000003,-5.3839999999999995,6.44955,-16.82854,9.53582,0.04095,-0.024613,0.9195180000000001,6070.0,16930.0,3000.0,47.8,10.11,00000000 00000000,32.825779546999996,34.956315466999996,22.373,-0.26,-0.64,0.0,-0.04,-4.22,-1.74,-0.06,-0.01,-1.21,32.825785648,34.956315278000005,22.378,0.77,334.64,0.02,307318095,2172,1000,11111100,28,25,100,0.0,0,45,45,100826,20.55,0
1228,274.47,2.668,-5.772,4.96734,-12.89649,9.46733,0.001809,-0.041899,0.91465,6080.0,16940.0,2990.0,47.8,10.1,00000000 00000000,32.825779431,34.956315369,22.373,-0.25,-0.66,-0.02,-0.04,-4.22,-1.74,-0.04,-0.02,-1.22,32.82578597,34.956315019,22.381,0.86,325.9,0.07,307318120,2172,1000,11111100,27,25,100,0.0,0,20,20,100826,20.55,3
1229,274.222,2.761,-6.027,4.40611,-6.9107899999999995,9.84126,-0.035243000000000003,-0.053952,0.8998219999999999,6090.0,16940.0,2980.0,47.8,10.09,00000000 00000000,32.825779279,34.956315304,22.372,-0.23,-0.69,-0.05,-0.04,-4.23,-1.74,-0.02,-0.05,-1.24,32.82578597,34.956315019,22.381,0.86,325.9,0.07,307318145,2172,1000,11111100,27,25,100,0.0,0,45,45,100826,20.55,0
1230,274.077,2.824,-6.156000000000001,2.79067,-3.06676,10.46865,-0.041413,-0.050622,0.898811,6080.0,16950.0,2970.0,47.8,10.09,00000000 00000000,32.825779155999996,34.956315206999996,22.371,-0.21,-0.72,-0.07,-0.04,-4.24,-1.74,0.0,-0.07,-1.27,32.825786208000004,34.956314753,22.387,0.73,316.51,0.14,307318170,2172,1000,11111100,29,25,100,0.0,0,20,20,100828,20.46,3
1231,273.822,2.832,-6.225,-0.25062,-1.36669,9.492280000000001,-0.020208,-0.038022,0.90694,6060.0,16970.0,2980.0,47.8,10.09,00000000 00000000,32.82577899,34.956315151999995,22.369,-0.19,-0.75,-0.1,-0.04,-4.24,-1.74,0.03,-0.09,-1.3,32.825786208000004,34.956314753,22.387,0.73,316.51,0.14,307318195,2172,1000,11111100,29,25,100,0.0,0,45,45,100828,20.46,0
1232,273.769,2.75,-6.218999999999999,-4.30794,2.6125,7.53148,0.0141,-0.029149,0.9128719999999999,6040.0,16990.0,2970.0,47.8,10.1,00000000 00000000,32.825778859,34.956315055,22.367,-0.18,-0.77,-0.12,-0.04,-4.25,-1.74,0.05,-0.11,-1.32,32.825786451999996,34.956314495,22.385,0.72,318.33,-0.03,307318220,2172,1000,11111100,29,25,100,0.0,0,20,20,100828,20.46,3
1233,273.61,2.574,-6.1129999999999995,-8.18812,6.05192,6.4064,0.021828,-0.029707,0.937125,6020.0,17000.0,2940.0,47.7,10.12,00000000 00000000,32.825778683,34.956315008000004,22.363,-0.16,-0.79,-0.14,-0.04,-4.25,-1.74,0.07,-0.13,-1.34,32.825786451999996,34.956314495,22.385,0.72,318.33,-0.03,307318245,2172,1000,11111100,29,25,100,0.0,0,45,45,100828,20.38,0
1234,273.70599999999996,2.331,-5.944,-9.335980000000001,7.3419,2.23562,0.016158000000000002,-0.017638,0.974736,5990.0,17030.0,2940.0,47.7,10.12,00000000 00000000,32.82577855,34.956314908,22.36,-0.15,-0.8,-0.15,-0.04,-4.26,-1.74,0.09,-0.14,-1.35,32.825786738000005,34.956314211999995,22.377,0.83,319.98,-0.11,307318270,2172,1000,11111100,29,25,100,0.0,0,20,20,100830,20.29,3
1235,273.755,2.1390000000000002,-5.732,-5.77342,9.55165,-4.59732,-0.009323999999999999,-0.004195,1.0211620000000001,5960.0,17060.0,2930.0,47.7,10.08,00000000 00000000,32.825778366,34.956314866,22.356,-0.14,-0.83,-0.16,-0.04,-4.26,-1.74,0.09,-0.16,-1.37,32.825786738000005,34.956314211999995,22.377,0.83,319.98,-0.11,307318295,2172,1000,11111100,29,25,100,0.0,0,45,45,100828,20.46,0
1236,274.19,2.081,-5.437,0.20765999999999998,13.35984,-11.033760000000001,-0.032374,-0.0058909999999999995,1.0820459999999998,5930.0,17060.0,2930.0,47.7,10.12,00000000 00000000,32.825778231,34.956314758000005,22.353,-0.14,-0.85,-0.15,-0.04,-4.27,-1.74,0.08,-0.17,-1.4,32.825787061,34.956313920999996,22.374,0.89,322.66,-0.05,307318320,2172,1000,11111100,29,25,100,0.0,0,20,20,100828,20.46,3
1237,274.503,2.208,-5.033,7.6955800000000005,17.90018,-13.78565,-0.006241,-0.005377000000000001,1.138923,5920.0,17040.0,2940.0,47.7,10.08,00000000 00000000,32.825778035,34.956314719,22.35,-0.13,-0.88,-0.12,-0.04,-4.28,-1.74,0.05,-0.18,-1.42,32.825787061,34.956313920999996,22.374,0.89,322.66,-0.05,307318345,2172,1000,11111100,29,25,100,0.0,0,45,45,100828,20.38,0
1238,275.045,2.504,-4.539,13.826279999999999,20.15991,-11.2401,0.036081,0.022539,1.140486,5890.0,17000.0,3000.0,47.7,10.11,00000000 00000000,32.825777843000004,34.956314598,22.348,-0.13,-0.9,-0.08,-0.04,-4.28,-1.74,0.02,-0.19,-1.44,32.825787372,34.956313562,22.372,0.97,315.67,0.0,307318370,2172,1000,11111100,29,25,100,0.0,0,20,20,100830,20.29,3
1239,275.237,2.91,-3.997,17.031010000000002,22.95787,-6.28179,0.055560000000000005,0.068001,1.163456,5870.0,16930.0,3060.0,47.7,10.09,00000000 00000000,32.825777639,34.956314561,22.346,-0.13,-0.91,-0.05,-0.05,-4.29,-1.75,-0.01,-0.19,-1.44,32.825787372,34.956313562,22.372,0.97,315.67,0.0,307318395,2172,1000,11111100,29,25,100,0.0,0,45,45,100830,20.29,0
1240,275.616,3.377,-3.335,21.034470000000002,29.776659999999996,-2.06029,0.043664999999999995,0.07345399999999999,1.184763,5810.0,16870.0,3160.0,47.7,10.1,00000000 00000000,32.825777445,34.956314419,22.346,-0.15,-0.91,0.0,-0.05,-4.29,-1.75,-0.05,-0.18,-1.44,32.825787646,34.956313165,22.363,0.96,309.3,-0.18,307318420,2172,1000,11111100,29,25,100,0.0,0,20,20,100830,20.21,3
1241,275.612,3.9789999999999996,-2.531,26.623859999999997,33.168209999999995,-0.95236,-0.016458,0.026373,1.1785709999999998,5740.0,16790.0,3260.0,47.7,10.03,00000000 00000000,32.825777239000004,34.956314378,22.346,-0.14,-0.92,0.03,-0.05,-4.3,-1.75,-0.1,-0.19,-1.45,32.825787646,34.956313165,22.363,0.96,309.3,-0.18,307318445,2172,1000,11111100,29,25,100,0.0,0,45,45,100830,20.21,0
1242,275.98900000000003,4.628,-1.754,24.14914,27.43153,-0.014,0.026795,0.038249,1.100008,5710.0,16730.0,3350.0,47.7,10.15,00000000 00000000,32.825777043,34.956314215999996,22.348,-0.14,-0.93,0.07,-0.05,-4.3,-1.75,-0.13,-0.2,-1.46,32.825787895,34.956312745,22.364,0.96,305.1,0.06,307318470,2172,1000,11111100,29,25,100,0.0,0,20,20,100830,20.29,3
1243,275.889,5.113,-1.2229999999999999,13.870779999999998,15.3642,7.23678,0.109471,0.046482,1.048741,5580.0,16630.0,3480.0,47.6,10.08,00000000 00000000,32.825776834,34.956314178,22.35,-0.13,-0.92,0.08,-0.05,-4.31,-1.75,-0.15,-0.21,-1.44,32.825787895,34.956312745,22.364,0.96,305.1,0.06,307318495,2172,1000,11111100,29,25,100,0.0,0,45,45,100828,20.38,0
1244,276.046,5.308,-0.996,3.5508900000000003,5.943,13.59351,0.133964,0.074459,1.0102389999999999,5480.0,16590.0,3600.0,47.6,10.15,00000000 00000000,32.825776644,34.956314003,22.353,-0.13,-0.89,0.09,-0.05,-4.32,-1.75,-0.16,-0.22,-1.41,32.82578814,34.956312365,22.364,0.89,307.4,0.0,307318520,2172,1000,11111100,29,25,100,0.0,0,20,20,100830,20.29,3
1245,275.68,5.301,-0.902,-3.46202,5.75188,13.88679,0.071925,0.06713,0.9854799999999999,5430.0,16570.0,3600.0,47.6,10.1,00000000 00000000,32.825776446,34.956313967,22.355,-0.12,-0.87,0.09,-0.05,-4.32,-1.75,-0.16,-0.23,-1.39,32.82578814,34.956312365,22.364,0.89,307.4,0.0,307318545,2172,1000,11111100,29,25,100,0.0,0,45,45,100830,20.21,0
1246,275.427,5.122999999999999,-0.7509999999999999,-10.54682,7.78361,8.397089999999999,0.049933,0.039111,0.945932,5360.0,16610.0,3640.0,47.6,10.13,00000000 00000000,32.825776255,34.956313926,22.358,-0.12,-0.86,0.09,-0.05,-4.33,-1.76,-0.15,-0.23,-1.37,32.825788404,34.956312015,22.366,0.88,311.71,0.07,307318570,2172,1000,11111100,29,25,100,0.0,0,20,20,100830,20.29,3
1247,275.274,4.76,-0.585,-18.34238,5.7996099999999995,4.73262,0.06288400000000001,0.030324,0.9061520000000001,5330.0,16640.0,3610.0,47.6,10.09,00000000 00000000,32.825776061999996,34.956313896,22.36,-0.1,-0.85,0.07,-0.05,-4.33,-1.76,-0.14,-0.24,-1.36,32.825788404,34.956312015,22.366,0.88,311.71,0.07,307318595,2172,1000,11111100,29,25,100,0.0,0,45,45,100830,20.29,0
1248,275.212,4.215,-0.524,-24.47075,-0.70008,2.57585,0.055384,0.028954,0.9092129999999999,5290.0,16700.0,3580.0,47.6,10.13,00000000 00000000,32.825775877,34.956313859,22.362,-0.09,-0.83,0.04,-0.05,-4.34,-1.76,-0.11,-0.25,-1.34,32.825788672,34.956311690999996,22.366,0.84,314.34,0.37,307318620,2172,1000,11111100,29,25,100,0.0,0,20,20,100830,20.29,3
1249,275.19599999999997,3.58,-0.637,-25.79824,-9.272739999999999,0.28576,0.08676,0.002048,0.919156,5290.0,16770.0,3520.0,47.6,10.09,00000000 00000000,32.82577569,34.956313834,22.362,-0.08,-0.82,0.02,-0.05,-4.34,-1.76,-0.09,-0.26,-1.32,32.825788672,34.956311690999996,22.366,0.84,314.34,0.37,307318645,2172,1000,11111100,29,25,100,0.0,0,45,45,100830,20.21,0
1250,275.17400000000004,2.945,-1.028,-24.5731,-21.175710000000002,5.3148,0.09921100000000001,0.022791,0.911235,5300.0,16850.0,3460.0,47.6,10.08,00000000 00000000,32.825775513,34.956313802,22.363,-0.07,-0.8,0.0,-0.05,-4.35,-1.77,-0.07,-0.27,-1.3,32.825788974,34.956311299,22.366,1.0,312.41,0.07,307318670,2172,1000,11111100,29,25,100,0.0,0,20,20,100830,20.29,3
1251,275.031,2.3480000000000003,-1.6219999999999999,-22.85555,-23.74437,5.67363,0.07412300000000001,0.064662,0.901007,5310.0,16960.0,3430.0,47.6,10.1,00000000 00000000,32.825775335,34.956313781999995,22.363,-0.07,-0.78,-0.01,-0.05,-4.35,-1.77,-0.05,-0.27,-1.28,32.825788974,34.956311299,22.366,1.0,312.41,0.07,307318695,2172,1000,11111100,29,25,100,0.0,0,45,45,100830,20.29,0
1252,275.03700000000003,1.7990000000000002,-2.165,-20.83813,-20.31258,-2.07959,0.070489,0.069566,0.910328,5350.0,17050.0,3360.0,47.6,10.08,00000000 00000000,32.825775166,34.956313746999996,22.363,-0.08,-0.76,-0.03,-0.05,-4.36,-1.77,-0.03,-0.26,-1.26,32.825789215,34.956310958,22.387,0.83,309.89,0.0,307318720,2172,1000,11111100,29,25,100,0.0,0,20,20,100830,20.29,3
1253,275.153,1.3090000000000002,-2.719,-18.80165,-25.44153,-3.58006,0.06329800000000001,0.074925,0.88549,5410.0,17130.0,3280.0,47.8,10.09,00000000 00000000,32.825774994,34.956313723,22.362,-0.09,-0.75,-0.05,-0.05,-4.36,-1.78,0.0,-0.25,-1.25,32.825789215,34.956310958,22.387,0.83,309.89,0.0,307318745,2172,1000,11111100,29,25,100,0.0,0,45,45,100830,20.29,0
1254,275.23400000000004,0.868,-3.428,-16.43765,-30.075470000000003,3.59352,0.000908,0.086339,0.879345,5490.0,17190.0,3180.0,47.8,10.08,00000000 00000000,32.825774829000004,34.95631368,22.362,-0.11,-0.75,-0.08,-0.05,-4.37,-1.78,0.01,-0.24,-1.25,32.825789482,34.956310535,22.386,0.99,306.82,0.01,307318770,2172,1000,11111100,29,25,100,0.0,0,20,20,100830,20.29,3
1255,275.063,0.46799999999999997,-4.152,-14.9095,-26.128420000000002,11.81519,-0.086171,0.08126599999999999,0.8692340000000001,5560.0,17250.0,3090.0,47.8,10.09,00000000 00000000,32.825774657,34.956313646999995,22.359,-0.13,-0.77,-0.11,-0.05,-4.38,-1.78,0.04,-0.22,-1.27,32.825789482,34.956310535,22.386,0.99,306.82,0.01,307318795,2172,1000,11111100,29,25,100,0.0,0,45,45,100830,20.29,0
1256,274.76099999999997,0.065,-4.665,-15.20086,-13.58531,18.87414,-0.140845,0.073602,0.850542,5600.0,17320.0,3010.0,47.8,10.15,00000000 00000000,32.825774483000004,34.956313589000004,22.357,-0.15,-0.82,-0.15,-0.05,-4.38,-1.79,0.08,-0.2,-1.31,32.825789779000004,34.956310118000005,22.391,1.02,310.11,0.08,307318820,2172,1000,11111100,29,25,100,0.0,0,20,20,100830,20.29,3
1257,274.245,0.349,-4.814,-13.696520000000001,1.56043,24.702560000000002,-0.127453,0.045561000000000004,0.889072,5630.0,17360.0,2890.0,47.8,10.09,00000000 00000000,32.825774293,34.956313543,22.353,-0.17,-0.86,-0.19,-0.05,-4.39,-1.79,0.12,-0.18,-1.35,32.825789779000004,34.956310118000005,22.391,1.02,310.11,0.08,307318845,2172,1000,11111100,29,25,100,0.0,0,45,45,100828,20.46,0
1258,273.683,0.68,-4.586,-8.16308,15.793460000000001,26.02832,-0.10739100000000001,0.029068,0.952169,5580.0,17430.0,2830.0,47.8,10.12,00000000 00000000,32.825774099,34.956313472,22.349,-0.19,-0.91,-0.21,-0.05,-4.39,-1.8,0.14,-0.17,-1.4,32.825790065,34.956309773,22.39,0.9,314.61,-0.02,307318870,2172,1000,11111100,29,25,100,0.0,0,20,20,100828,20.46,3
1259,273.085,0.858,-4.0569999999999995,-2.6913400000000003,23.89426,22.59571,-0.039897,0.020105,1.007304,5490.0,17490.0,2810.0,47.8,10.09,00000000 00000000,32.825773889000004,34.956313419000004,22.344,-0.2,-0.94,-0.21,-0.05,-4.4,-1.8,0.15,-0.16,-1.43,32.825790065,34.956309773,22.39,0.9,314.61,-0.02,307318895,2172,1000,11111100,29,25,100,0.0,0,45,45,100826,20.55,0
1260,272.618,0.9059999999999999,-3.4410000000000003,1.69386,24.34892,19.95273,0.030669,0.03361,1.080307,5370.0,17540.0,2840.0,47.8,10.12,00000000 00000000,32.825773681,34.956313338,22.34,-0.21,-0.96,-0.2,-0.05,-4.4,-1.8,0.14,-0.15,-1.45,32.825790349,34.956309472,22.385,0.84,318.18,-0.09,307318920,2172,1000,11111100,30,25,100,0.0,0,20,20,100826,20.55,3
1261,272.192,0.821,-2.8169999999999997,7.37055,25.315179999999998,12.78599,0.093178,0.046835,1.14703,5260.0,17560.0,2870.0,47.8,10.09,00000000 00000000,32.825773465,34.956313277,22.336,-0.23,-0.96,-0.17,-0.05,-4.41,-1.81,0.11,-0.13,-1.44,32.825790349,34.956309472,22.385,0.84,318.18,-0.09,307318945,2172,1000,11111100,30,25,100,0.0,0,45,45,100826,20.55,0
1262,272.062,0.5589999999999999,-2.169,14.301829999999999,25.622139999999998,3.41495,0.091028,0.032304,1.149325,5140.0,17570.0,2960.0,47.8,10.12,00000000 00000000,32.825773259,34.956313185,22.333,-0.25,-0.94,-0.14,-0.05,-4.41,-1.81,0.07,-0.12,-1.43,32.825790668,34.956309104,22.367,0.98,315.79,-0.37,307318970,2172,1000,11111100,29,25,100,0.0,0,20,20,100826,20.63,3
1263,272.005,0.135,-1.531,18.915860000000002,25.7795,1.6005,0.017523,-0.003225,1.145027,5050.0,17530.0,3030.0,47.8,10.07,00000000 00000000,32.825773047,34.956313117,22.33,-0.25,-0.93,-0.1,-0.05,-4.42,-1.82,0.04,-0.11,-1.41,32.825790668,34.956309104,22.367,0.98,315.79,-0.37,307318995,2172,1000,11111100,29,25,100,0.0,0,45,45,100826,20.55,8
1264,271.994,0.31,-0.925,15.787989999999999,20.427989999999998,5.82125,-0.007164,-0.062829,1.178509,4950.0,17490.0,3150.0,47.8,10.08,00000000 00000000,32.825772844,34.956313018,22.328,-0.25,-0.94,-0.06,-0.05,-4.42,-1.82,0.0,-0.12,-1.42,32.825790966,34.956308766,22.356,0.91,316.2,-0.21,307319020,2172,1000,11111100,29,25,100,0.0,0,20,20,100826,20.55,3
1265,271.69599999999997,0.615,-0.588,9.30632,6.34854,19.82404,0.116502,-0.03539,1.165975,4890.0,17440.0,3210.0,47.8,10.1,00000000 00000000,32.825772633,34.956312953,22.327,-0.23,-0.93,-0.02,-0.05,-4.43,-1.83,-0.04,-0.14,-1.41,32.825790966,34.956308766,22.356,0.91,316.2,-0.21,307319045,2172,1000,11111100,29,25,100,0.0,0,45,45,100826,20.55,0
1266,271.085,0.7979999999999999,-0.536,6.57078,1.0044600000000001,34.02998,0.14027,-0.009966,1.125214,4820.0,17430.0,3240.0,47.8,10.12,00000000 00000000,32.825772435,34.956312858000004,22.327,-0.22,-0.9,0.01,-0.05,-4.43,-1.84,-0.07,-0.14,-1.37,32.825791279,34.956308435,22.348,0.92,318.36,-0.17,307319070,2172,1000,11111100,29,25,100,0.0,0,20,20,100826,20.55,3
1267,270.193,0.945,-0.423,5.92532,10.76454,35.230779999999996,0.085988,-0.023959,1.0471549999999998,4730.0,17450.0,3270.0,47.8,10.11,00000000 00000000,32.825772236,34.956312796999995,22.328,-0.22,-0.87,0.03,-0.05,-4.44,-1.84,-0.1,-0.15,-1.34,32.825791279,34.956308435,22.348,0.92,318.36,-0.17,307319095,2172,1000,11111100,29,25,100,0.0,0,45,45,100826,20.55,0
1268,269.467,1.089,-0.045,5.97591,18.44696,30.585590000000003,0.065567,-0.043795999999999995,0.9442520000000001,4610.0,17480.0,3300.0,47.8,10.13,00000000 00000000,32.825772052,34.956312701,22.33,-0.21,-0.85,0.03,-0.05,-4.44,-1.85,-0.1,-0.16,-1.32,32.825791577,34.956308027,22.36,1.01,310.86,0.25,307319120,2172,1000,11111100,29,25,100,0.0,0,20,20,100828,20.46,3
1269,268.73,1.22,0.34,3.56331,11.06288,29.282559999999997,0.051584000000000005,-0.051075,0.876906,4480.0,17490.0,3330.0,47.8,10.1,00000000 00000000,32.825771861999996,34.956312646,22.331,-0.19,-0.83,0.01,-0.05,-4.45,-1.85,-0.08,-0.18,-1.3,32.825791577,34.956308027,22.36,1.01,310.86,0.25,307319145,2172,1000,11111100,29,25,100,0.0,0,45,45,100824,20.71,0
1270,268.085,1.238,0.387,-2.62752,-7.43041,30.94299,0.034477999999999995,-0.033525,0.8615799999999999,4360.0,17510.0,3350.0,47.8,10.12,00000000 00000000,32.825771684,34.956312553000004,22.332,-0.18,-0.82,-0.01,-0.05,-4.45,-1.86,-0.05,-0.19,-1.28,32.82579181,34.956307658,22.366,0.86,306.86,0.11,307319170,2172,1000,11111100,29,25,100,0.0,0,20,20,100824,20.71,3
1271,267.293,1.1179999999999999,-0.049,-6.699139999999999,-25.01165,31.957420000000003,0.025072999999999998,-0.015585,0.902869,4280.0,17550.0,3350.0,47.8,10.09,00000000 00000000,32.825771501,34.956312505,22.331,-0.17,-0.81,-0.04,-0.05,-4.46,-1.86,-0.02,-0.2,-1.27,32.82579181,34.956307658,22.366,0.86,306.86,0.11,307319195,2172,1000,11111100,29,25,100,0.0,0,45,45,100824,20.71,0
1272,266.624,0.92,-0.7659999999999999,-8.16353,-27.163190000000004,28.79771,0.001634,0.00139,0.967925,4250.0,17600.0,3300.0,47.7,10.11,00000000 00000000,32.825771329,34.956312411999996,22.331,-0.17,-0.8,-0.06,-0.05,-4.46,-1.87,0.0,-0.21,-1.26,32.825792056,34.956307353,22.368,0.78,313.67,0.03,307319220,2172,1000,11111100,29,25,100,0.0,0,20,20,100824,20.71,3
1273,266.029,0.7020000000000001,-1.281,-8.531939999999999,-13.01329,18.58222,0.019966,0.009298,0.9597680000000001,4250.0,17650.0,3240.0,47.7,10.1,00000000 00000000,32.825771147,34.956312366999995,22.33,-0.17,-0.8,-0.06,-0.05,-4.47,-1.88,0.0,-0.21,-1.26,32.825792056,34.956307353,22.368,0.78,313.67,0.03,307319245,2172,1000,11111100,29,25,100,0.0,0,45,45,100824,20.71,0
1274,265.81,0.465,-1.4769999999999999,-9.535,-4.022469999999999,8.85107,0.040025,0.009234000000000001,0.9334459999999999,4230.0,17710.0,3200.0,47.7,10.13,00000000 00000000,32.825770976,34.956312269,22.33,-0.17,-0.8,-0.08,-0.06,-4.47,-1.88,0.01,-0.21,-1.26,32.825792340999996,34.956306981,22.378,0.93,312.26,0.18,307319270,2172,1000,11111100,29,25,100,0.0,0,20,20,100826,20.63,3
1275,265.676,0.226,-1.577,-8.91502,-5.94625,3.01631,0.06450700000000001,0.028899,0.8959360000000001,4220.0,17750.0,3160.0,47.7,10.08,00000000 00000000,32.825770796,34.956312222,22.327,-0.17,-0.79,-0.1,-0.06,-4.48,-1.89,0.03,-0.21,-1.25,32.825792340999996,34.956306981,22.378,0.93,312.26,0.18,307319295,2172,1000,11111100,29,25,100,0.0,0,45,45,100826,20.63,0
1276,265.777,0.028999999999999998,-1.845,-6.55386,-15.50274,-0.8274100000000001,0.045752999999999995,0.021641,0.892818,4220.0,17790.0,3130.0,47.7,10.12,00000000 00000000,32.825770629000004,34.956312115,22.327,-0.18,-0.78,-0.12,-0.06,-4.48,-1.9,0.06,-0.2,-1.24,32.82579261,34.956306587,22.378,0.94,309.02,0.0,307319320,2172,1000,11111100,29,25,100,0.0,0,20,20,100824,20.71,3
1277,265.856,0.114,-2.291,-5.36685,-18.64343,-5.10639,-0.010808,0.019267,0.902352,4250.0,17810.0,3080.0,47.7,10.1,00000000 00000000,32.825770452,34.956312064,22.323,-0.19,-0.78,-0.15,-0.06,-4.49,-1.91,0.08,-0.19,-1.23,32.82579261,34.956306587,22.378,0.94,309.02,0.0,307319345,2172,1000,11111100,29,25,100,0.0,0,45,45,100828,20.46,0
1278,266.17,0.233,-2.7230000000000003,-4.51936,-15.575920000000002,-8.773810000000001,-0.057488,0.002805,0.904072,4300.0,17830.0,3060.0,47.7,10.11,00000000 00000000,32.825770285,34.956311948,22.321,-0.2,-0.8,-0.17,-0.06,-4.49,-1.91,0.1,-0.19,-1.25,32.82579289,34.956306209,22.369,0.93,311.27,-0.19,307319370,2172,1000,11111100,29,25,100,0.0,0,20,20,100828,20.46,3
1279,266.42,0.301,-3.04,-1.3110600000000001,-8.25181,-11.46376,-0.108769,0.0054789999999999995,0.945026,4370.0,17830.0,3010.0,47.7,10.08,00000000 00000000,32.825770100999996,34.956311894,22.316,-0.2,-0.83,-0.19,-0.06,-4.5,-1.92,0.13,-0.19,-1.27,32.82579289,34.956306209,22.369,0.93,311.27,-0.19,307319395,2172,1000,11111100,29,25,100,0.0,0,45,45,100828,20.38,0
1280,266.92,0.252,-3.083,3.95609,4.31679,-17.70669,-0.101846,0.014174,0.972231,4420.0,17830.0,3010.0,47.7,10.13,00000000 00000000,32.825769922,34.956311770999996,22.312,-0.2,-0.87,-0.2,-0.06,-4.5,-1.93,0.14,-0.18,-1.31,32.825793199,34.956305823,22.357,0.99,313.53,-0.23,307319420,2172,1000,11111100,29,25,100,0.0,0,20,20,100828,20.46,3
1281,267.402,0.07,-2.8960000000000004,8.429960000000001,9.46875,-20.92042,-0.055161,0.006104999999999999,1.004826,4460.0,17780.0,3000.0,47.7,10.11,00000000 00000000,32.825769722,34.956311715,22.307,-0.2,-0.9,-0.21,-0.06,-4.51,-1.94,0.14,-0.18,-1.34,32.825793199,34.956305823,22.357,0.99,313.53,-0.23,307319445,2172,1000,11111100,29,25,100,0.0,0,45,45,100828,20.46,0
1282,268.078,0.207,-2.6519999999999997,11.55,9.57972,-22.25732,0.010293,0.007412,1.055547,4500.0,17730.0,3030.0,47.7,10.13,00000000 00000000,32.825769531,34.956311584,22.304,-0.21,-0.91,-0.2,-0.06,-4.51,-1.94,0.13,-0.18,-1.35,32.825793469000004,34.956305457,22.353,0.9,311.18,-0.1,307319470,2172,1000,11111100,29,25,100,0.0,0,20,20,100828,20.46,3
1283,268.603,0.527,-2.405,12.05503,10.11589,-20.58715,0.056036,0.012343000000000002,1.1003129999999999,4530.0,17660.0,3070.0,47.7,10.09,00000000 00000000,32.825769324,34.956311527,22.299,-0.21,-0.92,-0.18,-0.06,-4.52,-1.95,0.11,-0.18,-1.35,32.825793469000004,34.956305457,22.353,0.9,311.18,-0.1,307319495,2172,1000,11111100,29,25,100,0.0,0,45,45,100828,20.46,0
1284,269.21299999999997,0.852,-2.141,12.799710000000001,10.762939999999999,-16.45915,0.062184,-0.018397,1.128959,4540.0,17610.0,3150.0,47.7,10.11,00000000 00000000,32.825769133,34.956311385999996,22.296,-0.21,-0.91,-0.15,-0.06,-4.52,-1.96,0.09,-0.18,-1.34,32.82579379,34.956304996,22.339,1.11,309.53,-0.27,307319520,2172,1000,11111100,28,25,100,0.0,0,20,20,100826,20.63,3
1285,269.53,1.2009999999999998,-1.848,14.54468,12.23827,-9.78122,0.013877,-0.052876,1.138798,4570.0,17530.0,3190.0,47.7,10.1,00000000 00000000,32.825768928,34.956311329,22.292,-0.2,-0.91,-0.12,-0.06,-4.53,-1.97,0.05,-0.19,-1.34,32.82579379,34.956304996,22.339,1.11,309.53,-0.27,307319545,2172,1000,11111100,28,25,100,0.0,0,45,45,100826,20.63,0
1286,269.862,1.597,-1.564,16.338379999999997,8.1508,-5.37515,-0.007918000000000001,-0.055986,1.140799,4560.0,17470.0,3260.0,47.7,10.11,00000000 00000000,32.825768738,34.956311187,22.291,-0.19,-0.91,-0.08,-0.06,-4.53,-1.97,0.02,-0.21,-1.34,32.825794108000004,34.956304571,22.334,1.06,311.61,-0.11,307319570,2172,1000,11111100,28,25,100,0.0,0,20,20,100826,20.55,3
1287,269.93,1.986,-1.492,13.965720000000001,-3.20155,0.2652,0.050775,-0.033706,1.146757,4560.0,17400.0,3300.0,47.7,10.09,00000000 00000000,32.825768531,34.956311139,22.289,-0.17,-0.91,-0.05,-0.06,-4.54,-1.98,-0.01,-0.23,-1.34,32.825794108000004,34.956304571,22.334,1.06,311.61,-0.11,307319595,2172,1000,11111100,28,25,100,0.0,0,45,45,100826,20.55,0
1288,270.006,2.279,-1.676,9.73676,-8.3096,4.53531,0.04488,-0.021115000000000002,1.152986,4560.0,17360.0,3350.0,47.7,10.12,00000000 00000000,32.825768341,34.956310998,22.29,-0.16,-0.91,-0.01,-0.06,-4.54,-1.99,-0.04,-0.25,-1.33,32.825794373,34.956304145,22.33,0.99,306.36,-0.07,307319620,2172,1000,11111100,28,25,100,0.0,0,20,20,100828,20.46,3
1289,269.945,2.471,-1.781,6.17455,1.0523200000000001,-0.69787,0.049367,-0.028169,1.084684,4570.0,17330.0,3380.0,47.7,10.08,00000000 00000000,32.825768137,34.956310957,22.29,-0.14,-0.9,0.01,-0.06,-4.55,-2.0,-0.08,-0.26,-1.33,32.825794373,34.956304145,22.33,0.99,306.36,-0.07,307319645,2172,1000,11111100,28,25,100,0.0,0,45,45,100828,20.46,0
1290,270.204,2.6060000000000003,-1.6580000000000001,4.62365,6.21649,-5.76316,0.088575,-0.009873999999999999,1.006723,4560.0,17310.0,3410.0,47.7,10.12,00000000 00000000,32.82576795,34.956310815,22.291,-0.13,-0.89,0.02,-0.06,-4.55,-2.01,-0.09,-0.28,-1.32,32.825794604,34.956303685,22.327,1.0,300.79,-0.07,307319670,2172,1000,11111100,28,25,100,0.0,0,20,20,100828,20.46,3
1291,270.375,2.679,-1.577,0.4542,-2.41345,-7.27497,0.12270999999999999,0.035237,0.9656790000000001,4560.0,17290.0,3440.0,47.7,10.08,00000000 00000000,32.82576775,34.95631078,22.292,-0.12,-0.87,0.02,-0.06,-4.56,-2.02,-0.09,-0.29,-1.29,32.825794604,34.956303685,22.327,1.0,300.79,-0.07,307319695,2172,1000,11111100,28,25,100,0.0,0,45,45,100828,20.46,0
1292,270.728,2.6189999999999998,-1.818,-5.247809999999999,-16.79672,-5.78068,0.097498,0.042085000000000004,0.977801,4580.0,17280.0,3450.0,47.7,10.13,00000000 00000000,32.825767574000004,34.956310631,22.294,-0.13,-0.85,0.01,-0.06,-4.56,-2.03,-0.08,-0.29,-1.27,32.825794874,34.956303176,22.327,1.12,302.17,0.0,307319720,2172,1000,11111100,28,25,100,0.0,0,20,20,100826,20.55,3
1293,270.897,2.434,-2.33,-9.78541,-22.982,-7.719310000000001,0.06729500000000001,0.056041999999999995,1.006046,4630.0,17280.0,3420.0,47.7,10.1,00000000 00000000,32.825767383,34.956310595,22.294,-0.13,-0.84,0.01,-0.06,-4.57,-2.04,-0.08,-0.29,-1.25,32.825794874,34.956303176,22.327,1.12,302.17,0.0,307319745,2172,1000,11111100,28,25,100,0.0,0,45,45,100828,20.46,0
1294,271.327,2.157,-2.8689999999999998,-12.271460000000001,-20.149739999999998,-8.86425,0.08090900000000001,0.052898,1.008561,4700.0,17300.0,3410.0,47.7,10.13,00000000 00000000,32.825767213,34.956310435,22.296,-0.14,-0.83,0.02,-0.06,-4.57,-2.04,-0.08,-0.28,-1.24,32.825795104,34.956302726,22.339,0.98,301.24,0.22,307319770,2172,1000,11111100,28,25,100,0.0,0,20,20,100828,20.38,3
1295,271.522,1.8519999999999999,-3.305,-12.615910000000001,-15.3318,-4.725219999999999,0.08519,0.041813,0.971462,4780.0,17320.0,3350.0,47.7,10.09,00000000 00000000,32.825767027,34.956310396,22.297,-0.14,-0.82,0.02,-0.06,-4.58,-2.05,-0.08,-0.28,-1.23,32.825795104,34.956302726,22.339,0.98,301.24,0.22,307319795,2172,1000,11111100,28,25,100,0.0,0,45,45,100828,20.46,0
1296,271.797,1.551,-3.6239999999999997,-10.79953,-10.15139,0.33088,0.060563,0.039006,0.9284479999999999,4830.0,17360.0,3320.0,47.7,10.15,00000000 00000000,32.825766861,34.956310223,22.299,-0.15,-0.81,0.01,-0.06,-4.58,-2.06,-0.07,-0.28,-1.22,32.82579539,34.956302258,22.352,1.08,305.83,0.27,307319820,2172,1000,11111100,28,25,100,0.0,0,20,20,100828,20.46,3
1297,271.751,1.324,-3.798,-6.990760000000001,-3.08636,4.14011,0.020193,0.036616,0.884867,4860.0,17390.0,3260.0,47.7,10.11,00000000 00000000,32.825766677,34.95631018,22.299,-0.16,-0.81,-0.01,-0.06,-4.59,-2.07,-0.05,-0.27,-1.22,32.82579539,34.956302258,22.352,1.08,305.83,0.27,307319845,2172,1000,11111100,28,25,100,0.0,0,45,45,100828,20.46,0
1298,271.862,1.177,-3.755,-4.36486,6.9295,3.7450099999999997,-0.001231,0.052015,0.847024,4860.0,17430.0,3240.0,47.7,10.13,00000000 00000000,32.825766512,34.956309995,22.301,-0.17,-0.82,-0.04,-0.06,-4.59,-2.08,-0.02,-0.26,-1.23,32.825795690999996,34.956301855,22.363,1.0,311.69,0.19,307319870,2172,1000,11111100,28,25,100,0.0,0,20,20,100828,20.46,3
1299,271.783,1.067,-3.485,-4.35331,13.349089999999999,4.07773,-0.0032530000000000002,0.066265,0.8222430000000001,4840.0,17450.0,3240.0,47.7,10.08,00000000 00000000,32.825766324,34.956309946,22.299,-0.18,-0.84,-0.08,-0.06,-4.6,-2.09,0.01,-0.25,-1.24,32.825795690999996,34.956301855,22.363,1.0,311.69,0.19,307319895,2172,1000,11111100,28,25,100,0.0,0,45,45,100828,20.38,0
1300,271.853,0.9209999999999999,-3.1489999999999996,-6.39466,13.685629999999998,7.42116,-0.020602000000000002,0.07259700000000001,0.831197,4800.0,17460.0,3240.0,47.7,10.1,00000000 00000000,32.825766153000004,34.956309746,22.299,-0.2,-0.85,-0.12,-0.06,-4.6,-2.1,0.06,-0.24,-1.25,32.82579595,34.956301491,22.36,0.89,310.06,-0.05,307319920,2172,1000,11111100,28,25,100,0.0,0,20,20,100828,20.46,3
1301,271.658,0.7090000000000001,-2.833,-9.81419,11.59553,8.615689999999999,-0.019068,0.0795,0.851815,4750.0,17480.0,3230.0,47.7,10.09,00000000 00000000,32.82576596,34.956309688000005,22.295,-0.22,-0.86,-0.16,-0.06,-4.61,-2.11,0.1,-0.22,-1.26,32.82579595,34.956301491,22.36,0.89,310.06,-0.05,307319945,2172,1000,11111100,28,25,100,0.0,0,45,45,100828,20.38,0
1302,271.695,0.42,-2.5469999999999997,-11.56681,11.32268,6.60263,-0.023459999999999998,0.073643,0.9165610000000001,4690.0,17520.0,3240.0,47.7,10.11,00000000 00000000,32.825765784,34.956309469000004,22.292,-0.25,-0.87,-0.19,-0.06,-4.61,-2.12,0.13,-0.2,-1.27,32.825796202,34.956301108000005,22.35,0.9,308.02,-0.21,307319970,2172,1000,11111100,28,25,100,0.0,0,20,20,100828,20.38,3
1303,271.57599999999996,0.12,-2.291,-12.03352,9.199589999999999,3.67486,-0.02671,0.029657999999999997,1.010204,4650.0,17550.0,3220.0,47.7,10.09,00000000 00000000,32.825765585,34.9563094,22.287,-0.26,-0.89,-0.2,-0.06,-4.62,-2.13,0.14,-0.19,-1.29,32.825796202,34.956301108000005,22.35,0.9,308.02,-0.21,307319995,2172,1000,11111100,28,25,100,0.0,0,45,45,100830,20.29,8
1304,271.723,0.183,-2.114,-11.38925,4.3367,3.4151199999999995,0.026,0.02622,1.11516,4600.0,17600.0,3230.0,47.7,10.1,00000000 00000000,32.825765392,34.956309167,22.284,-0.27,-0.9,-0.18,-0.06,-4.62,-2.14,0.12,-0.18,-1.29,32.825796477,34.956300698,22.34,0.9,308.02,-0.21,307320020,2172,1000,11111100,28,25,100,0.0,0,20,70,100828,20.38,1
1305,271.652,0.452,-2.048,-9.63349,1.38877,2.902,0.060145000000000004,0.047192000000000005,1.186445,4580.0,17640.0,3210.0,47.7,10.11,00000000 00000000,32.825765203,34.956309088000005,22.28,-0.29,-0.89,-0.14,-0.06,-4.62,-2.15,0.08,-0.17,-1.29,32.825796477,34.956300698,22.34,0.97,308.48,-0.2,307320045,2172,1000,11111100,28,25,100,0.0,0,45,45,100830,20.21,2
1306,271.83099999999996,0.659,-2.019,-5.73541,1.52778,1.34801,0.07977000000000001,0.055140999999999996,1.19684,4570.0,17650.0,3170.0,47.7,10.12,00000000 00000000,32.825765024,34.956308836999995,22.279,-0.31,-0.88,-0.09,-0.06,-4.63,-2.16,0.04,-0.16,-1.28,32.825796739,34.95630029,22.333,0.95,307.36,-0.14,307320070,2172,1000,11111100,30,25,100,0.0,0,20,20,100828,20.38,3
1307,271.778,0.74,-1.949,-0.70522,3.6091900000000003,4.46852,0.043392,-0.007289,1.172814,4580.0,17660.0,3150.0,47.7,10.09,00000000 00000000,32.825764825,34.95630875,22.277,-0.32,-0.87,-0.05,-0.06,-4.63,-2.17,0.0,-0.14,-1.27,32.825796739,34.95630029,22.333,0.95,307.36,-0.14,307320095,2172,1000,11111100,30,25,100,0.0,0,45,45,100828,20.38,0
1308,271.777,0.7290000000000001,-1.944,2.46615,-5.57661,13.77454,0.001324,-0.045015,1.1794930000000001,4560.0,17680.0,3150.0,47.7,10.13,00000000 00000000,32.825764652,34.956308485,22.278,-0.33,-0.88,-0.01,-0.06,-4.64,-2.18,-0.04,-0.15,-1.27,32.825797078,34.956299875,22.319,1.08,314.02,-0.28,307320120,2172,1000,11111100,30,25,100,0.0,0,20,20,100828,20.46,3
1309,271.335,0.645,-2.224,5.64551,-15.05809,20.79111,0.029095,-0.01755,1.1539629999999998,4540.0,17690.0,3150.0,47.7,10.09,00000000 00000000,32.825764453000005,34.956308396,22.278,-0.32,-0.88,0.03,-0.06,-4.64,-2.19,-0.08,-0.15,-1.27,32.825797078,34.956299875,22.319,1.08,314.02,-0.28,307320145,2172,1000,11111100,30,25,100,0.0,0,45,45,100828,20.46,0
1310,270.994,0.494,-2.526,8.85784,-6.57833,22.882839999999998,0.05661,-0.02166,1.112722,4510.0,17720.0,3160.0,47.7,10.08,00000000 00000000,32.825764278,34.956308124,22.281,-0.33,-0.88,0.06,-0.06,-4.65,-2.2,-0.12,-0.15,-1.27,32.825797408,34.956299489,22.328,1.02,315.44,0.17,307320170,2172,1000,11111100,30,25,100,0.0,0,20,20,100828,20.46,3
1311,270.45099999999996,0.264,-2.457,11.3579,11.212810000000001,19.14571,0.097301,-0.032657,1.056665,4470.0,17730.0,3170.0,47.7,10.07,00000000 00000000,32.82576408,34.956308034,22.283,-0.33,-0.87,0.08,-0.06,-4.65,-2.21,-0.14,-0.16,-1.26,32.825797408,34.956299489,22.328,1.02,315.44,0.17,307320195,2172,1000,11111100,30,25,100,0.0,0,45,45,100826,20.55,0
1312,270.241,0.013000000000000001,-2.057,12.9015,17.65269,15.3484,0.099053,-0.068076,0.9992979999999999,4400.0,17720.0,3220.0,47.7,10.12,00000000 00000000,32.82576391,34.956307755,22.288,-0.33,-0.85,0.09,-0.06,-4.66,-2.22,-0.15,-0.17,-1.24,32.825797716,34.956299043,22.34,1.07,309.27,0.22,307320220,2172,1000,11111100,30,25,100,0.0,0,20,20,100828,20.46,3
1313,269.868,0.342,-1.695,14.24796,10.17801,13.49117,0.071908,-0.073115,0.962512,4310.0,17690.0,3260.0,47.7,10.1,00000000 00000000,32.825763719,34.956307669,22.29,-0.31,-0.84,0.09,-0.06,-4.66,-2.23,-0.15,-0.18,-1.22,32.825797716,34.956299043,22.34,1.07,309.27,0.22,307320245,2172,1000,11111100,30,25,100,0.0,0,45,45,100828,20.46,0
1314,269.769,0.6829999999999999,-1.5759999999999998,14.01004,-0.01605,11.591339999999999,0.050381,-0.05929500000000001,0.944368,4240.0,17650.0,3310.0,47.7,10.13,00000000 00000000,32.825763554,34.956307389,22.295,-0.3,-0.83,0.08,-0.06,-4.66,-2.24,-0.14,-0.2,-1.21,32.825797933000004,34.95629864,22.35,0.89,302.67,0.19,307320270,2172,1000,11111100,30,25,100,0.0,0,20,20,100828,20.46,3
1315,269.483,0.995,-1.656,11.14413,-5.76361,11.3285,0.063546,-0.041679,0.949728,4200.0,17610.0,3340.0,47.7,10.09,00000000 00000000,32.825763368000004,34.95630731,22.297,-0.28,-0.82,0.06,-0.06,-4.67,-2.25,-0.12,-0.22,-1.2,32.825797933000004,34.95629864,22.35,0.89,302.67,0.19,307320295,2172,1000,11111100,30,25,100,0.0,0,45,45,100828,20.38,0
1316,269.385,1.2,-1.8419999999999999,6.89803,-8.28669,14.144470000000002,0.080265,-0.010633,0.949657,4170.0,17590.0,3380.0,47.7,10.11,00000000 00000000,32.825763208000005,34.956307032,22.299,-0.28,-0.8,0.05,-0.06,-4.67,-2.26,-0.11,-0.23,-1.18,32.825798176,34.956298279,22.346,0.86,308.49,-0.08,307320320,2172,1000,11111100,30,25,100,0.0,0,20,20,100830,20.21,3
1317,268.994,1.329,-2.069,4.97091,-8.86476,16.60896,0.063678,0.017293,0.909165,4170.0,17570.0,3370.0,47.7,10.09,00000000 00000000,32.825763028000004,34.956306955,22.301,-0.28,-0.79,0.04,-0.06,-4.68,-2.27,-0.09,-0.23,-1.17,32.825798176,34.956298279,22.346,0.86,308.49,-0.08,307320345,2172,1000,11111100,30,25,100,0.0,0,45,45,100832,20.13,0
1318,268.784,1.429,-2.276,4.975709999999999,-6.56522,17.35377,0.0112,0.032949,0.862806,4140.0,17580.0,3380.0,47.7,10.11,00000000 00000000,32.825762873,34.95630667,22.303,-0.29,-0.79,0.01,-0.06,-4.68,-2.28,-0.07,-0.23,-1.16,32.825798416,34.956297897,22.347,0.88,306.82,0.0,307320370,2172,1000,11111100,30,25,100,0.0,0,20,20,100832,20.13,3
1319,268.34,1.525,-2.408,4.16976,-3.32747,17.71163,-0.035798,0.02179,0.8411629999999999,4120.0,17570.0,3380.0,47.7,10.09,00000000 00000000,32.825762694,34.956306591,22.303,-0.29,-0.8,-0.02,-0.06,-4.69,-2.29,-0.03,-0.23,-1.17,32.825798416,34.956297897,22.347,0.88,306.82,0.0,307320395,2172,1000,11111100,30,25,100,0.0,0,45,45,100832,20.13,0
1320,268.11,1.6030000000000002,-2.494,4.42828,-3.27506,17.915370000000003,-0.079779,0.014915000000000001,0.8526870000000001,4080.0,17580.0,3390.0,47.7,10.12,00000000 00000000,32.825762536999996,34.956306296,22.303,-0.3,-0.82,-0.06,-0.06,-4.69,-2.3,0.0,-0.23,-1.19,32.825798683,34.956297479,22.345,0.98,307.1,-0.04,307320420,2172,1000,11111100,30,25,100,0.0,0,20,20,100830,20.29,3
1321,267.683,1.703,-2.5810000000000004,4.56233,-2.1708,15.341920000000002,-0.076665,0.034503,0.857348,4040.0,17570.0,3370.0,47.7,10.08,00000000 00000000,32.825762349,34.956306214,22.301,-0.3,-0.84,-0.09,-0.06,-4.7,-2.31,0.03,-0.23,-1.21,32.825798683,34.956297479,22.345,0.98,307.1,-0.04,307320445,2172,1000,11111100,30,25,100,0.0,0,45,45,100830,20.29,0
1322,267.558,1.771,-2.5869999999999997,3.0080400000000003,2.39489,12.08763,-0.060144,0.029073,0.907916,4000.0,17570.0,3380.0,47.7,10.12,00000000 00000000,32.825762181,34.956305912,22.3,-0.31,-0.87,-0.12,-0.06,-4.7,-2.32,0.06,-0.23,-1.24,32.825798936999995,34.956297101,22.344,0.9,308.63,-0.03,307320470,2172,1000,11111100,30,25,100,0.0,0,20,20,100830,20.21,3
1323,267.278,1.838,-2.4930000000000003,3.94804,5.84844,9.90248,-0.046488,0.024242,0.960759,3960.0,17570.0,3380.0,47.7,10.09,00000000 00000000,32.825761981999996,34.956305828000005,22.297,-0.31,-0.89,-0.14,-0.06,-4.7,-2.33,0.08,-0.23,-1.26,32.825798936999995,34.956297101,22.344,0.9,308.63,-0.03,307320495,2172,1000,11111100,30,25,100,0.0,0,45,45,100830,20.21,0
1324,267.28,1.972,-2.318,9.14025,7.97072,6.849,-0.050074,0.034808,1.0027540000000001,3910.0,17570.0,3410.0,47.7,10.11,00000000 00000000,32.825761805,34.956305517,22.295,-0.32,-0.91,-0.14,-0.06,-4.71,-2.35,0.09,-0.23,-1.27,32.825799203,34.956296673000004,22.346,0.99,306.37,0.04,307320520,2172,1000,11111100,30,25,100,0.0,0,20,20,100830,20.29,3
1325,267.111,2.299,-2.131,17.93508,7.27033,6.33476,-0.06858099999999999,0.035075,1.039294,3870.0,17540.0,3420.0,47.7,10.1,00000000 00000000,32.825761596999996,34.95630543,22.292,-0.32,-0.93,-0.14,-0.06,-4.71,-2.36,0.08,-0.23,-1.29,32.825799203,34.956296673000004,22.346,0.99,306.37,0.04,307320545,2172,1000,11111100,30,25,100,0.0,0,45,45,100830,20.21,0
1326,266.936,2.855,-1.919,26.473709999999997,11.15204,5.756959999999999,-0.070701,0.052936000000000004,1.087399,3820.0,17500.0,3490.0,47.7,10.13,00000000 00000000,32.825761404,34.956305341,22.289,-0.32,-0.96,-0.12,-0.06,-4.72,-2.37,0.07,-0.23,-1.32,32.825799466,34.956296248,22.334,0.98,306.31,-0.25,307320570,2172,1000,11111100,29,25,100,0.0,0,20,20,100832,20.13,3
1327,266.809,3.568,-1.554,29.54301,18.8814,2.43497,-0.034229,0.037864,1.1423649999999999,3780.0,17410.0,3550.0,47.7,10.08,00000000 00000000,32.825761185,34.956305256,22.287,-0.31,-0.98,-0.09,-0.06,-4.72,-2.38,0.04,-0.23,-1.34,32.825799466,34.956296248,22.334,0.98,306.31,-0.25,307320595,2172,1000,11111100,29,25,100,0.0,0,45,45,100832,20.13,0
1328,266.769,4.27,-0.966,25.84069,28.84098,0.21341,0.031134,0.019481000000000002,1.172053,3710.0,17320.0,3640.0,47.7,10.12,00000000 00000000,32.825760984,34.956305169000004,22.285,-0.3,-0.98,-0.05,-0.06,-4.73,-2.39,0.0,-0.24,-1.34,32.825799716,34.956295785,22.324,1.02,302.59,-0.2,307320620,2172,1000,11111100,28,25,100,0.0,0,20,20,100830,20.21,3
