,Heading,Pitch,Roll,Gyro_X,Gyro_Y,Gyro_Z,Acc_X,Acc_Y,Acc_Z,Magn_X,Magn_Y,Magn_Z,Temperature,Vdd,USW (L/H),Latitude,Longitude,Altitude,V_East,V_North,V_Up,Heave,Surge,Sway,V_Heave,V_Surge,V_Sway,Lat_GNSS,Long_GNSS,Height_GNSS,Hor_spd,Trk_gnd,Ver_spd,ms_gps,GPS_Week,GNSS_info_1,GNSS_info_2,#solnSVs,V_latency,anglesPosType,Heading_GNSS,Latency_ms_head,Latency_ms_pos,Latency_ms_vel,P_Bar,H_Bar,New_GPS
2488,55.521,5.6,-5.209,-2.81281,24.2584,41.84816,0.043818,0.065051,1.070033,3340.0,4350.0,2660.0,47.7,10.05,00000000 00000000,32.825783826,34.956167706,22.07,-0.3,0.26,0.12,-0.06,-1.31,1.54,-0.12,-0.37,-0.88,32.825741279,34.956246386,22.081,0.22,58.62,0.09,307393995,2172,1000,11111100,31,25,100,0.0,0,45,45,100826,20.63,8
2489,54.371,5.459,-4.609,-0.7733800000000001,30.498,46.34173,0.047708,0.05165,0.996216,3390.0,4380.0,2690.0,47.7,10.09,00000000 00000000,32.825783879,34.956167635999996,22.074,-0.31,0.26,0.13,-0.06,-1.31,1.54,-0.13,-0.38,-0.89,32.825741312,34.95624651,22.091,0.24,72.62,0.18,307394020,2172,1000,11111100,31,25,100,0.0,0,20,20,100826,20.63,3
2490,53.148999999999994,5.369,-3.897,-0.22314,35.57541,51.82963,-0.003113,0.007273999999999999,0.883093,3470.0,4400.0,2670.0,47.7,10.1,00000000 00000000,32.825783938,34.95616755,22.077,-0.33,0.26,0.12,-0.06,-1.32,1.55,-0.12,-0.39,-0.89,32.825741312,34.95624651,22.091,0.24,72.62,0.18,307394045,2172,1000,11111100,31,25,100,0.0,0,45,45,100826,20.63,0
2491,51.715,5.222,-3.0839999999999996,-5.75159,38.48855,58.257819999999995,-0.020529,0.014268000000000001,0.8289780000000001,3530.0,4420.0,2680.0,47.6,10.12,00000000 00000000,32.825783989,34.956167469,22.081,-0.35,0.25,0.08,-0.06,-1.32,1.55,-0.08,-0.41,-0.91,32.825741353000005,34.956246609000004,22.099,0.21,63.95,0.09,307394070,2172,1000,11111100,32,25,100,0.0,0,20,20,100824,20.71,3
2492,50.208,4.937,-2.305,-10.73928,32.44406,62.729209999999995,0.019718,0.037649,0.859593,3620.0,4460.0,2710.0,47.6,10.08,00000000 00000000,32.825784047,34.956167371,22.082,-0.36,0.25,0.04,-0.06,-1.33,1.56,-0.04,-0.42,-0.91,32.825741353000005,34.956246609000004,22.099,0.21,63.95,0.09,307394095,2172,1000,11111100,32,25,100,0.0,0,45,45,100824,20.71,0
2493,48.543,4.607,-1.804,-10.77416,17.27178,64.40337,0.046959,0.055883,0.9029010000000001,3710.0,4530.0,2770.0,47.6,10.12,00000000 00000000,32.825784094,34.956167284,22.084,-0.37,0.24,0.01,-0.06,-1.33,1.57,-0.02,-0.43,-0.91,32.825741381,34.956246680999996,22.1,0.14,65.54,0.02,307394120,2172,1000,11111100,33,25,100,0.0,0,20,20,100824,20.8,3
2494,46.994,4.32,-1.6569999999999998,-8.15974,4.97347,58.394709999999996,0.039051999999999996,0.085672,0.934867,3840.0,4620.0,2820.0,47.6,10.07,00000000 00000000,32.825784149,34.956167185,22.084,-0.36,0.24,0.0,-0.06,-1.33,1.57,0.0,-0.43,-0.9,32.825741381,34.956246680999996,22.1,0.14,65.54,0.02,307394145,2172,1000,11111100,33,25,100,0.0,0,45,45,100824,20.8,0
2495,45.577,4.117,-1.8,-5.1714,-9.78708,50.65235,0.041349000000000004,0.103477,0.931623,3970.0,4700.0,2870.0,47.6,10.1,00000000 00000000,32.825784192,34.956167099,22.084,-0.36,0.23,-0.01,-0.06,-1.34,1.58,0.01,-0.42,-0.9,32.82574141,34.956246765,22.104,0.17,68.25,0.01,307394170,2172,1000,11111100,33,25,100,0.0,0,20,20,100826,20.63,3
2496,44.406000000000006,3.997,-2.315,-1.0790899999999999,-23.16217,42.268440000000005,0.017734,0.137899,0.956335,4140.0,4780.0,2880.0,47.6,10.07,00000000 00000000,32.825784246,34.956167003000004,22.084,-0.35,0.24,-0.02,-0.06,-1.34,1.58,0.02,-0.41,-0.9,32.82574141,34.956246765,22.104,0.17,68.25,0.01,307394195,2172,1000,11111100,33,25,100,0.0,0,45,45,100826,20.55,0
2497,43.507,3.977,-2.9539999999999997,1.8816599999999999,-21.22896,25.19957,-0.020718,0.161005,0.971725,4300.0,4840.0,2860.0,47.6,10.11,00000000 00000000,32.825784293000005,34.956166922,22.083,-0.34,0.26,-0.03,-0.06,-1.35,1.59,0.03,-0.38,-0.9,32.825741463,34.956246928,22.101,0.32,69.06,-0.05,307394220,2172,1000,11111100,32,25,100,0.0,0,20,20,100828,20.46,3
2498,43.045,4.024,-3.468,3.69699,-19.2187,13.87761,-0.065868,0.119959,0.918609,4440.0,4870.0,2820.0,47.6,10.09,00000000 00000000,32.825784355,34.95616683,22.083,-0.34,0.29,-0.04,-0.06,-1.35,1.59,0.04,-0.36,-0.92,32.825741463,34.956246928,22.101,0.32,69.06,-0.05,307394245,2172,1000,11111100,32,25,100,0.0,0,45,45,100826,20.55,0
2499,42.637,4.115,-4.058,5.29396,-27.040090000000003,16.31875,-0.133385,0.085602,0.8940530000000001,4540.0,4890.0,2800.0,47.6,10.12,00000000 00000000,32.825784412,34.956166747,22.082,-0.36,0.32,-0.06,-0.06,-1.36,1.6,0.06,-0.35,-0.96,32.825741539,34.95624714,22.1,0.43,67.1,-0.07,307394270,2172,1000,11111100,33,25,100,0.0,0,20,20,100826,20.63,3
2500,42.14,4.231,-4.8260000000000005,7.17663,-28.98415,21.63719,-0.182443,0.094999,0.934851,4660.0,4900.0,2740.0,47.6,10.05,00000000 00000000,32.825784489,34.956166645,22.08,-0.4,0.36,-0.09,-0.06,-1.36,1.6,0.09,-0.35,-1.01,32.825741539,34.95624714,22.1,0.43,67.1,-0.07,307394295,2172,1000,11111100,33,25,100,0.0,0,45,45,100826,20.55,0
2501,41.586999999999996,4.394,-5.46,10.0623,-17.02749,20.60272,-0.18504400000000001,0.10400899999999999,0.983424,4780.0,4920.0,2690.0,47.7,10.12,00000000 00000000,32.825784576,34.956166538000005,22.077,-0.44,0.41,-0.1,-0.06,-1.36,1.6,0.1,-0.34,-1.07,32.82574162,34.956247403,22.092,0.52,70.07,-0.15,307394320,2172,1000,11111100,32,25,100,0.0,0,20,20,100826,20.63,3
2502,41.108000000000004,4.638999999999999,-5.71,13.13321,0.5703600000000001,15.1039,-0.173414,0.117584,1.026665,4890.0,4920.0,2630.0,47.7,10.1,00000000 00000000,32.825784674,34.956166413000005,22.075,-0.48,0.46,-0.1,-0.06,-1.37,1.61,0.1,-0.33,-1.14,32.82574162,34.956247403,22.092,0.52,70.07,-0.15,307394345,2172,1000,11111100,32,25,100,0.0,0,45,45,100826,20.63,0
2503,40.784,4.967,-5.522,15.531939999999999,14.76481,9.13855,-0.128108,0.127378,1.04112,4930.0,4930.0,2610.0,47.7,10.07,00000000 00000000,32.825784783,34.956166284,22.073,-0.52,0.51,-0.1,-0.06,-1.37,1.61,0.1,-0.32,-1.2,32.825741732,34.956247708,22.092,0.62,66.69,-0.06,307394370,2172,1000,11111100,32,25,100,0.0,0,20,20,100824,20.71,3
2504,40.532,5.361000000000001,-5.132999999999999,17.72523,16.37493,9.06525,-0.071497,0.11713299999999999,1.0501260000000001,4930.0,4920.0,2590.0,47.7,10.08,00000000 00000000,32.825784901999995,34.956166139000004,22.07,-0.55,0.54,-0.09,-0.06,-1.38,1.62,0.09,-0.31,-1.24,32.825741732,34.956247708,22.092,0.62,66.69,-0.06,307394395,2172,1000,11111100,32,25,100,0.0,0,45,45,100826,20.63,0
2505,40.228,5.797000000000001,-4.808,18.8265,12.25985,12.71268,-0.0603,0.115674,1.059145,4910.0,4900.0,2580.0,47.7,10.12,00000000 00000000,32.825785026999995,34.956165995999996,22.068,-0.58,0.57,-0.08,-0.06,-1.38,1.62,0.07,-0.31,-1.28,32.825741848,34.95624809,22.085,0.76,70.1,-0.15,307394420,2172,1000,11111100,31,25,100,0.0,0,20,20,100824,20.71,3
2506,39.845,6.224,-4.539,17.078429999999997,13.86725,14.780070000000002,-0.06532,0.10862999999999999,1.090118,4940.0,4850.0,2510.0,47.7,10.07,00000000 00000000,32.825785159,34.956165837,22.067,-0.6,0.59,-0.06,-0.06,-1.39,1.63,0.06,-0.3,-1.31,32.825741848,34.95624809,22.085,0.76,70.1,-0.15,307394445,2172,1000,11111100,31,25,100,0.0,0,45,45,100824,20.71,0
2507,39.422,6.574,-4.157,13.35709,20.384510000000002,18.14515,-0.040086000000000004,0.076248,1.133753,4950.0,4830.0,2480.0,47.7,10.1,00000000 00000000,32.825785294,34.95616568,22.066,-0.63,0.61,-0.03,-0.06,-1.39,1.63,0.03,-0.31,-1.34,32.825741938,34.95624847,22.089,0.74,74.48,0.02,307394470,2172,1000,11111100,32,25,100,0.0,0,20,20,100824,20.71,3
2508,38.881,6.822,-3.681,9.23754,21.56298,22.63436,-0.032275,0.048427,1.0977629999999998,4950.0,4820.0,2470.0,47.7,10.08,00000000 00000000,32.825785431999996,34.956165506,22.066,-0.66,0.61,0.0,-0.06,-1.39,1.64,0.0,-0.33,-1.36,32.825741938,34.95624847,22.089,0.74,74.48,0.02,307394495,2172,1000,11111100,32,25,100,0.0,0,45,45,100826,20.55,0
2509,38.356,6.956,-3.2489999999999997,3.5608400000000002,17.55699,18.11576,0.027605,0.06464400000000001,1.0759889999999999,4950.0,4850.0,2500.0,47.7,10.12,00000000 00000000,32.825785569000004,34.956165335,22.066,-0.69,0.61,0.01,-0.06,-1.4,1.64,-0.01,-0.34,-1.38,32.825742055999996,34.956248849,22.081,0.75,69.79,-0.16,307394520,2172,1000,11111100,32,25,100,0.0,0,20,20,100826,20.63,3
2510,37.946999999999996,6.94,-2.9389999999999996,-3.18363,11.11364,14.85079,0.108501,0.037360000000000004,1.092157,4970.0,4850.0,2490.0,47.6,10.07,00000000 00000000,32.825785704,34.956165148000004,22.067,-0.69,0.59,0.03,-0.06,-1.4,1.64,-0.03,-0.36,-1.37,32.825742055999996,34.956248849,22.081,0.75,69.79,-0.16,307394545,2172,1000,11111100,32,25,100,0.0,0,45,45,100826,20.63,0
2511,37.59,6.754,-2.86,-10.05247,-3.6562099999999997,16.12407,0.11824000000000001,-0.013082,1.06792,4980.0,4880.0,2530.0,47.6,10.09,00000000 00000000,32.825785833000005,34.956164971999996,22.068,-0.7,0.55,0.05,-0.06,-1.41,1.65,-0.05,-0.39,-1.35,32.82574217,34.956249217,22.078,0.73,69.96,-0.11,307394570,2172,1000,11111100,32,25,100,0.0,0,20,20,100826,20.63,3
2512,37.184,6.4270000000000005,-3.2319999999999998,-13.400379999999998,-20.38833,16.12267,0.034456,-0.020502,1.08355,5030.0,4920.0,2540.0,47.6,10.07,00000000 00000000,32.825785955,34.956164783,22.069,-0.71,0.52,0.07,-0.06,-1.41,1.65,-0.07,-0.42,-1.34,32.82574217,34.956249217,22.078,0.73,69.96,-0.11,307394595,2172,1000,11111100,32,25,100,0.0,0,45,45,100826,20.63,0
2513,36.869,6.101,-3.852,-10.38829,-24.633960000000002,11.3787,-0.06439600000000001,-0.012279,1.088629,5110.0,4990.0,2560.0,47.6,10.13,00000000 00000000,32.825786070999996,34.956164601,22.072,-0.74,0.51,0.09,-0.06,-1.42,1.66,-0.09,-0.45,-1.35,32.825742285,34.9562497,22.092,0.93,74.21,0.27,307394620,2172,1000,11111100,32,25,100,0.0,0,20,20,100826,20.63,3
2514,36.626999999999995,5.848,-4.422,-9.296619999999999,-17.488529999999997,10.287230000000001,-0.123574,-0.007377,1.042083,5200.0,5030.0,2560.0,47.6,10.1,00000000 00000000,32.825786187,34.956164394,22.075,-0.79,0.51,0.1,-0.06,-1.42,1.66,-0.1,-0.48,-1.39,32.825742285,34.9562497,22.092,0.93,74.21,0.27,307394645,2172,1000,11111100,32,25,100,0.0,0,45,45,100826,20.63,0
2515,36.17,5.55,-4.771,-13.765479999999998,-9.36229,14.1632,-0.09078,0.015005000000000001,0.994654,5270.0,5090.0,2570.0,47.6,10.12,00000000 00000000,32.825786271,34.956164188,22.079,-0.85,0.51,0.1,-0.06,-1.42,1.66,-0.1,-0.5,-1.44,32.82574244,34.956250178000005,22.116,0.96,69.04,0.41,307394670,2172,1000,11111100,31,25,100,0.0,0,20,20,100824,20.8,3
2516,35.797,5.103,-4.948,-19.03639,-1.50515,18.25017,-0.00011999999999999999,0.009894,1.019666,5330.0,5150.0,2610.0,47.6,10.08,00000000 00000000,32.825786387,34.956163954000004,22.081,-0.88,0.51,0.1,-0.06,-1.43,1.67,-0.1,-0.52,-1.46,32.82574244,34.956250178000005,22.116,0.96,69.04,0.41,307394695,2172,1000,11111100,31,25,100,0.0,0,45,45,100824,20.8,0
2517,35.472,4.55,-4.921,-21.24895,5.292009999999999,20.04737,0.081729,0.011618999999999999,1.016905,5380.0,5210.0,2650.0,47.6,10.11,00000000 00000000,32.825786519,34.956163731,22.086,-0.9,0.51,0.1,-0.06,-1.43,1.67,-0.1,-0.54,-1.47,32.825742709000004,34.956250635,22.129,1.04,55.16,0.26,307394720,2172,1000,11111100,30,25,100,0.0,0,20,20,100824,20.71,3
2518,34.989000000000004,3.9730000000000003,-4.83,-20.90299,3.16728,22.56137,0.13784100000000002,0.016819999999999998,0.9864450000000001,5420.0,5280.0,2720.0,47.6,10.1,00000000 00000000,32.825786633,34.956163488,22.089,-0.9,0.49,0.11,-0.06,-1.44,1.67,-0.1,-0.55,-1.46,32.825742709000004,34.956250635,22.129,1.04,55.16,0.26,307394745,2172,1000,11111100,30,25,100,0.0,0,45,45,100826,20.63,0
2519,34.617,3.4389999999999996,-4.864,-17.208820000000003,-2.3906400000000003,20.74713,0.143427,0.041083999999999996,0.9617100000000001,5460.0,5380.0,2810.0,47.6,10.12,00000000 00000000,32.825786768,34.956163266,22.093,-0.89,0.48,0.1,-0.06,-1.44,1.68,-0.1,-0.56,-1.44,32.825742982,34.956251122,22.14,1.09,56.53,0.15,307394770,2172,1000,11111100,30,25,100,0.0,0,20,20,100826,20.63,3
2520,34.241,3.055,-4.949,-10.49517,-1.3501299999999998,11.78485,0.138845,0.048577999999999996,0.958506,5500.0,5460.0,2880.0,47.7,10.07,00000000 00000000,32.825786877,34.956163028,22.096,-0.88,0.47,0.1,-0.06,-1.44,1.68,-0.09,-0.56,-1.43,32.825742982,34.956251122,22.14,1.09,56.53,0.15,307394795,2172,1000,11111100,30,25,100,0.0,0,45,45,100826,20.55,0
2521,34.067,2.861,-4.952,-3.67962,0.9844299999999999,7.757280000000001,0.110597,0.027261,0.9049159999999999,5520.0,5540.0,2950.0,47.7,10.1,00000000 00000000,32.825786988000004,34.95616281,22.099,-0.87,0.46,0.08,-0.06,-1.45,1.68,-0.08,-0.56,-1.41,32.825743204,34.956251549,22.135,0.94,58.35,-0.08,307394820,2172,1000,11111100,30,25,100,0.0,0,20,20,100826,20.55,3
2522,33.865,2.8080000000000003,-4.966,0.39242,-1.32082,9.031930000000001,0.052885,0.010403,0.8475459999999999,5550.0,5560.0,2950.0,47.7,10.09,00000000 00000000,32.825787093,34.956162577,22.101,-0.87,0.46,0.05,-0.06,-1.45,1.69,-0.05,-0.56,-1.4,32.825743204,34.956251549,22.135,0.94,58.35,-0.08,307394845,2172,1000,11111100,30,25,100,0.0,0,45,45,100824,20.71,0
2523,33.622,2.8360000000000003,-5.003,3.46996,0.7267899999999999,8.11771,-0.004723,0.028025,0.861325,5580.0,5570.0,2950.0,47.7,10.1,00000000 00000000,32.82578719,34.956162358,22.103,-0.88,0.46,0.02,-0.06,-1.46,1.69,-0.02,-0.57,-1.41,32.825743399000004,34.95625194,22.138,0.85,59.58,-0.01,307394870,2172,1000,11111100,30,25,100,0.0,0,20,20,100824,20.71,3
2524,33.408,2.93,-4.918,4.66483,6.46874,9.98574,-0.005490999999999999,0.025107,0.869072,5610.0,5570.0,2950.0,47.7,10.09,00000000 00000000,32.825787295,34.956162119,22.103,-0.89,0.46,-0.01,-0.06,-1.46,1.69,0.01,-0.57,-1.42,32.825743399000004,34.95625194,22.138,0.85,59.58,-0.01,307394895,2172,1000,11111100,30,25,100,0.0,0,45,45,100826,20.63,0
2525,33.104,2.9789999999999996,-4.74,1.23022,8.97247,19.02514,-0.009028,0.0077469999999999995,0.8804299999999999,5610.0,5590.0,2970.0,47.7,10.13,00000000 00000000,32.825787412,34.956161894,22.103,-0.91,0.47,-0.04,-0.06,-1.46,1.69,0.04,-0.57,-1.44,32.825743632,34.956252354,22.135,0.93,56.26,-0.06,307394920,2172,1000,11111100,30,25,100,0.0,0,20,20,100826,20.63,3
2526,32.537,2.9,-4.49,-3.23759,14.635720000000001,25.05333,-0.030047000000000004,0.043936,0.925989,5650.0,5610.0,2970.0,47.7,10.07,00000000 00000000,32.825787519,34.956161646,22.102,-0.93,0.48,-0.06,-0.06,-1.47,1.7,0.07,-0.58,-1.46,32.825743632,34.956252354,22.135,0.93,56.26,-0.06,307394945,2172,1000,11111100,30,25,100,0.0,0,45,45,100824,20.71,0
2527,32.013000000000005,2.7489999999999997,-4.0889999999999995,-4.2537199999999995,18.370060000000002,28.05987,-0.024055,0.044652,0.9300799999999999,5670.0,5660.0,3030.0,47.7,10.12,00000000 00000000,32.825787655999996,34.956161415,22.101,-0.95,0.5,-0.08,-0.06,-1.47,1.7,0.08,-0.58,-1.48,32.825743903,34.956252786,22.132,1.01,53.58,-0.11,307394970,2172,1000,11111100,30,25,100,0.0,0,20,20,100824,20.71,3
2528,31.241,2.5860000000000003,-3.6889999999999996,-4.4299800000000005,16.711679999999998,34.78718,-0.017941,0.04765,0.9811610000000001,5700.0,5720.0,3070.0,47.7,10.08,00000000 00000000,32.82578777,34.956161157,22.099,-0.97,0.51,-0.09,-0.06,-1.48,1.7,0.1,-0.58,-1.49,32.825743903,34.956252786,22.132,1.01,53.58,-0.11,307394995,2172,1000,11111100,30,25,100,0.0,0,45,45,100824,20.71,8
2529,30.261999999999997,2.4419999999999997,-3.315,-2.14189,16.45666,41.72002,0.021067,0.068547,1.045892,5720.0,5800.0,3140.0,47.7,10.07,00000000 00000000,32.825787876999996,34.956160914,22.096,-0.97,0.52,-0.09,-0.06,-1.48,1.7,0.1,-0.57,-1.5,32.825744121999996,34.956253200999996,22.119,0.91,57.97,-0.25,307395020,2172,1000,11111100,30,25,100,0.0,0,20,20,100826,20.63,3
2530,29.159000000000002,2.355,-2.9530000000000003,-0.15317999999999998,16.39643,46.568740000000005,0.037160000000000006,0.075037,1.107158,5780.0,5870.0,3170.0,47.7,10.1,00000000 00000000,32.825787995,34.956160652,22.094,-0.97,0.52,-0.07,-0.06,-1.49,1.71,0.08,-0.56,-1.51,32.825744121999996,34.956253200999996,22.119,0.91,57.97,-0.25,307395045,2172,1000,11111100,30,25,100,0.0,0,45,45,100826,20.63,0
2531,27.921,2.307,-2.612,1.03629,14.3135,52.33598,0.030982,0.053203,1.099018,5860.0,5940.0,3180.0,47.7,10.11,00000000 00000000,32.825788112,34.956160409,22.093,-0.97,0.53,-0.04,-0.06,-1.49,1.71,0.05,-0.55,-1.5,32.825744356,34.956253632,22.115,0.96,57.41,-0.13,307395070,2172,1000,11111100,31,25,100,0.0,0,20,20,100826,20.55,3
2532,26.603,2.2969999999999997,-2.3369999999999997,2.8738799999999998,11.37814,51.33132,0.004303,0.027608999999999998,1.1290950000000002,5950.0,6030.0,3210.0,47.7,10.07,00000000 00000000,32.825788232,34.956160147,22.092,-0.98,0.53,-0.02,-0.06,-1.49,1.71,0.02,-0.55,-1.51,32.825744356,34.956253632,22.115,0.96,57.41,-0.13,307395095,2172,1000,11111100,31,25,100,0.0,0,45,45,100826,20.55,0
2533,25.381999999999998,2.365,-2.123,6.7874300000000005,11.05894,43.87996,0.10685599999999999,0.070138,1.196718,6030.0,6120.0,3240.0,47.7,10.09,00000000 00000000,32.825788343,34.956159903,22.093,-0.98,0.53,0.01,-0.06,-1.5,1.71,-0.01,-0.55,-1.5,32.82574458,34.956254072,22.119,0.96,58.86,0.07,307395120,2172,1000,11111100,31,25,100,0.0,0,20,20,100826,20.55,3
2534,24.416999999999998,2.5610000000000004,-1.855,10.88158,12.89643,31.43696,0.194943,0.098661,1.1538760000000001,6100.0,6210.0,3250.0,47.7,10.1,00000000 00000000,32.825788463,34.956159644,22.094,-0.95,0.53,0.06,-0.05,-1.5,1.71,-0.06,-0.54,-1.47,32.82574458,34.956254072,22.119,0.96,58.86,0.07,307395145,2172,1000,11111100,31,25,100,0.0,0,45,45,100826,20.55,0
2535,23.831999999999997,2.815,-1.6019999999999999,10.38523,6.24573,15.45486,0.232084,0.053132000000000006,1.106099,6150.0,6280.0,3270.0,47.7,10.12,00000000 00000000,32.825788575,34.956159415,22.097,-0.9,0.51,0.1,-0.05,-1.51,1.71,-0.09,-0.53,-1.43,32.825744805,34.95625451,22.125,0.96,58.81,0.05,307395170,2172,1000,11111100,29,25,100,0.0,0,20,20,100828,20.46,3
2536,23.503,3.0460000000000003,-1.6669999999999998,8.718010000000001,-9.5495,12.26499,0.135406,-0.025689,1.033959,6170.0,6320.0,3290.0,47.7,10.05,00000000 00000000,32.825788689,34.956159179000004,22.1,-0.86,0.49,0.12,-0.05,-1.51,1.71,-0.11,-0.54,-1.38,32.825744805,34.95625451,22.125,0.96,58.81,0.05,307395195,2172,1000,11111100,29,25,100,0.0,0,45,45,100826,20.55,0
2537,23.250999999999998,3.222,-2.0909999999999997,6.53501,-22.57144,16.65974,0.004461,-0.057814,0.9666790000000001,6210.0,6350.0,3280.0,47.7,10.08,00000000 00000000,32.825788836,34.956158971,22.104,-0.86,0.47,0.12,-0.05,-1.51,1.71,-0.11,-0.56,-1.36,32.82574508,34.956254946,22.114,1.01,53.23,-0.21,307395220,2172,1000,11111100,28,25,100,0.0,0,20,20,100826,20.55,3
2538,22.788,3.3510000000000004,-2.8,5.80279,-31.410109999999996,19.54834,-0.062945,-0.041183,0.93442,6290.0,6360.0,3220.0,47.7,10.09,00000000 00000000,32.82578894,34.956158735,22.107,-0.89,0.45,0.1,-0.05,-1.52,1.72,-0.1,-0.59,-1.38,32.82574508,34.956254946,22.114,1.01,53.23,-0.21,307395245,2172,1000,11111100,28,25,100,0.0,0,45,45,100828,20.38,0
2539,22.392,3.4819999999999998,-3.69,7.80041,-35.81994,20.97046,-0.018684,0.020311000000000003,0.9820700000000001,6420.0,6370.0,3110.0,47.7,10.13,00000000 00000000,32.825789087,34.956158518,22.109,-0.91,0.45,0.09,-0.05,-1.52,1.72,-0.08,-0.61,-1.4,32.825745353,34.956255362,22.12,0.99,52.41,0.06,307395270,2172,1000,11111100,28,25,100,0.0,0,20,20,100828,20.38,3
2540,21.874000000000002,3.681,-4.584,10.66055,-31.80684,19.122320000000002,0.054209,0.048066000000000005,1.0172299999999999,6550.0,6400.0,3010.0,47.7,10.08,00000000 00000000,32.825789189,34.95615827,22.112,-0.93,0.45,0.09,-0.05,-1.53,1.72,-0.08,-0.61,-1.41,32.825745353,34.956255362,22.12,0.99,52.41,0.06,307395295,2172,1000,11111100,28,25,100,0.0,0,45,45,100828,20.46,0
2541,21.405,3.8989999999999996,-5.266,9.1295,-18.65703,17.55743,0.06016900000000001,0.05821799999999999,0.9600690000000001,6680.0,6430.0,2920.0,47.7,10.12,00000000 00000000,32.825789291999996,34.956158044,22.115,-0.93,0.45,0.09,-0.05,-1.53,1.72,-0.09,-0.61,-1.41,32.825745681,34.956255838000004,22.145,1.15,50.69,0.48,307395320,2172,1000,11111100,28,25,100,0.0,0,20,20,100826,20.55,3
2542,20.97,4.03,-5.577999999999999,4.38681,-6.05901,16.47516,0.066026,0.083691,0.869008,6790.0,6470.0,2840.0,47.7,10.07,00000000 00000000,32.825789393,34.956157793,22.117,-0.93,0.45,0.07,-0.05,-1.54,1.72,-0.07,-0.61,-1.41,32.825745681,34.956255838000004,22.145,1.15,50.69,0.48,307395345,2172,1000,11111100,28,25,100,0.0,0,45,45,100828,20.46,0
2543,20.564,4.08,-5.709,4.12824,-3.10482,16.34905,0.045676999999999995,0.095705,0.8383229999999999,6840.0,6510.0,2820.0,47.7,10.12,00000000 00000000,32.825789498,34.956157565,22.119,-0.93,0.46,0.04,-0.05,-1.54,1.72,-0.03,-0.6,-1.41,32.825746005,34.956256245,22.144,1.05,46.92,-0.07,307395370,2172,1000,11111100,28,25,100,0.0,0,20,20,100828,20.46,3
2544,20.160999999999998,4.196000000000001,-5.792000000000001,8.355319999999999,0.10514000000000001,13.43617,-0.024914,0.06779600000000001,0.836992,6890.0,6520.0,2780.0,47.7,10.07,00000000 00000000,32.825789604,34.956157311999995,22.12,-0.94,0.47,0.0,-0.05,-1.54,1.72,0.0,-0.59,-1.42,32.825746005,34.956256245,22.144,1.05,46.92,-0.07,307395395,2172,1000,11111100,28,25,100,0.0,0,45,45,100828,20.46,0
2545,20.04,4.412,-5.68,10.56212,11.01479,3.14067,-0.096514,0.050996,0.805479,6920.0,6530.0,2760.0,47.7,10.1,00000000 00000000,32.825789758,34.956157083,22.12,-0.98,0.49,-0.04,-0.05,-1.55,1.72,0.04,-0.59,-1.45,32.825746285,34.956256632,22.139,0.95,49.38,-0.1,307395420,2172,1000,11111100,28,25,100,0.0,0,20,20,100828,20.46,3
2546,20.058,4.663,-5.2829999999999995,8.84948,19.6888,-5.35859,-0.10748599999999998,0.023887000000000002,0.830893,6910.0,6520.0,2720.0,47.7,10.09,00000000 00000000,32.82578987,34.956156816,22.118,-1.02,0.5,-0.09,-0.05,-1.55,1.72,0.09,-0.59,-1.49,32.825746285,34.956256632,22.139,0.95,49.38,-0.1,307395445,2172,1000,11111100,28,25,100,0.0,0,45,45,100826,20.55,0
2547,20.403,4.853,-4.718999999999999,5.56847,23.59135,-8.22203,-0.09450900000000001,-0.008572,0.8975719999999999,6860.0,6490.0,2720.0,47.7,10.1,00000000 00000000,32.82579005,34.956156575,22.117,-1.06,0.51,-0.12,-0.05,-1.56,1.72,0.13,-0.61,-1.53,32.8257466,34.956257083000004,22.144,1.1,50.54,0.05,307395470,2172,1000,11111100,28,25,100,0.0,0,20,20,100826,20.55,3
2548,20.605,4.96,-4.093999999999999,1.56493,24.21138,-7.6588899999999995,-0.064759,-0.046217,0.951997,6790.0,6450.0,2750.0,47.7,10.08,00000000 00000000,32.825790164000004,34.956156285,22.113,-1.1,0.49,-0.15,-0.05,-1.56,1.71,0.15,-0.63,-1.56,32.8257466,34.956257083000004,22.144,1.1,50.54,0.05,307395495,2172,1000,11111100,28,25,100,0.0,0,45,45,100826,20.55,0
2549,20.888,4.928,-3.5210000000000004,-4.1982800000000005,21.260579999999997,-0.9900700000000001,-0.055937,-0.037537,1.0305959999999998,6700.0,6440.0,2810.0,47.7,10.08,00000000 00000000,32.825790333,34.956155996,22.11,-1.14,0.48,-0.15,-0.05,-1.56,1.71,0.16,-0.66,-1.59,32.825746891,34.956257554000004,22.136,1.09,53.76,-0.17,307395520,2172,1000,11111100,28,25,100,0.0,0,20,20,100826,20.55,3
2550,20.801,4.777,-3.0180000000000002,-6.78948,20.33846,7.9711,-0.040856,0.001757,1.114087,6650.0,6420.0,2820.0,47.7,10.1,00000000 00000000,32.82579044,34.956155686,22.106,-1.17,0.47,-0.14,-0.05,-1.57,1.71,0.14,-0.68,-1.61,32.825746891,34.956257554000004,22.136,1.09,53.76,-0.17,307395545,2172,1000,11111100,28,25,100,0.0,0,45,45,100828,20.46,0
2551,20.573,4.59,-2.483,-7.16021,24.13668,10.0335,-0.004018,0.030414,1.171719,6600.0,6440.0,2880.0,47.7,10.1,00000000 00000000,32.825790546,34.956155368000005,22.105,-1.2,0.46,-0.1,-0.05,-1.57,1.71,0.11,-0.7,-1.63,32.825747276,34.956258094,22.138,1.32,49.94,-0.01,307395570,2172,1000,11111100,28,25,100,0.0,0,20,20,100828,20.38,3
2552,20.358,4.41,-1.847,-6.320119999999999,28.06516,7.24603,0.065751,0.07954,1.2113209999999999,6560.0,6460.0,2930.0,47.7,10.08,00000000 00000000,32.825790649,34.956155046,22.103,-1.2,0.45,-0.05,-0.05,-1.58,1.71,0.06,-0.71,-1.63,32.825747276,34.956258094,22.138,1.32,49.94,-0.01,307395595,2172,1000,11111100,28,25,100,0.0,0,45,45,100828,20.46,0
2553,20.24,4.262,-1.069,-4.91022,34.15639,2.56914,0.085689,0.133048,1.214041,6500.0,6490.0,3020.0,47.7,10.1,00000000 00000000,32.825790751999996,34.956154725,22.103,-1.19,0.45,0.0,-0.05,-1.58,1.71,0.01,-0.71,-1.61,32.825747631999995,34.956258533,22.131,1.14,46.14,-0.14,307395620,2172,1000,11111100,28,25,100,0.0,0,20,20,100828,20.46,3
2554,20.235,4.208,-0.32799999999999996,1.71101,21.9283,-1.9694,0.107447,0.139209,1.1858309999999999,6420.0,6520.0,3120.0,47.7,10.07,00000000 00000000,32.825790854,34.95615441,22.103,-1.16,0.45,0.04,-0.05,-1.59,1.71,-0.03,-0.69,-1.59,32.825747631999995,34.956258533,22.131,1.14,46.14,-0.14,307395645,2172,1000,11111100,28,25,100,0.0,0,45,45,100826,20.63,0
2555,20.305999999999997,4.364,0.006999999999999999,10.16775,6.1910300000000005,-1.1667399999999999,0.162295,0.114424,1.168146,6370.0,6500.0,3150.0,47.7,10.12,00000000 00000000,32.825790959,34.956154134,22.106,-1.12,0.45,0.09,-0.05,-1.59,1.71,-0.08,-0.68,-1.55,32.825747985999996,34.956258983000005,22.132,1.15,47.23,-0.02,307395670,2172,1000,11111100,28,25,100,0.0,0,20,20,100826,20.63,3
2556,20.277,4.659,0.13699999999999998,12.80333,7.005380000000001,3.61352,0.125949,0.106201,1.086265,6340.0,6470.0,3160.0,47.7,10.08,00000000 00000000,32.825791061,34.956153836999995,22.108,-1.09,0.44,0.12,-0.05,-1.59,1.7,-0.12,-0.67,-1.51,32.825747985999996,34.956258983000005,22.132,1.15,47.23,-0.02,307395695,2172,1000,11111100,28,25,100,0.0,0,45,45,100826,20.63,0
2557,20.195999999999998,4.994,0.381,13.76965,12.27899,2.49349,0.071393,0.08605,1.015414,6310.0,6460.0,3170.0,47.7,10.1,00000000 00000000,32.825791164,34.95615358,22.113,-1.06,0.44,0.14,-0.05,-1.6,1.7,-0.13,-0.67,-1.48,32.825748414,34.956259418,22.14,1.25,40.57,0.15,307395720,2172,1000,11111100,28,25,100,0.0,0,20,20,100826,20.55,3
2558,20.225,5.327999999999999,0.659,12.47598,7.0361899999999995,-4.21247,0.092096,0.079215,0.952523,6290.0,6440.0,3170.0,47.7,10.09,00000000 00000000,32.825791261999996,34.956153298000004,22.116,-1.04,0.43,0.13,-0.05,-1.6,1.7,-0.13,-0.67,-1.45,32.825748414,34.956259418,22.14,1.25,40.57,0.15,307395745,2172,1000,11111100,28,25,100,0.0,0,45,45,100828,20.46,0
2559,20.392,5.585,0.638,7.311839999999999,-12.05659,-6.77935,0.107976,0.064109,0.9388059999999999,6260.0,6410.0,3180.0,47.6,10.1,00000000 00000000,32.82579136,34.956153052,22.12,-1.01,0.41,0.12,-0.05,-1.61,1.7,-0.11,-0.67,-1.42,32.825748796,34.956259782,22.144,1.09,39.03,0.01,307395770,2172,1000,11111100,28,25,100,0.0,0,20,20,100828,20.46,3
2560,20.519000000000002,5.651,0.038,-2.36103,-36.15074,-2.3677799999999998,0.13989100000000002,0.057053999999999994,0.954513,6280.0,6370.0,3140.0,47.6,10.07,00000000 00000000,32.825791453,34.956152783,22.123,-0.98,0.39,0.11,-0.05,-1.61,1.69,-0.1,-0.67,-1.38,32.825748796,34.956259782,22.144,1.09,39.03,0.01,307395795,2172,1000,11111100,28,25,100,0.0,0,45,45,100826,20.55,0
2561,20.504,5.474,-1.058,-11.040460000000001,-48.719440000000006,4.21523,0.131974,0.055372000000000005,0.9917969999999999,6340.0,6370.0,3120.0,47.6,10.12,00000000 00000000,32.825791543,34.956152555,22.127,-0.95,0.37,0.1,-0.05,-1.62,1.69,-0.09,-0.68,-1.35,32.825749194000004,34.956260239,22.158,1.23,44.08,0.28,307395820,2172,1000,11111100,28,25,100,0.0,0,20,20,100826,20.63,3
2562,20.399,5.148,-2.2430000000000003,-13.98144,-42.73968,3.6798,0.05878200000000001,0.077346,1.000521,6460.0,6400.0,3060.0,47.6,10.07,00000000 00000000,32.825791627,34.956152300999996,22.13,-0.94,0.36,0.1,-0.04,-1.62,1.69,-0.1,-0.69,-1.32,32.825749194000004,34.956260239,22.158,1.23,44.08,0.28,307395845,2172,1000,11111100,28,25,100,0.0,0,45,45,100828,20.46,0
2563,20.396,4.798,-3.122,-13.561760000000001,-27.29348,-1.9278,-0.008674,0.102476,0.906148,6560.0,6450.0,3020.0,47.6,10.1,00000000 00000000,32.825791712,34.95615208,22.134,-0.94,0.37,0.1,-0.04,-1.62,1.69,-0.09,-0.68,-1.33,32.825749504,34.956260666999995,22.163,1.05,49.49,0.05,307395870,2172,1000,11111100,28,25,100,0.0,0,20,20,100828,20.46,3
2564,20.531,4.48,-3.6260000000000003,-12.38822,-14.4065,-7.31451,-0.057429999999999995,0.063023,0.863775,6630.0,6500.0,3000.0,47.6,10.1,00000000 00000000,32.825791797,34.956151825999996,22.136,-0.95,0.38,0.07,-0.04,-1.63,1.68,-0.06,-0.68,-1.34,32.825749504,34.956260666999995,22.163,1.05,49.49,0.05,307395895,2172,1000,11111100,28,25,100,0.0,0,45,45,100826,20.55,0
2565,20.774,4.191,-3.819,-11.6511,-2.9683900000000003,-8.06098,-0.063894,0.01187,0.8606799999999999,6650.0,6540.0,3010.0,47.6,10.12,00000000 00000000,32.825791886,34.956151596,22.138,-0.98,0.38,0.03,-0.04,-1.63,1.68,-0.03,-0.68,-1.37,32.825749851,34.95626105,22.154,1.05,43.05,-0.17,307395920,2172,1000,11111100,28,25,100,0.0,0,20,20,100826,20.63,3
2566,20.889,3.927,-3.795,-9.56949,3.08773,1.47846,-0.06196,0.012107999999999999,0.8618370000000001,6650.0,6550.0,3050.0,47.6,10.05,00000000 00000000,32.825791972,34.956151328000004,22.138,-1.01,0.38,0.0,-0.04,-1.64,1.67,0.0,-0.69,-1.39,32.825749851,34.95626105,22.154,1.05,43.05,-0.17,307395945,2172,1000,11111100,28,25,100,0.0,0,45,45,100824,20.71,0
2567,20.729,3.735,-3.7239999999999998,-4.1357,2.73435,12.55594,-0.07761799999999999,0.051052999999999994,0.8837389999999999,6640.0,6570.0,3110.0,47.6,10.11,00000000 00000000,32.825792062,34.956151086999995,22.139,-1.04,0.38,-0.03,-0.04,-1.64,1.67,0.03,-0.7,-1.42,32.825750192,34.956261498,22.171,1.13,48.09,0.28,307395970,2172,1000,11111100,28,25,100,0.0,0,20,20,100826,20.63,3
2568,20.343,3.6839999999999997,-3.655,1.7960599999999998,6.665039999999999,17.48794,-0.10304400000000001,0.068152,0.934475,6660.0,6590.0,3130.0,47.7,10.08,00000000 00000000,32.825792151,34.956150804,22.138,-1.07,0.4,-0.05,-0.04,-1.65,1.67,0.06,-0.69,-1.45,32.825750192,34.956261498,22.171,1.13,48.09,0.28,307395995,2172,1000,11111100,28,25,100,0.0,0,45,45,100826,20.63,8
2569,19.912,3.7460000000000004,-3.338,4.47273,22.1382,16.50749,-0.108027,0.080069,0.9726969999999999,6660.0,6620.0,3190.0,47.7,10.08,00000000 00000000,32.825792246,34.956150548000004,22.137,-1.11,0.41,-0.06,-0.04,-1.65,1.66,0.07,-0.69,-1.49,32.825750479,34.956261933,22.164,1.03,51.95,-0.14,307396020,2172,1000,11111100,28,25,100,0.0,0,20,20,100826,20.63,3
2570,19.531,3.821,-2.617,2.59472,35.8472,13.889129999999998,-0.061989999999999996,0.087426,1.002845,6650.0,6630.0,3210.0,47.7,10.08,00000000 00000000,32.825792342,34.956150246,22.135,-1.14,0.43,-0.07,-0.04,-1.66,1.66,0.07,-0.68,-1.52,32.825750479,34.956261933,22.164,1.03,51.95,-0.14,307396045,2172,1000,11111100,28,25,100,0.0,0,45,45,100828,20.46,0
2571,19.18,3.82,-1.7069999999999999,-2.0674099999999997,36.88473,16.42152,0.023691,0.07070599999999999,1.045069,6600.0,6640.0,3280.0,47.7,10.09,00000000 00000000,32.825792445,34.956149976999995,22.134,-1.15,0.44,-0.06,-0.04,-1.66,1.65,0.07,-0.68,-1.53,32.825750858,34.956262329,22.162,1.12,41.59,-0.08,307396070,2172,1000,11111100,32,25,100,0.0,0,20,20,100828,20.46,3
2572,18.683,3.68,-0.857,-8.43029,33.58658,23.59965,0.06718500000000001,0.086961,1.091697,6560.0,6650.0,3330.0,47.7,10.07,00000000 00000000,32.825792544,34.95614967,22.133,-1.14,0.44,-0.04,-0.04,-1.66,1.65,0.05,-0.67,-1.52,32.825750858,34.956262329,22.162,1.12,41.59,-0.08,307396095,2172,1000,11111100,32,25,100,0.0,0,45,45,100828,20.46,0
2573,18.046,3.404,-0.111,-12.51314,28.803079999999998,27.34439,0.073374,0.136553,1.0834629999999998,6520.0,6690.0,3400.0,47.7,10.11,00000000 00000000,32.825792647,34.956149405,22.132,-1.12,0.44,-0.02,-0.04,-1.67,1.65,0.03,-0.66,-1.5,32.825751202,34.956262716,22.152,1.05,43.48,-0.2,307396120,2172,1000,11111100,33,25,100,0.0,0,20,20,100826,20.63,3
2574,17.389,3.069,0.512,-14.27462,24.79906,24.495060000000002,0.04319,0.135108,1.069644,6490.0,6760.0,3490.0,47.7,10.07,00000000 00000000,32.82579275,34.956149108000005,22.132,-1.09,0.46,0.0,-0.04,-1.67,1.64,0.01,-0.64,-1.48,32.825751202,34.956262716,22.152,1.05,43.48,-0.2,307396145,2172,1000,11111100,33,25,100,0.0,0,45,45,100826,20.63,0
2575,16.832,2.7089999999999996,1.081,-14.92495,21.57163,20.96025,0.003991,0.07924199999999999,1.0564069999999999,6470.0,6850.0,3590.0,47.7,10.09,00000000 00000000,32.825792858,34.956148856,22.132,-1.08,0.47,0.01,-0.04,-1.68,1.64,0.0,-0.62,-1.46,32.825751563000004,34.956263116,22.139,1.1,43.28,-0.3,307396170,2172,1000,11111100,32,25,100,0.0,0,20,20,100826,20.55,3
2576,16.305,2.349,1.411,-14.611970000000001,4.772819999999999,21.959310000000002,0.033446,0.028814999999999997,1.067848,6460.0,6940.0,3670.0,47.7,10.08,00000000 00000000,32.825792965,34.956148568,22.133,-1.07,0.47,0.02,-0.04,-1.68,1.63,-0.01,-0.62,-1.45,32.825751563000004,34.956263116,22.139,1.1,43.28,-0.3,307396195,2172,1000,11111100,32,25,100,0.0,0,45,45,100828,20.46,0
2577,15.662,2.023,1.2690000000000001,-12.21487,-12.76352,30.0976,0.086138,0.016752,1.095033,6480.0,7050.0,3720.0,47.7,10.11,00000000 00000000,32.825793073,34.956148326,22.134,-1.04,0.46,0.04,-0.04,-1.69,1.63,-0.03,-0.62,-1.42,32.82575191,34.956263588,22.151,1.17,48.9,0.25,307396220,2172,1000,11111100,32,25,100,0.0,0,20,20,100828,20.46,3
2578,14.853,1.791,0.851,-7.71851,-15.63764,32.24825,0.053516999999999995,0.022322,1.058137,6560.0,7170.0,3730.0,47.6,10.08,00000000 00000000,32.825793176,34.95614805,22.136,-1.02,0.45,0.06,-0.04,-1.69,1.62,-0.06,-0.62,-1.4,32.82575191,34.956263588,22.151,1.17,48.9,0.25,307396245,2172,1000,11111100,32,25,100,0.0,0,45,45,100824,20.71,0
2579,14.138,1.62,0.515,-7.30607,-9.40037,25.15361,0.032298,0.020929,0.9836969999999999,6650.0,7290.0,3730.0,47.6,10.09,00000000 00000000,32.82579328,34.956147819,22.138,-1.0,0.44,0.07,-0.04,-1.7,1.61,-0.06,-0.62,-1.38,32.825752213,34.956264048,22.154,1.09,52.2,0.0,307396270,2172,1000,11111100,32,25,100,0.0,0,20,20,100824,20.71,3
2580,13.599,1.419,0.336,-8.94773,-5.43759,18.19752,0.066857,0.031297000000000005,0.965153,6720.0,7390.0,3730.0,47.6,10.07,00000000 00000000,32.82579338,34.956147551,22.14,-0.99,0.44,0.06,-0.04,-1.7,1.61,-0.06,-0.62,-1.36,32.825752213,34.956264048,22.154,1.09,52.2,0.0,307396295,2172,1000,11111100,32,25,100,0.0,0,45,45,100824,20.71,0
2581,13.196,1.207,0.071,-7.42468,-18.247889999999998,16.34206,0.15496500000000002,0.008793,1.006329,6760.0,7450.0,3730.0,47.6,10.1,00000000 00000000,32.825793483000005,34.956147327,22.142,-0.96,0.43,0.06,-0.04,-1.71,1.6,-0.05,-0.62,-1.33,32.825752566999995,34.95626445,22.159,1.08,43.78,0.1,307396320,2172,1000,11111100,32,25,100,0.0,0,20,20,100824,20.71,3
2582,12.743,1.0659999999999998,-0.655,-3.9161099999999998,-38.26654,20.43263,0.161677,-0.000717,1.0237209999999999,6830.0,7520.0,3680.0,47.6,10.07,00000000 00000000,32.82579358,34.956147074,22.144,-0.92,0.42,0.06,-0.04,-1.71,1.6,-0.06,-0.62,-1.29,32.825752566999995,34.95626445,22.159,1.08,43.78,0.1,307396345,2172,1000,11111100,32,25,100,0.0,0,45,45,100828,20.46,0
2583,12.202,0.971,-1.767,-2.7433,-47.55673,22.30555,0.136272,0.062348,1.035401,6960.0,7600.0,3620.0,47.6,10.1,00000000 00000000,32.825793679,34.956146871,22.147,-0.89,0.41,0.07,-0.04,-1.72,1.59,-0.06,-0.62,-1.25,32.825752915,34.956264866,22.169,1.09,45.38,0.14,307396370,2172,1000,11111100,32,25,100,0.0,0,20,20,100828,20.46,3
2584,11.755999999999998,0.932,-2.907,1.8086400000000002,-40.57822,10.90671,0.093895,0.11394800000000001,1.045159,7120.0,7690.0,3500.0,47.6,10.05,00000000 00000000,32.825793774,34.956146635,22.149,-0.86,0.43,0.08,-0.04,-1.72,1.58,-0.07,-0.6,-1.23,32.825752915,34.956264866,22.169,1.09,45.38,0.14,307396395,2172,1000,11111100,32,25,100,0.0,0,45,45,100828,20.38,0
2585,11.695,1.0590000000000002,-3.786,8.57722,-31.412679999999998,-4.65322,0.051241999999999996,0.084277,0.950311,7260.0,7740.0,3400.0,47.6,10.12,00000000 00000000,32.825793878,34.956146444,22.152,-0.85,0.45,0.09,-0.04,-1.73,1.58,-0.08,-0.58,-1.22,32.825753258,34.956265286,22.173,1.09,45.96,0.07,307396420,2172,1000,11111100,32,25,100,0.0,0,20,20,100828,20.46,3
2586,11.868,1.3519999999999999,-4.5569999999999995,13.32306,-31.904690000000002,-9.26523,-0.039813999999999995,0.026981,0.863409,7370.0,7730.0,3280.0,47.6,10.07,00000000 00000000,32.825793982,34.956146214,22.154,-0.86,0.46,0.06,-0.03,-1.73,1.57,-0.06,-0.57,-1.23,32.825753258,34.956265286,22.173,1.09,45.96,0.07,307396445,2172,1000,11111100,32,25,100,0.0,0,45,45,100828,20.38,0
2587,12.05,1.729,-5.425,15.090489999999999,-37.84253,-6.32806,-0.127381,0.005529999999999999,0.8250299999999999,7440.0,7710.0,3180.0,47.6,10.08,00000000 00000000,32.825794091999995,34.956146018000005,22.156,-0.9,0.47,0.02,-0.03,-1.74,1.56,-0.02,-0.57,-1.26,32.825753614,34.95626567,22.181,1.07,42.44,0.12,307396470,2172,1000,11111100,32,25,100,0.0,0,20,20,100830,20.29,3
2588,12.177,2.113,-6.296,13.869810000000001,-29.079079999999998,-8.38062,-0.184142,0.047792,0.846828,7510.0,7670.0,3050.0,47.7,10.07,00000000 00000000,32.825794199,34.956145769,22.156,-0.96,0.48,-0.01,-0.03,-1.74,1.56,0.02,-0.56,-1.32,32.825753614,34.95626567,22.181,1.07,42.44,0.12,307396495,2172,1000,11111100,32,25,100,0.0,0,45,45,100830,20.29,0
2589,12.55,2.447,-6.733,10.56662,-5.02528,-17.39678,-0.205163,0.051133,0.921117,7570.0,7620.0,2910.0,47.7,10.12,00000000 00000000,32.825794412,34.956145555999996,22.155,-1.02,0.51,-0.05,-0.03,-1.74,1.55,0.05,-0.56,-1.39,32.8257539,34.956266098,22.169,1.02,51.67,-0.23,307396520,2172,1000,11111100,32,25,100,0.0,0,20,20,100828,20.46,3
2590,13.075999999999999,2.725,-6.494,6.41,21.11959,-25.719179999999998,-0.154448,0.032131,0.9656680000000001,7580.0,7520.0,2800.0,47.7,10.09,00000000 00000000,32.82579453,34.956145272,22.154,-1.09,0.52,-0.07,-0.03,-1.75,1.54,0.08,-0.56,-1.45,32.8257539,34.956266098,22.169,1.02,51.67,-0.23,307396545,2172,1000,11111100,32,25,100,0.0,0,45,45,100828,20.46,0
2591,13.727,2.8960000000000004,-5.718,1.7400400000000003,36.05709,-25.705779999999997,-0.06867999999999999,0.018019999999999998,1.000625,7510.0,7420.0,2810.0,47.7,10.1,00000000 00000000,32.825794653,34.956144973,22.153,-1.14,0.53,-0.08,-0.03,-1.75,1.54,0.08,-0.56,-1.5,32.825754338,34.956266579,22.174,1.32,42.93,0.05,307396570,2172,1000,11111100,32,25,100,0.0,0,20,20,100828,20.46,3
2592,14.31,2.938,-4.728,-2.19766,40.1125,-21.2884,0.010754999999999999,0.040157,1.078215,7390.0,7330.0,2860.0,47.7,10.07,00000000 00000000,32.825794774,34.956144662,22.151,-1.17,0.53,-0.07,-0.03,-1.76,1.53,0.08,-0.56,-1.53,32.825754338,34.956266579,22.174,1.32,42.93,0.05,307396595,2172,1000,11111100,32,25,100,0.0,0,45,45,100828,20.46,0
2593,14.828,2.9,-3.6710000000000003,-3.71825,42.20023,-20.32179,0.08730299999999999,0.078247,1.132462,7250.0,7260.0,2950.0,47.7,10.11,00000000 00000000,32.825794898000005,34.956144347,22.149,-1.17,0.53,-0.04,-0.03,-1.76,1.52,0.05,-0.56,-1.53,32.825754726,34.956267054,22.163,1.23,45.96,-0.22,307396620,2172,1000,11111100,32,25,100,0.0,0,20,20,100828,20.46,3
2594,15.392999999999999,2.8169999999999997,-2.573,-5.46197,42.20538,-24.51185,0.16183599999999998,0.086876,1.161807,7110.0,7190.0,3040.0,47.7,10.09,00000000 00000000,32.825795019,34.956144033,22.149,-1.16,0.54,0.0,-0.03,-1.77,1.51,0.02,-0.55,-1.52,32.825754726,34.956267054,22.163,1.23,45.96,-0.22,307396645,2172,1000,11111100,32,25,100,0.0,0,45,45,100828,20.46,0
2595,16.069000000000003,2.6889999999999996,-1.556,-6.1529,36.10399,-28.515790000000003,0.200213,0.076921,1.180444,6950.0,7130.0,3160.0,47.7,10.11,00000000 00000000,32.825795145,34.956143728,22.15,-1.12,0.53,0.03,-0.03,-1.77,1.51,-0.02,-0.55,-1.48,32.825755149,34.956267526,22.172,1.29,43.33,0.13,307396670,2172,1000,11111100,32,25,100,0.0,0,20,20,100828,20.38,3
2596,16.819000000000003,2.576,-0.752,-3.5684,24.01545,-31.081559999999996,0.141811,0.048951999999999996,1.177892,6810.0,7070.0,3250.0,47.7,10.05,00000000 00000000,32.825795265,34.956143433,22.152,-1.08,0.53,0.08,-0.03,-1.78,1.5,-0.06,-0.54,-1.43,32.825755149,34.956267526,22.172,1.29,43.33,0.13,307396695,2172,1000,11111100,32,25,100,0.0,0,45,45,100828,20.46,0
2597,17.660999999999998,2.529,-0.331,-1.21395,6.22029,-36.12231,0.11006300000000001,0.035552999999999994,1.152048,6680.0,7000.0,3320.0,47.6,10.12,00000000 00000000,32.825795385999996,34.956143146,22.155,-1.05,0.51,0.12,-0.03,-1.78,1.49,-0.11,-0.54,-1.4,32.825755541,34.956268032,22.172,1.28,47.51,0.0,307396720,2172,1000,11111100,32,25,100,0.0,0,20,20,100828,20.46,3
2598,18.605,2.494,-0.324,-2.98615,-6.9931,-39.20313,0.148291,0.053862,1.110572,6600.0,6920.0,3350.0,47.6,10.08,00000000 00000000,32.825795502,34.956142867,22.158,-1.02,0.5,0.15,-0.03,-1.79,1.48,-0.14,-0.54,-1.37,32.825755541,34.956268032,22.172,1.28,47.51,0.0,307396745,2172,1000,11111100,32,25,100,0.0,0,45,45,100828,20.46,0
2599,19.642,2.365,-0.503,-7.78295,-10.23443,-41.941990000000004,0.14409,0.057966,1.041031,6520.0,6850.0,3380.0,47.6,10.13,00000000 00000000,32.825795619000004,34.956142652,22.163,-0.98,0.49,0.17,-0.03,-1.79,1.47,-0.16,-0.54,-1.33,32.825755891,34.956268505,22.179,1.17,48.91,0.09,307396770,2172,1000,11111100,32,25,100,0.0,0,20,20,100826,20.55,3
2600,20.680999999999997,2.154,-0.753,-9.20402,-14.1911,-39.83956,0.090755,0.046339,0.961667,6470.0,6790.0,3380.0,47.6,10.07,00000000 00000000,32.825795731,34.956142391,22.167,-0.96,0.49,0.17,-0.03,-1.8,1.46,-0.16,-0.53,-1.3,32.825755891,34.956268505,22.179,1.17,48.91,0.09,307396795,2172,1000,11111100,32,25,100,0.0,0,45,45,100826,20.55,0
2601,21.636999999999997,1.9369999999999998,-1.165,-9.26577,-20.48181,-35.40465,0.021805,0.06857200000000001,0.9301590000000001,6430.0,6740.0,3390.0,47.6,10.1,00000000 00000000,32.825795846999995,34.956142193000005,22.172,-0.94,0.49,0.16,-0.03,-1.8,1.46,-0.15,-0.53,-1.28,32.825756266999996,34.956269001,22.179,1.24,48.06,0.01,307396820,2172,1000,11111100,32,25,100,0.0,0,20,20,100826,20.55,3
2602,22.489,1.726,-1.669,-9.498389999999999,-22.42226,-32.36803,0.025375,0.064193,0.892008,6420.0,6680.0,3350.0,47.6,10.08,00000000 00000000,32.825795959000004,34.95614194,22.175,-0.94,0.5,0.14,-0.03,-1.81,1.45,-0.13,-0.52,-1.28,32.825756266999996,34.956269001,22.179,1.24,48.06,0.01,307396845,2172,1000,11111100,32,25,100,0.0,0,45,45,100826,20.55,0
2603,23.285999999999998,1.508,-2.27,-9.99231,-27.391920000000002,-29.567590000000003,0.041161,0.06099299999999999,0.882833,6410.0,6640.0,3340.0,47.6,10.08,00000000 00000000,32.825796079,34.956141747,22.18,-0.93,0.51,0.11,-0.03,-1.81,1.44,-0.1,-0.51,-1.27,32.825756655,34.956269496,22.197,1.26,47.12,0.31,307396870,2172,1000,11111100,32,25,100,0.0,0,20,20,100826,20.55,3
2604,23.986,1.3019999999999998,-2.972,-8.54219,-29.4411,-25.623160000000002,0.09224600000000001,0.05368200000000001,0.924019,6400.0,6620.0,3350.0,47.6,10.07,00000000 00000000,32.825796195,34.956141498,22.183,-0.92,0.51,0.09,-0.03,-1.82,1.43,-0.08,-0.5,-1.27,32.825756655,34.956269496,22.197,1.26,47.12,0.31,307396895,2172,1000,11111100,32,25,100,0.0,0,45,45,100826,20.55,0
2605,24.605999999999998,1.167,-3.682,-4.64847,-27.71295,-22.92216,0.125479,0.06253600000000001,0.93847,6430.0,6580.0,3320.0,47.6,10.11,00000000 00000000,32.825796316,34.956141310999996,22.186,-0.9,0.51,0.08,-0.03,-1.82,1.42,-0.06,-0.49,-1.25,32.825757036,34.956269966,22.211,1.22,46.21,0.27,307396920,2172,1000,11111100,32,25,100,0.0,0,20,20,100828,20.46,3
2606,25.201999999999998,1.155,-4.277,0.50102,-21.40065,-24.83727,0.119801,0.07699600000000001,0.903774,6460.0,6550.0,3290.0,47.6,10.07,00000000 00000000,32.825796434000004,34.956141072,22.188,-0.88,0.52,0.06,-0.03,-1.83,1.41,-0.05,-0.47,-1.23,32.825757036,34.956269966,22.211,1.22,46.21,0.27,307396945,2172,1000,11111100,32,25,100,0.0,0,45,45,100826,20.55,0
2607,25.945999999999998,1.2590000000000001,-4.775,4.26483,-19.48675,-27.87414,0.081059,0.042151,0.888861,6470.0,6520.0,3280.0,47.6,10.12,00000000 00000000,32.825796748,34.956140894,22.19,-0.86,0.54,0.04,-0.03,-1.84,1.4,-0.03,-0.46,-1.22,32.825757364,34.956270443,22.212,1.15,50.92,0.0,307396970,2172,1000,11111100,32,25,100,0.0,0,20,20,100828,20.46,3
2608,26.645,1.4609999999999999,-5.261,6.59294,-21.87066,-28.628429999999998,0.07822799999999999,0.044269,0.8433930000000001,6470.0,6470.0,3250.0,47.6,10.07,00000000 00000000,32.825796871,34.956140661999996,22.191,-0.86,0.54,0.01,-0.03,-1.84,1.39,0.0,-0.45,-1.21,32.825757364,34.956270443,22.212,1.15,50.92,0.0,307396995,2172,1000,11111100,32,25,100,0.0,0,45,45,100826,20.55,8
2609,27.358,1.6740000000000002,-5.843999999999999,5.05921,-24.90038,-24.86184,0.031889999999999995,0.044797000000000003,0.8361780000000001,6460.0,6420.0,3260.0,47.6,10.1,00000000 00000000,32.825797098,34.956140487,22.19,-0.86,0.55,-0.02,-0.02,-1.85,1.38,0.03,-0.45,-1.21,32.825757661,34.956270895,22.201,1.07,52.06,-0.22,307397020,2172,1000,11111100,32,25,100,0.0,0,20,20,100826,20.63,3
2610,27.980999999999998,1.8230000000000002,-6.33,1.6552,-15.26671,-25.99745,-0.010664,0.046934,0.870532,6480.0,6330.0,3200.0,47.6,10.08,00000000 00000000,32.825797225,34.956140255,22.189,-0.87,0.57,-0.06,-0.02,-1.85,1.37,0.07,-0.44,-1.23,32.825757661,34.956270895,22.201,1.07,52.06,-0.22,307397045,2172,1000,11111100,32,25,100,0.0,0,45,45,100824,20.71,0
2611,28.658,1.925,-6.602,0.97311,-9.26908,-27.385990000000003,-0.042332,0.023236,0.9078209999999999,6490.0,6240.0,3160.0,47.6,10.12,00000000 00000000,32.82579736,34.956140078000004,22.187,-0.89,0.58,-0.09,-0.02,-1.86,1.36,0.1,-0.44,-1.26,32.825758025,34.956271344,22.197,1.16,46.33,-0.12,307397070,2172,1000,11111100,34,25,100,0.0,0,20,20,100824,20.71,3
2612,29.261,2.019,-6.811,0.5565399999999999,-10.00648,-18.74989,-0.042487,0.018355,0.960324,6470.0,6160.0,3110.0,47.6,10.05,00000000 00000000,32.825797493,34.956139833,22.185,-0.93,0.6,-0.11,-0.02,-1.86,1.35,0.12,-0.44,-1.29,32.825758025,34.956271344,22.197,1.16,46.33,-0.12,307397095,2172,1000,11111100,34,25,100,0.0,0,45,45,100826,20.63,0
2613,29.546,2.03,-7.07,-1.54301,-9.64813,1.3698,-0.073357,0.011045000000000001,1.0406540000000002,6470.0,6100.0,3080.0,47.6,10.12,00000000 00000000,32.825797723,34.956139646,22.182,-0.96,0.62,-0.11,-0.02,-1.87,1.34,0.13,-0.44,-1.33,32.825758344,34.956271811,22.192,1.12,51.02,-0.1,307397120,2172,1000,11111100,34,25,100,0.0,0,20,20,100826,20.63,3
2614,29.305999999999997,1.929,-7.165,-4.17747,5.06168,16.81642,-0.066415,0.053611,1.1163049999999999,6490.0,6080.0,3040.0,47.6,10.09,00000000 00000000,32.825797866,34.956139381,22.179,-1.01,0.64,-0.1,-0.02,-1.87,1.33,0.11,-0.45,-1.37,32.825758344,34.956271811,22.192,1.12,51.02,-0.1,307397145,2172,1000,11111100,34,25,100,0.0,0,45,45,100824,20.71,0
2615,28.84,1.7409999999999999,-6.82,-4.91067,22.85419,23.42117,0.023554,0.106635,1.173716,6510.0,6110.0,3060.0,47.6,10.1,00000000 00000000,32.82579807,34.956139109,22.177,-1.04,0.68,-0.06,-0.02,-1.88,1.32,0.08,-0.43,-1.41,32.825758672,34.956272326,22.186,1.21,53.02,-0.14,307397170,2172,1000,11111100,34,25,100,0.0,0,20,20,100826,20.63,3
2616,28.213,1.5659999999999998,-6.156000000000001,-3.3392199999999996,29.718059999999998,28.12805,0.065616,0.11693900000000002,1.198038,6510.0,6150.0,3120.0,47.6,10.07,00000000 00000000,32.825798225999996,34.956138829000004,22.176,-1.04,0.7,-0.01,-0.02,-1.88,1.31,0.03,-0.41,-1.43,32.825758672,34.956272326,22.186,1.21,53.02,-0.14,307397195,2172,1000,11111100,34,25,100,0.0,0,45,45,100826,20.63,0
2617,27.414,1.4169999999999998,-5.452999999999999,-2.3252599999999997,27.036270000000002,38.3969,0.010281,0.10355,1.159526,6500.0,6210.0,3190.0,47.6,10.11,00000000 00000000,32.825798373000005,34.956138622,22.176,-1.04,0.73,0.02,-0.02,-1.89,1.3,0.0,-0.39,-1.44,32.825758992,34.956272814,22.184,1.15,52.23,-0.04,307397220,2172,1000,11111100,34,25,100,0.0,0,20,20,100826,20.63,3
2618,26.32,1.254,-4.854,-2.9104200000000002,23.48765,48.55348,-0.050706,0.058395,1.159095,6520.0,6280.0,3230.0,47.6,10.07,00000000 00000000,32.825798541,34.956138339,22.177,-1.06,0.75,0.06,-0.02,-1.89,1.29,-0.04,-0.38,-1.47,32.825758992,34.956272814,22.184,1.15,52.23,-0.04,307397245,2172,1000,11111100,34,25,100,0.0,0,45,45,100828,20.46,0
2619,25.026,1.104,-4.3069999999999995,-0.43775,20.44395,51.13649,0.091985,0.064479,1.19521,6550.0,6390.0,3280.0,47.6,10.1,00000000 00000000,32.825798604,34.956138121,22.179,-1.08,0.76,0.1,-0.02,-1.9,1.28,-0.08,-0.37,-1.49,32.825759286,34.95627329,22.181,1.1,53.86,-0.09,307397270,2172,1000,11111100,34,25,100,0.0,0,20,20,100826,20.55,3
2620,23.8,1.083,-3.873,5.77305,18.17879,44.41677,0.20088599999999998,0.065801,1.1625590000000001,6570.0,6530.0,3360.0,47.6,10.03,00000000 00000000,32.825798776999996,34.956137834,22.182,-1.05,0.77,0.15,-0.02,-1.9,1.27,-0.13,-0.35,-1.47,32.825759286,34.95627329,22.181,1.1,53.86,-0.09,307397295,2172,1000,11111100,34,25,100,0.0,0,45,45,100826,20.63,0
2621,22.891,1.213,-3.325,7.1788,27.14227,22.40906,0.24220999999999998,0.024656,1.062775,6600.0,6650.0,3420.0,47.6,10.11,00000000 00000000,32.825798825,34.956137629000004,22.186,-1.01,0.75,0.18,-0.02,-1.91,1.26,-0.17,-0.35,-1.43,32.825759567,34.956273788000004,22.187,1.12,56.23,0.12,307397320,2172,1000,11111100,34,25,100,0.0,0,20,20,100824,20.71,3
2622,22.596,1.3519999999999999,-2.625,5.24102,26.77601,2.17143,0.268752,-0.020315,0.9704940000000001,6590.0,6690.0,3430.0,47.6,10.08,00000000 00000000,32.825798991999996,34.956137363,22.191,-0.97,0.72,0.19,-0.02,-1.91,1.25,-0.17,-0.35,-1.37,32.825759567,34.956273788000004,22.187,1.12,56.23,0.12,307397345,2172,1000,11111100,34,25,100,0.0,0,45,45,100824,20.71,0
2623,22.715,1.463,-2.073,3.03772,15.420570000000001,-11.277339999999999,0.24597800000000003,-0.059490999999999995,0.935516,6520.0,6690.0,3490.0,47.6,10.11,00000000 00000000,32.825799106999995,34.956137186999996,22.196,-0.92,0.69,0.18,-0.02,-1.92,1.24,-0.16,-0.36,-1.31,32.825759858000005,34.956274306,22.202,1.16,56.39,0.26,307397370,2172,1000,11111100,34,25,100,0.0,0,20,20,100824,20.71,3
2624,23.1,1.525,-1.953,1.26518,-9.87021,-17.62037,0.253504,-0.059477999999999996,0.933364,6450.0,6650.0,3490.0,47.6,10.05,00000000 00000000,32.825799258,34.956136946,22.201,-0.88,0.65,0.16,-0.02,-1.92,1.23,-0.15,-0.38,-1.26,32.825759858000005,34.956274306,22.202,1.16,56.39,0.26,307397395,2172,1000,11111100,34,25,100,0.0,0,45,45,100824,20.8,0
2625,23.5,1.5859999999999999,-2.647,2.4899,-45.225229999999996,-12.51079,0.24727399999999997,-0.0063560000000000005,0.9210290000000001,6430.0,6600.0,3460.0,47.6,10.11,00000000 00000000,32.825799398,34.956136788,22.205,-0.83,0.61,0.15,-0.02,-1.93,1.22,-0.13,-0.4,-1.2,32.825760136,34.956274781,22.213,1.08,55.24,0.22,307397420,2172,1000,11111100,34,25,100,0.0,0,20,20,100824,20.71,3
2626,23.744,1.6440000000000001,-4.018,0.22994,-60.26494,-7.83772,0.149341,0.052823,0.9238360000000001,6520.0,6570.0,3350.0,47.6,10.07,00000000 00000000,32.825799534,34.95613657,22.209,-0.79,0.59,0.13,-0.02,-1.93,1.21,-0.12,-0.4,-1.16,32.825760136,34.956274781,22.213,1.08,55.24,0.22,307397445,2172,1000,11111100,34,25,100,0.0,0,45,45,100824,20.71,0
2627,23.965999999999998,1.605,-5.431,-4.45844,-50.4208,-9.69347,0.060033,0.11923199999999999,0.9151530000000001,6640.0,6570.0,3230.0,47.7,10.11,00000000 00000000,32.825799674,34.956136429000004,22.211,-0.78,0.61,0.11,-0.02,-1.94,1.2,-0.1,-0.39,-1.14,32.825760525,34.956275242,22.212,1.22,45.06,-0.04,307397470,2172,1000,11111100,34,25,100,0.0,0,20,20,100824,20.71,3
2628,24.287,1.5030000000000001,-6.462999999999999,-5.77945,-33.64424,-14.34026,0.0033520000000000004,0.107555,0.8430540000000001,6760.0,6570.0,3110.0,47.7,10.05,00000000 00000000,32.825799814,34.95613622,22.214,-0.78,0.63,0.08,-0.02,-1.95,1.18,-0.07,-0.36,-1.15,32.825760525,34.956275242,22.212,1.22,45.06,-0.04,307397495,2172,1000,11111100,34,25,100,0.0,0,45,45,100824,20.71,0
2629,24.666,1.405,-7.176,-4.31361,-25.714489999999998,-11.404530000000001,-0.029608999999999996,0.06428099999999999,0.823578,6810.0,6570.0,3070.0,47.7,10.05,00000000 00000000,32.825800065,34.956136078,22.216,-0.79,0.66,0.04,-0.02,-1.95,1.17,-0.03,-0.34,-1.18,32.825760879,34.956275763,22.218,1.25,51.2,0.11,307397520,2172,1000,11111100,33,25,100,0.0,0,20,20,100824,20.71,3
2630,24.885,1.3659999999999999,-7.7589999999999995,-1.13909,-20.57566,-6.53661,-0.048298,0.06694299999999999,0.8327889999999999,6850.0,6570.0,3020.0,47.7,10.05,00000000 00000000,32.825800218000005,34.956135861,22.217,-0.82,0.69,0.0,-0.02,-1.96,1.16,0.01,-0.33,-1.21,32.825760879,34.956275763,22.218,1.25,51.2,0.11,307397545,2172,1000,11111100,33,25,100,0.0,0,45,45,100824,20.71,0
2631,25.069000000000003,1.412,-8.149,3.3380400000000003,-10.51399,-8.33889,-0.042605000000000004,0.076035,0.8647360000000001,6880.0,6570.0,2950.0,47.7,10.07,00000000 00000000,32.825800378000004,34.956135718,22.217,-0.85,0.72,-0.03,-0.02,-1.96,1.15,0.05,-0.32,-1.25,32.825761099,34.956276285,22.226,1.09,63.56,0.12,307397570,2172,1000,11111100,33,25,100,0.0,0,20,20,100824,20.71,3
2632,25.296,1.611,-8.3,9.93807,-3.13265,-10.991439999999999,-0.01172,0.046686,0.894932,6890.0,6540.0,2890.0,47.7,10.08,00000000 00000000,32.825800543,34.956135486,22.216,-0.88,0.74,-0.07,-0.02,-1.97,1.14,0.08,-0.31,-1.28,32.825761099,34.956276285,22.226,1.09,63.56,0.12,307397595,2172,1000,11111100,33,25,100,0.0,0,45,45,100824,20.71,0
2633,25.486,1.965,-8.327,14.54693,-0.38675,-8.93185,0.018675999999999998,0.031074,0.934931,6880.0,6490.0,2840.0,47.7,10.07,00000000 00000000,32.825800575,34.956135335999996,22.213,-0.9,0.75,-0.09,-0.01,-1.97,1.13,0.1,-0.3,-1.31,32.825761369,34.956276792,22.216,1.12,57.76,-0.21,307397620,2172,1000,11111100,33,25,100,0.0,0,20,20,100824,20.71,3
2634,25.623,2.375,-8.28,15.92019,4.857559999999999,-7.45188,0.041035,0.031813,0.9957440000000001,6860.0,6430.0,2810.0,47.7,10.08,00000000 00000000,32.825800746,34.95613509,22.211,-0.92,0.76,-0.1,-0.01,-1.98,1.11,0.11,-0.3,-1.33,32.825761369,34.956276792,22.216,1.12,57.76,-0.21,307397645,2172,1000,11111100,33,25,100,0.0,0,45,45,100826,20.63,0
2635,25.773000000000003,2.82,-8.056000000000001,16.99016,12.21444,-11.34794,0.073134,0.043259,1.072489,6850.0,6350.0,2740.0,47.7,10.12,00000000 00000000,32.825800826,34.956134929,22.208,-0.94,0.76,-0.09,-0.01,-1.98,1.1,0.11,-0.3,-1.35,32.825761666,34.956277277,22.223,1.14,54.86,-0.24,307397670,2172,1000,11111100,33,25,100,0.0,0,20,20,100826,20.55,3
2636,26.096999999999998,3.283,-7.614,15.71909,21.87242,-19.49117,0.09929500000000001,0.035526,1.141525,6810.0,6270.0,2710.0,47.7,10.05,00000000 00000000,32.825800999,34.956134674,22.206,-0.95,0.77,-0.06,-0.01,-1.99,1.09,0.08,-0.31,-1.36,32.825761666,34.956277277,22.223,1.14,54.86,-0.24,307397695,2172,1000,11111100,33,25,100,0.0,0,45,45,100826,20.55,0
2637,26.6,3.699,-6.968999999999999,11.62867,25.56904,-24.527829999999998,0.142511,0.025335,1.150521,6710.0,6200.0,2740.0,47.7,10.12,00000000 00000000,32.825801139,34.956134416,22.205,-0.96,0.76,-0.02,-0.01,-1.99,1.08,0.04,-0.32,-1.37,32.825761996,34.956277839,22.214,1.27,55.24,-0.23,307397720,2172,1000,11111100,33,25,100,0.0,0,20,20,100826,20.63,3
2638,27.213,3.9989999999999997,-6.311,6.47625,21.97309,-26.407190000000003,0.157001,0.024222999999999998,1.166351,6610.0,6090.0,2740.0,47.7,10.07,00000000 00000000,32.825801309,34.956134157,22.204,-0.96,0.74,0.01,-0.01,-2.0,1.07,0.0,-0.33,-1.36,32.825761996,34.956277839,22.214,1.27,55.24,-0.23,307397745,2172,1000,11111100,33,25,100,0.0,0,45,45,100826,20.63,0
2639,27.892,4.175,-5.888999999999999,2.61974,5.99846,-26.416359999999997,0.181978,0.006948,1.168039,6510.0,6010.0,2770.0,47.7,10.1,00000000 00000000,32.825801514,34.956133995,22.205,-0.96,0.73,0.05,-0.01,-2.0,1.05,-0.03,-0.34,-1.34,32.825762346,34.956278366,22.212,1.25,51.82,-0.04,307397770,2172,1000,11111100,33,25,100,0.0,0,20,20,100826,20.63,3
2640,28.485,4.251,-5.97,-1.6817900000000001,-14.557170000000001,-20.47682,0.253556,0.017685,1.191799,6440.0,5940.0,2770.0,47.7,10.07,00000000 00000000,32.825801674000004,34.956133739,22.207,-0.94,0.7,0.1,-0.01,-2.01,1.04,-0.08,-0.36,-1.32,32.825762346,34.956278366,22.212,1.25,51.82,-0.04,307397795,2172,1000,11111100,33,25,100,0.0,0,45,45,100826,20.63,0
2641,28.987,4.202,-6.3420000000000005,-5.48365,-13.695520000000002,-17.774420000000003,0.278572,0.053855999999999994,1.174209,6400.0,5900.0,2780.0,47.7,10.11,00000000 00000000,32.825801899,34.956133583,22.21,-0.91,0.67,0.15,-0.01,-2.01,1.03,-0.13,-0.38,-1.28,32.82576269,34.956278892,22.215,1.24,52.27,0.0,307397820,2172,1000,11111100,33,25,100,0.0,0,20,20,100824,20.71,3
2642,29.508000000000003,4.103,-6.422999999999999,-6.602689999999999,5.18005,-24.2613,0.249277,0.10388,1.09807,6390.0,5870.0,2770.0,47.7,10.09,00000000 00000000,32.825802049,34.956133341,22.215,-0.88,0.65,0.19,-0.01,-2.02,1.02,-0.17,-0.38,-1.24,32.82576269,34.956278892,22.215,1.24,52.27,0.0,307397845,2172,1000,11111100,33,25,100,0.0,0,45,45,100824,20.8,0
2643,30.294,4.01,-6.069,-7.224469999999999,17.03376,-35.397259999999996,0.200715,0.12363900000000001,1.018256,6330.0,5830.0,2800.0,47.7,10.07,00000000 00000000,32.825802296,34.956133199,22.221,-0.85,0.65,0.21,-0.01,-2.02,1.01,-0.19,-0.37,-1.21,32.82576304,34.956279448000004,22.229,1.29,53.31,0.28,307397870,2172,1000,11111100,33,25,100,0.0,0,20,20,100824,20.8,3
2644,31.281999999999996,3.906,-5.581,-8.99416,13.095180000000001,-39.76245,0.21288800000000002,0.109509,0.9673370000000001,6230.0,5780.0,2840.0,47.7,10.1,00000000 00000000,32.825802444000004,34.956132975,22.226,-0.82,0.65,0.21,-0.01,-2.03,0.99,-0.2,-0.35,-1.18,32.82576304,34.956279448000004,22.229,1.29,53.31,0.28,307397895,2172,1000,11111100,33,25,100,0.0,0,45,45,100824,20.8,0
2645,32.22,3.733,-5.405,-11.53156,-5.508290000000001,-30.9835,0.206627,0.070221,0.934916,6100.0,5720.0,2890.0,47.7,10.11,00000000 00000000,32.825802640999996,34.956132841999995,22.232,-0.79,0.64,0.21,-0.01,-2.03,0.98,-0.19,-0.35,-1.15,32.825763362,34.956279928,22.232,1.14,51.59,0.01,307397920,2172,1000,11111100,33,25,100,0.0,0,20,20,100824,20.8,3
2646,32.846,3.4810000000000003,-5.746,-12.96061,-24.04243,-16.381439999999998,0.152175,0.04863,0.9088139999999999,6040.0,5670.0,2920.0,47.6,10.09,00000000 00000000,32.825802785,34.956132633,22.237,-0.77,0.63,0.19,-0.01,-2.04,0.97,-0.18,-0.34,-1.12,32.825763362,34.956279928,22.232,1.14,51.59,0.01,307397945,2172,1000,11111100,33,25,100,0.0,0,45,45,100824,20.8,0
2647,33.111,3.199,-6.49,-11.29748,-35.57101,-1.88428,0.08627,0.032861,0.878655,6030.0,5670.0,2940.0,47.6,10.08,00000000 00000000,32.825802908,34.956132517,22.241,-0.76,0.62,0.17,-0.01,-2.04,0.96,-0.15,-0.35,-1.11,32.825763633,34.956280376,22.233,1.03,54.4,0.0,307397970,2172,1000,11111100,33,25,100,0.0,0,20,20,100824,20.8,3
2648,33.1,2.9330000000000003,-7.417999999999999,-9.794360000000001,-36.612,3.05754,0.034594,0.073521,0.8523120000000001,6100.0,5700.0,2910.0,47.6,10.07,00000000 00000000,32.825803049,34.956132311,22.244,-0.77,0.63,0.14,-0.01,-2.05,0.94,-0.12,-0.34,-1.12,32.825763633,34.956280376,22.233,1.03,54.4,0.0,307397995,2172,1000,11111100,33,25,100,0.0,0,45,45,100824,20.71,8
2649,33.111999999999995,2.7110000000000003,-8.26,-7.25813,-31.14453,-1.21859,0.027308,0.08975,0.801304,6160.0,5750.0,2910.0,47.6,10.08,00000000 00000000,32.825803191,34.956132196999995,22.248,-0.77,0.65,0.09,-0.01,-2.06,0.93,-0.08,-0.33,-1.13,32.825763927,34.956280868,22.26,1.12,54.77,0.49,307398020,2172,1000,11111100,33,25,100,0.0,0,20,20,100826,20.55,3
2650,33.215,2.6039999999999996,-9.003,-1.8609099999999998,-29.79069,-5.08265,0.012158,0.06629199999999999,0.778708,6250.0,5770.0,2860.0,47.6,10.09,00000000 00000000,32.825803341,34.956131987,22.25,-0.79,0.67,0.04,-0.01,-2.06,0.92,-0.03,-0.32,-1.15,32.825763927,34.956280868,22.26,1.12,54.77,0.49,307398045,2172,1000,11111100,33,25,100,0.0,0,45,45,100826,20.55,0
2651,33.36,2.667,-9.744,4.9406099999999995,-29.19077,-5.99694,-0.009840999999999999,0.06361,0.7759010000000001,6320.0,5760.0,2790.0,47.6,10.1,00000000 00000000,32.825803489,34.956131872,22.252,-0.8,0.69,0.0,-0.01,-2.07,0.9,0.02,-0.31,-1.18,32.825764235,34.956281366,22.27,1.15,53.84,0.19,307398070,2172,1000,11111100,34,25,100,0.0,0,20,20,100826,20.55,3
2652,33.498000000000005,2.8810000000000002,10.369000000000002,9.49655,-20.58721,-7.99137,-0.017215,0.047276,0.8217129999999999,6390.0,5730.0,2720.0,47.6,10.05,00000000 00000000,32.825803648000004,34.956131651999996,22.251,-0.83,0.72,-0.06,-0.01,-2.07,0.89,0.07,-0.31,-1.21,32.825764235,34.956281366,22.27,1.15,53.84,0.19,307398095,2172,1000,11111100,34,25,100,0.0,0,45,45,100826,20.55,0
