,Heading,Pitch,Roll,Gyro_X,Gyro_Y,Gyro_Z,Acc_X,Acc_Y,Acc_Z,Magn_X,Magn_Y,Magn_Z,Temperature,Vdd,USW (L/H),Latitude,Longitude,Altitude,V_East,V_North,V_Up,Heave,Surge,Sway,V_Heave,V_Surge,V_Sway,Lat_GNSS,Long_GNSS,Height_GNSS,Hor_spd,Trk_gnd,Ver_spd,ms_gps,GPS_Week,GNSS_info_1,GNSS_info_2,#solnSVs,V_latency,anglesPosType,Heading_GNSS,Latency_ms_head,Latency_ms_pos,Latency_ms_vel,P_Bar,H_Bar,New_GPS
10181,138.07,1.5090000000000001,10.23,-4.21178,1.08974,-1.73016,0.163216,-0.015323,0.9890690000000001,2240.0,7190.0,3740.0,46.6,10.08,00000000 00000000,32.826183928,34.956032590999996,23.004,0.0,-0.75,0.03,0.07,-1.74,3.15,-0.01,0.12,0.28,32.825802258,34.956199027,23.034,0.03,158.92,-0.04,307667870,2172,1000,11111100,32,25,100,0.0,0,20,20,100828,20.38,3
10182,138.122,1.589,10.193999999999999,-2.8422400000000003,1.71707,-1.34125,0.176708,-0.015019999999999999,0.995933,2240.0,7210.0,3740.0,46.6,10.08,00000000 00000000,32.826183759,34.956032594,23.005,0.01,-0.75,0.03,0.07,-1.74,3.15,-0.01,0.12,0.28,32.825802258,34.956199027,23.034,0.03,158.92,-0.04,307667895,2172,1000,11111100,32,25,100,0.0,0,45,45,100830,20.29,0
10183,138.166,1.625,10.152999999999999,-0.84441,1.82633,-1.8057900000000002,0.187052,-0.009082,1.001778,2250.0,7220.0,3750.0,46.6,10.05,00000000 00000000,32.826183834,34.956032582,23.009,0.01,-0.75,0.03,0.07,-1.73,3.15,-0.02,0.13,0.28,32.825802214,34.956199061999996,23.042,0.03,53.59,0.04,307667920,2172,1000,11111100,32,25,100,0.0,0,20,20,100830,20.29,3
10184,138.22299999999998,1.611,10.115,1.00895,1.17488,-2.9539299999999997,0.18820699999999999,-0.005775,0.996619,2260.0,7230.0,3760.0,46.6,10.08,00000000 00000000,32.826183664,34.956032585,23.01,0.01,-0.75,0.04,0.07,-1.73,3.15,-0.02,0.13,0.28,32.825802214,34.956199061999996,23.042,0.03,53.59,0.04,307667945,2172,1000,11111100,32,25,100,0.0,0,45,45,100828,20.38,0
10185,138.291,1.551,10.103,2.38956,0.09077,-3.29724,0.180081,-0.0038840000000000003,0.9873649999999999,2260.0,7230.0,3740.0,46.6,10.09,00000000 00000000,32.826183752,34.956032609,23.015,0.01,-0.75,0.04,0.07,-1.73,3.15,-0.02,0.14,0.28,32.825801756,34.956199248000004,23.09,0.0,84.34,-0.06,307667970,2172,1000,11111100,33,25,100,0.0,0,20,20,100826,20.55,3
10186,138.359,1.4669999999999999,10.115,3.01923,-0.5052800000000001,-3.03081,0.167913,-0.005987,0.9815709999999999,2260.0,7210.0,3700.0,46.6,10.07,00000000 00000000,32.826183581,34.956032613000005,23.016,0.01,-0.76,0.04,0.07,-1.72,3.15,-0.02,0.14,0.28,32.825801756,34.956199248000004,23.09,0.0,84.34,-0.06,307667995,2172,1000,11111100,33,25,100,0.0,0,45,45,100826,20.63,8
10187,138.41899999999998,1.379,10.123,2.96653,0.22684,-3.0419,0.163673,-0.0073,0.980273,2270.0,7220.0,3720.0,46.6,10.08,00000000 00000000,32.826183409,34.956032618,23.022,0.02,-0.76,0.04,0.07,-1.72,3.15,-0.02,0.14,0.28,32.82580175,34.95619927,23.091,0.0,84.34,-0.06,307668020,2172,1000,11111100,33,25,100,0.0,0,20,70,100826,20.63,1
10188,138.48,1.295,10.107000000000001,2.44278,1.30423,-2.98765,0.167454,-0.015330000000000002,0.98095,2270.0,7210.0,3700.0,46.6,10.08,00000000 00000000,32.826183500999996,34.95603265,23.023,0.02,-0.76,0.04,0.07,-1.72,3.15,-0.02,0.15,0.27,32.82580175,34.95619927,23.091,0.01,83.38,0.01,307668045,2172,1000,11111100,33,25,100,0.0,0,45,45,100826,20.63,2
10189,138.537,1.2229999999999999,10.073,2.0615200000000002,1.6274899999999999,-2.5611900000000003,0.170963,-0.019181999999999998,0.9853930000000001,2270.0,7200.0,3660.0,46.6,10.1,00000000 00000000,32.826183590999996,34.956032680999996,23.028,0.02,-0.75,0.05,0.07,-1.71,3.15,-0.02,0.15,0.27,32.825801749,34.956199278,23.091,0.01,105.12,0.02,307668070,2172,1000,11111100,33,25,100,0.0,0,20,20,100826,20.55,3
10190,138.59,1.167,10.035,1.43163,1.5040799999999999,-2.71102,0.17203800000000002,-0.018812,0.9893120000000001,2270.0,7190.0,3650.0,46.6,10.08,00000000 00000000,32.82618342,34.956032687,23.029,0.02,-0.75,0.05,0.07,-1.71,3.15,-0.02,0.15,0.27,32.825801749,34.956199278,23.091,0.01,105.12,0.02,307668095,2172,1000,11111100,33,25,100,0.0,0,45,45,100826,20.55,0
10191,138.664,1.13,10.007,-0.20574,0.8147,-3.9645699999999997,0.164626,-0.017876,0.991315,2280.0,7190.0,3650.0,46.6,10.12,00000000 00000000,32.826183551,34.956032782,23.032,0.02,-0.75,0.05,0.07,-1.7,3.15,-0.02,0.15,0.27,32.82580176,34.956199284,23.085,0.04,334.65,-0.1,307668120,2172,1000,11111100,33,25,100,0.0,0,20,20,100826,20.63,3
10192,138.796,1.145,10.005,-3.07356,-0.56392,-6.44455,0.15379500000000002,-0.005606,0.9968520000000001,2290.0,7190.0,3630.0,46.6,10.09,00000000 00000000,32.826183381999996,34.956032788,23.034,0.02,-0.75,0.05,0.07,-1.7,3.15,-0.02,0.15,0.26,32.82580176,34.956199284,23.085,0.04,334.65,-0.1,307668145,2172,1000,11111100,33,25,100,0.0,0,45,45,100824,20.71,0
10193,139.00799999999998,1.22,10.067,-6.05561,-4.27538,-9.11755,0.14844000000000002,0.017129,1.0041790000000002,2310.0,7210.0,3650.0,46.6,10.08,00000000 00000000,32.826183474000004,34.956032846,23.038,0.03,-0.74,0.06,0.07,-1.69,3.15,-0.03,0.15,0.26,32.825801747,34.956199289000004,23.087,0.03,161.12,0.04,307668170,2172,1000,11111100,33,25,100,0.0,0,20,20,100824,20.8,3
10194,139.28799999999998,1.357,10.226,-8.71043,-7.700419999999999,-10.70386,0.104775,0.021438,1.0033100000000001,2340.0,7260.0,3710.0,46.6,10.08,00000000 00000000,32.826183306,34.956032857,23.04,0.04,-0.74,0.06,0.07,-1.69,3.15,-0.03,0.16,0.25,32.825801747,34.956199289000004,23.087,0.03,161.12,0.04,307668195,2172,1000,11111100,33,25,100,0.0,0,45,45,100824,20.8,0
10195,139.61,1.55,10.443,-11.29882,-8.21655,-12.55915,0.070436,0.019886,1.00825,2350.0,7290.0,3740.0,46.6,10.11,00000000 00000000,32.826183377,34.956032906,23.044,0.07,-0.73,0.06,0.07,-1.69,3.15,-0.03,0.18,0.22,32.825801705,34.956199334000004,23.09,0.09,144.19,0.06,307668220,2172,1000,11111100,33,25,100,0.0,0,20,20,100824,20.8,3
10196,140.007,1.784,10.655,-12.46825,-7.43807,-15.66924,0.075382,0.036416000000000004,1.0282440000000002,2340.0,7320.0,3730.0,46.6,10.07,00000000 00000000,32.826183212,34.956032929,23.046,0.1,-0.73,0.06,0.06,-1.68,3.15,-0.03,0.19,0.19,32.825801705,34.956199334000004,23.09,0.09,144.19,0.06,307668245,2172,1000,11111100,33,25,100,0.0,0,45,45,100824,20.8,0
10197,140.491,1.9869999999999999,10.835,-10.84127,-6.07463,-20.16434,0.08426900000000001,0.055034000000000007,1.051466,2360.0,7380.0,3760.0,46.5,10.11,00000000 00000000,32.826183361999995,34.956033188,23.051,0.13,-0.72,0.08,0.06,-1.68,3.15,-0.04,0.21,0.16,32.825801653,34.956199346,23.094,0.11,169.66,0.07,307668270,2172,1000,11111100,34,25,100,0.0,0,20,20,100824,20.8,3
10198,141.086,2.109,10.989,-7.56462,-3.9972800000000004,-24.13502,0.08201900000000001,0.041494,1.0542989999999999,2400.0,7440.0,3780.0,46.5,10.07,00000000 00000000,32.826183199,34.956033228,23.053,0.16,-0.72,0.09,0.06,-1.67,3.15,-0.06,0.23,0.13,32.825801653,34.956199346,23.094,0.11,169.66,0.07,307668295,2172,1000,11111100,34,25,100,0.0,0,45,45,100824,20.71,0
10199,141.69299999999998,2.128,11.085999999999999,-3.72024,-1.28263,-23.38138,0.061708000000000006,0.029679,1.0573139999999999,2440.0,7500.0,3790.0,46.5,10.12,00000000 00000000,32.826183233,34.956033287,23.056,0.2,-0.71,0.1,0.06,-1.67,3.15,-0.07,0.25,0.1,32.825801569,34.956199345,23.09,0.17,191.5,-0.06,307668320,2172,1000,11111100,34,25,100,0.0,0,20,20,100824,20.8,3
10200,142.27700000000002,2.073,11.084000000000001,-1.35465,2.18729,-22.83563,0.064974,0.042354,1.0523799999999999,2490.0,7550.0,3790.0,46.5,10.08,00000000 00000000,32.826183073,34.956033346,23.059,0.23,-0.7,0.11,0.06,-1.66,3.15,-0.08,0.26,0.07,32.825801569,34.956199345,23.09,0.17,191.5,-0.06,307668345,2172,1000,11111100,34,25,100,0.0,0,45,45,100822,20.88,0
10201,142.816,1.9869999999999999,11.03,-0.43353,4.30959,-21.33768,0.061439999999999995,0.047335,1.059548,2560.0,7600.0,3800.0,46.5,10.12,00000000 00000000,32.82618309,34.956033427,23.063,0.27,-0.7,0.12,0.06,-1.66,3.14,-0.09,0.28,0.03,32.825801467,34.956199327,23.086,0.22,188.26,-0.07,307668370,2172,1000,11111100,34,25,100,0.0,0,20,20,100822,20.88,3
10202,143.365,1.8780000000000001,10.866,0.88559,11.0081,-24.15065,0.060201,0.033457,1.0598610000000002,2620.0,7640.0,3760.0,46.5,10.07,00000000 00000000,32.826182931999995,34.956033506,23.067,0.31,-0.69,0.14,0.06,-1.65,3.14,-0.1,0.3,0.0,32.825801467,34.956199327,23.086,0.22,188.26,-0.07,307668395,2172,1000,11111100,34,25,100,0.0,0,45,45,100822,20.96,0
10203,144.01,1.696,10.513,3.77544,18.75244,-29.15338,0.05565,0.009979,1.025491,2710.0,7680.0,3730.0,46.5,10.1,00000000 00000000,32.826182935,34.956033606999995,23.071,0.34,-0.68,0.15,0.05,-1.65,3.14,-0.11,0.31,-0.03,32.825801339,34.956199359,23.087,0.26,174.26,0.03,307668420,2172,1000,11111100,34,25,100,0.0,0,20,20,100822,20.96,3
10204,144.725,1.4380000000000002,-9.971,6.10864,25.95224,-30.049770000000002,0.049760000000000006,-0.001575,0.985931,2810.0,7720.0,3650.0,46.5,10.09,00000000 00000000,32.826182783,34.956033704,23.074,0.37,-0.67,0.15,0.05,-1.64,3.14,-0.11,0.32,-0.06,32.825801339,34.956199359,23.087,0.26,174.26,0.03,307668445,2172,1000,11111100,34,25,100,0.0,0,45,45,100822,20.96,0
10205,145.401,1.151,-9.305,7.140689999999999,26.971140000000002,-26.67359,0.078175,-0.001808,0.962303,2940.0,7760.0,3580.0,46.5,10.11,00000000 00000000,32.826182767,34.95603382,23.078,0.39,-0.66,0.14,0.05,-1.64,3.14,-0.1,0.32,-0.08,32.825801197,34.956199373000004,23.09,0.31,175.36,0.06,307668470,2172,1000,11111100,33,25,100,0.0,0,20,20,100822,20.88,3
10206,145.97,0.8809999999999999,-8.747,6.8598300000000005,16.70006,-21.62911,0.078527,0.006372999999999999,0.938285,3070.0,7800.0,3510.0,46.6,10.08,00000000 00000000,32.826182619,34.956033929,23.082,0.41,-0.65,0.13,0.05,-1.63,3.14,-0.09,0.33,-0.1,32.825801197,34.956199373000004,23.09,0.31,175.36,0.06,307668495,2172,1000,11111100,33,25,100,0.0,0,45,45,100822,20.96,0
10207,146.425,0.645,-8.543,6.06608,0.7847,-17.96191,0.026324,-0.005399,0.9143549999999999,3180.0,7850.0,3480.0,46.6,10.11,00000000 00000000,32.826182596,34.956034056,23.084,0.43,-0.64,0.11,0.05,-1.63,3.14,-0.08,0.33,-0.12,32.825801038,34.956199391999995,23.087,0.33,179.69,-0.03,307668520,2172,1000,11111100,32,25,100,0.0,0,20,20,100822,20.96,3
10208,146.86700000000002,0.452,-8.586,3.7047,-0.98925,-20.508370000000003,0.001962,0.01728,0.938628,3220.0,7860.0,3420.0,46.6,10.08,00000000 00000000,32.826182452,34.956034175999996,23.086,0.46,-0.63,0.09,0.05,-1.62,3.14,-0.05,0.33,-0.15,32.825801038,34.956199391999995,23.087,0.33,179.69,-0.03,307668545,2172,1000,11111100,32,25,100,0.0,0,45,45,100822,20.88,0
10209,147.289,0.268,-8.6,0.97203,1.13802,-23.15361,0.018142,-0.00847,0.9539620000000001,3260.0,7900.0,3420.0,46.6,10.1,00000000 00000000,32.82618652,34.956034396999996,23.087,0.48,-0.51,0.07,0.04,-1.62,3.14,-0.04,0.34,-0.18,32.825800854,34.956199405,23.085,0.41,176.71,-0.04,307668570,2172,1000,11111100,32,25,100,0.0,0,20,20,100822,20.96,3
10210,147.809,0.195,-8.646,-1.42569,-5.854830000000001,-17.8574,-0.009406999999999999,-0.01555,0.9166920000000001,3300.0,7950.0,3420.0,46.6,10.08,00000000 00000000,32.826186406,34.956034531,23.089,0.51,-0.49,0.05,0.04,-1.61,3.14,-0.02,0.33,-0.21,32.825800854,34.956199405,23.085,0.41,176.71,-0.04,307668595,2172,1000,11111100,32,25,100,0.0,0,45,45,100822,20.88,0
10211,148.205,0.21600000000000003,-8.899,-4.32854,-13.305270000000002,-11.811589999999999,-0.0348,0.008004,0.905964,3330.0,8000.0,3440.0,46.6,10.12,00000000 00000000,32.826185478,34.956034673000005,23.089,0.54,-0.49,0.03,0.04,-1.61,3.14,0.0,0.33,-0.25,32.8258006,34.956199429,23.084,0.54,179.08,0.0,307668620,2172,1000,11111100,32,25,100,0.0,0,20,20,100822,20.96,3
10212,148.499,0.315,-9.216000000000001,-6.6831,-11.010639999999999,-10.5443,0.021266999999999998,0.04307,0.9663889999999999,3300.0,8030.0,3430.0,46.6,10.05,00000000 00000000,32.826185367,34.956034823,23.09,0.58,-0.48,0.01,0.05,-1.6,3.14,0.01,0.34,-0.29,32.8258006,34.956199429,23.084,0.54,179.08,0.0,307668645,2172,1000,11111100,32,25,100,0.0,0,45,45,100822,20.96,0
10213,148.836,0.45399999999999996,-9.424,-6.76691,-6.15029,-9.43887,0.053009,0.034571,0.98644,3280.0,8070.0,3450.0,46.6,10.11,00000000 00000000,32.826183760999996,34.956034981,23.088,0.6,-0.51,0.0,0.05,-1.6,3.14,0.02,0.35,-0.32,32.825800318,34.956199435,23.077,0.62,179.04,-0.13,307668670,2172,1000,11111100,32,25,100,0.0,0,20,20,100822,20.88,3
10214,149.047,0.59,-9.536,-6.9508399999999995,-2.31236,-5.48773,0.016247,0.054166,0.991922,3270.0,8110.0,3470.0,46.6,10.08,00000000 00000000,32.826183645,34.956035148000005,23.088,0.64,-0.51,0.0,0.05,-1.59,3.14,0.02,0.36,-0.35,32.825800318,34.956199435,23.077,0.62,179.04,-0.13,307668695,2172,1000,11111100,32,25,100,0.0,0,45,45,100822,20.88,0
10215,149.30200000000002,0.75,-9.474,-6.30387,7.782610000000001,-7.6564,0.034467000000000005,0.082322,1.044937,3270.0,8160.0,3500.0,46.6,10.1,00000000 00000000,32.826181851,34.956035335,23.087,0.68,-0.55,0.0,0.05,-1.59,3.13,0.02,0.37,-0.38,32.82579999,34.956199436,23.066,0.7,182.81,-0.21,307668720,2172,1000,11111100,30,25,100,0.0,0,20,20,100822,20.96,3
10216,149.549,0.828,-9.177,-2.7709,14.457460000000001,-9.44707,0.093945,0.06519900000000001,1.0531840000000001,3290.0,8200.0,3490.0,46.5,10.05,00000000 00000000,32.826181726,34.956035522,23.087,0.71,-0.55,0.01,0.05,-1.58,3.13,0.01,0.4,-0.41,32.82579999,34.956199436,23.066,0.7,182.81,-0.21,307668745,2172,1000,11111100,30,25,100,0.0,0,45,45,100824,20.8,0
10217,149.766,0.828,-8.839,0.8993200000000001,12.15253,-4.2049,0.095416,0.075151,1.054362,3340.0,8240.0,3500.0,46.5,10.12,00000000 00000000,32.826180871,34.956035738000004,23.085,0.73,-0.58,0.02,0.05,-1.57,3.13,0.0,0.41,-0.42,32.82579969,34.956199445,23.06,0.66,178.51,-0.12,307668770,2172,1000,11111100,29,25,100,0.0,0,20,20,100824,20.71,3
10218,149.835,0.742,-8.508,5.17189,15.57865,-3.82016,0.08668200000000001,0.084204,1.0989309999999999,3380.0,8260.0,3470.0,46.5,10.09,00000000 00000000,32.826180737,34.956035938,23.086,0.76,-0.59,0.04,0.05,-1.57,3.13,-0.01,0.44,-0.44,32.82579969,34.956199445,23.06,0.66,178.51,-0.12,307668795,2172,1000,11111100,29,25,100,0.0,0,45,45,100826,20.63,0
10219,149.97,0.541,-8.077,9.87748,17.28032,-5.83111,0.09754199999999999,0.073658,1.093227,3430.0,8260.0,3440.0,46.5,10.12,00000000 00000000,32.826180034000004,34.956036173,23.087,0.78,-0.62,0.06,0.05,-1.56,3.13,-0.03,0.46,-0.46,32.825799369,34.95619946,23.068,0.69,181.08,0.19,307668820,2172,1000,11111100,29,25,100,0.0,0,20,20,100824,20.71,3
10220,150.047,0.235,-7.729,13.130629999999998,9.18587,-2.58511,0.086895,0.07645199999999999,1.065933,3460.0,8250.0,3390.0,46.5,10.08,00000000 00000000,32.826179893,34.956036387,23.089,0.8,-0.63,0.09,0.05,-1.56,3.13,-0.06,0.48,-0.47,32.825799369,34.95619946,23.068,0.69,181.08,0.19,307668845,2172,1000,11111100,29,25,100,0.0,0,45,45,100824,20.8,0
10221,150.047,0.10300000000000001,-7.615,14.9823,1.3652799999999998,4.374969999999999,0.038931,0.063672,1.069943,3490.0,8240.0,3370.0,46.5,10.11,00000000 00000000,32.826178827,34.956036642,23.091,0.83,-0.66,0.1,0.05,-1.55,3.13,-0.07,0.49,-0.48,32.825799008000004,34.956199469,23.073,0.8,178.73,0.09,307668870,2172,1000,11111100,30,25,100,0.0,0,20,20,100824,20.8,3
10222,149.82399999999998,0.461,-7.5489999999999995,15.52126,5.403519999999999,9.15,0.030369,0.038342,1.088191,3490.0,8190.0,3350.0,46.5,10.07,00000000 00000000,32.826178678000005,34.956036868000005,23.093,0.86,-0.66,0.12,0.05,-1.54,3.13,-0.09,0.5,-0.51,32.825799008000004,34.956199469,23.073,0.8,178.73,0.09,307668895,2172,1000,11111100,30,25,100,0.0,0,45,45,100822,20.96,0
10223,149.562,0.8109999999999999,-7.4,16.84269,3.66989,14.955979999999998,0.090682,0.042613,1.102849,3500.0,8140.0,3340.0,46.5,10.11,00000000 00000000,32.826177573,34.956037149000004,23.094,0.87,-0.67,0.14,0.05,-1.54,3.12,-0.11,0.51,-0.53,32.825798621,34.956199459000004,23.07,0.83,184.13,-0.04,307668920,2172,1000,11111100,30,25,100,0.0,0,20,20,100822,20.96,3
10224,149.005,1.225,-7.454,22.05815,-7.135439999999999,25.90762,0.12515,0.075454,1.113893,3480.0,8070.0,3320.0,46.5,10.07,00000000 00000000,32.82617742,34.956037386,23.098,0.88,-0.68,0.17,0.04,-1.53,3.12,-0.14,0.51,-0.54,32.825798621,34.956199459000004,23.07,0.83,184.13,-0.04,307668945,2172,1000,11111100,30,25,100,0.0,0,45,45,100822,20.88,0
10225,148.18,1.735,-7.691,26.886740000000003,-7.703130000000001,33.829229999999995,0.09882200000000001,0.074049,1.0984770000000001,3440.0,7980.0,3340.0,46.5,10.1,00000000 00000000,32.826177075,34.956037665,23.101,0.9,-0.69,0.2,0.04,-1.53,3.12,-0.17,0.53,-0.54,32.82579829,34.956199408,23.061,0.74,187.43,-0.16,307668970,2172,1000,11111100,30,25,100,0.0,0,20,20,100822,20.88,3
10226,147.257,2.2969999999999997,-7.794,27.039070000000002,3.28734,32.11668,0.086447,0.054499,1.04437,3380.0,7850.0,3340.0,46.5,10.07,00000000 00000000,32.826176918,34.956037908,23.106,0.91,-0.69,0.22,0.04,-1.52,3.12,-0.19,0.53,-0.55,32.82579829,34.956199408,23.061,0.74,187.43,-0.16,307668995,2172,1000,11111100,30,25,100,0.0,0,45,45,100824,20.8,8
10227,146.417,2.824,-7.604,22.96164,13.7583,29.28472,0.070283,0.033645,0.9525959999999999,3360.0,7740.0,3350.0,46.5,10.09,00000000 00000000,32.826176763,34.956038155,23.109,0.92,-0.68,0.22,0.03,-1.51,3.12,-0.19,0.53,-0.57,32.825797912,34.956199404,23.067,0.74,187.43,-0.16,307669020,2172,1000,11111100,30,25,100,0.0,0,20,70,100824,20.8,1
10228,145.69299999999998,3.2039999999999997,-7.247999999999999,15.40161,16.52595,28.416109999999996,0.07037,0.024733,0.883991,3340.0,7610.0,3310.0,46.5,10.07,00000000 00000000,32.826176065,34.956038451,23.114,0.93,-0.69,0.2,0.03,-1.51,3.12,-0.17,0.52,-0.58,32.825797912,34.956199404,23.067,0.81,183.49,0.12,307669045,2172,1000,11111100,30,25,100,0.0,0,45,45,100822,20.88,2
10229,144.996,3.3939999999999997,-6.922000000000001,7.30012,11.820319999999999,28.01207,0.0839,0.012162000000000001,0.856712,3330.0,7490.0,3240.0,46.5,10.1,00000000 00000000,32.826175494,34.956038747,23.117,0.93,-0.69,0.16,0.02,-1.5,3.11,-0.14,0.51,-0.58,32.825797554,34.956199359,23.079,0.79,186.05,0.24,307669070,2172,1000,11111100,29,25,100,0.0,0,20,20,100824,20.8,3
10230,144.30100000000002,3.3989999999999996,-6.755,-0.01348,5.25748,27.07214,0.10743599999999999,-0.004103,0.8671049999999999,3300.0,7390.0,3190.0,46.5,10.08,00000000 00000000,32.826175339,34.956038996,23.121,0.92,-0.68,0.13,0.02,-1.49,3.11,-0.11,0.5,-0.58,32.825797554,34.956199359,23.079,0.79,186.05,0.24,307669095,2172,1000,11111100,29,25,100,0.0,0,45,45,100824,20.8,0
10231,143.655,3.241,-6.72,-6.39865,0.9963200000000001,26.818690000000004,0.118157,-0.008079000000000001,0.8500459999999999,3280.0,7330.0,3190.0,46.5,10.12,00000000 00000000,32.82617504,34.956039282,23.121,0.91,-0.67,0.1,0.02,-1.49,3.11,-0.08,0.49,-0.58,32.825797216,34.956199339,23.081,0.73,186.43,0.05,307669120,2172,1000,11111100,29,25,100,0.0,0,20,20,100824,20.8,3
10232,143.033,2.928,-6.752000000000001,-12.54572,-0.35859,24.931,0.098583,-0.011478,0.8273469999999999,3230.0,7280.0,3200.0,46.5,10.07,00000000 00000000,32.826174888000004,34.956039525,23.123,0.9,-0.67,0.06,0.02,-1.48,3.11,-0.04,0.47,-0.57,32.825797216,34.956199339,23.081,0.73,186.43,0.05,307669145,2172,1000,11111100,29,25,100,0.0,0,45,45,100824,20.8,0
10233,142.517,2.497,-6.7829999999999995,-16.29225,0.16969,18.91704,0.053874,-0.029342,0.832676,3200.0,7280.0,3250.0,46.5,10.1,00000000 00000000,32.826174763000004,34.956039806999996,23.122,0.89,-0.65,0.02,0.02,-1.47,3.11,0.0,0.45,-0.58,32.825796813000004,34.95619925,23.08,0.9,190.57,-0.01,307669170,2172,1000,11111100,28,25,100,0.0,0,20,20,100822,20.96,3
10234,142.234,2.042,-6.752000000000001,-16.61137,3.87719,7.01998,0.025575,-0.022672,0.860173,3160.0,7280.0,3280.0,46.5,10.08,00000000 00000000,32.826174617,34.956040046,23.122,0.89,-0.63,-0.01,0.02,-1.47,3.1,0.03,0.44,-0.59,32.825796813000004,34.95619925,23.08,0.9,190.57,-0.01,307669195,2172,1000,11111100,28,25,100,0.0,0,45,45,100822,20.88,0
10235,142.249,1.662,-6.6129999999999995,-13.08838,6.53137,-4.3716800000000005,0.015487,-0.014218000000000001,0.874764,3150.0,7310.0,3330.0,46.6,10.1,00000000 00000000,32.826174498,34.956040326,23.118,0.9,-0.61,-0.05,0.02,-1.46,3.1,0.07,0.43,-0.61,32.825796374,34.956199231,23.077,0.95,184.97,-0.03,307669220,2172,1000,11111100,28,25,100,0.0,0,20,20,100822,20.96,3
10236,142.486,1.429,-6.46,-7.387110000000001,4.0999099999999995,-11.215110000000001,0.01339,-0.016928,0.8878030000000001,3160.0,7360.0,3340.0,46.6,10.09,00000000 00000000,32.826174361,34.956040569,23.117,0.91,-0.6,-0.08,0.03,-1.45,3.1,0.1,0.42,-0.63,32.825796374,34.956199231,23.077,0.95,184.97,-0.03,307669245,2172,1000,11111100,28,25,100,0.0,0,45,45,100824,20.8,0
10237,142.785,1.345,-6.419,-2.26258,-0.90615,-11.231119999999999,0.007965999999999999,-0.025851999999999997,0.915372,3190.0,7420.0,3360.0,46.6,10.11,00000000 00000000,32.826174252,34.956040851,23.112,0.92,-0.57,-0.1,0.03,-1.45,3.1,0.12,0.4,-0.65,32.825795985999996,34.956199241,23.072,0.86,178.67,-0.11,307669270,2172,1000,11111100,28,25,100,0.0,0,20,20,100822,20.88,3
10238,143.041,1.359,-6.449,0.6185,-0.63548,-9.53942,-0.017533,-0.022706999999999998,0.9480780000000001,3190.0,7450.0,3360.0,46.6,10.08,00000000 00000000,32.826174124,34.956041099000004,23.109,0.93,-0.55,-0.12,0.03,-1.44,3.09,0.14,0.39,-0.67,32.825795985999996,34.956199241,23.072,0.86,178.67,-0.11,307669295,2172,1000,11111100,28,25,100,0.0,0,45,45,100822,20.88,0
10239,143.281,1.421,-6.38,1.8829,6.35762,-10.38215,-0.041527999999999995,-0.028262,0.9812870000000001,3210.0,7480.0,3370.0,46.6,10.1,00000000 00000000,32.826174019,34.956041387,23.103,0.95,-0.52,-0.13,0.04,-1.43,3.09,0.15,0.38,-0.7,32.82579548,34.956199317,23.059,1.1,175.18,-0.23,307669320,2172,1000,11111100,28,25,100,0.0,0,20,20,100822,20.88,3
10240,143.504,1.506,-6.131,3.04727,12.687669999999999,-7.20821,-0.015571999999999999,-0.025338999999999997,1.0372430000000001,3240.0,7510.0,3360.0,46.6,10.08,00000000 00000000,32.826173903000004,34.956041645,23.099,0.97,-0.49,-0.14,0.04,-1.42,3.09,0.15,0.36,-0.73,32.82579548,34.956199317,23.059,1.1,175.18,-0.23,307669345,2172,1000,11111100,28,25,100,0.0,0,45,45,100824,20.8,0
10241,143.597,1.62,-5.761,5.11026,16.650389999999998,-1.35077,0.00547,-0.034151999999999995,1.105848,3290.0,7540.0,3360.0,46.6,10.09,00000000 00000000,32.826173813000004,34.956041944,23.093,0.98,-0.47,-0.12,0.05,-1.42,3.09,0.14,0.35,-0.76,32.825794986,34.956199368,23.051,1.1,174.93,-0.14,307669370,2172,1000,11111100,28,25,100,0.0,0,20,20,100824,20.8,3
10242,143.563,1.756,-5.292999999999999,5.73577,21.3626,2.73753,0.019896,-0.039336,1.143312,3330.0,7540.0,3320.0,46.6,10.07,00000000 00000000,32.82617371,34.956042209,23.091,0.99,-0.44,-0.09,0.05,-1.41,3.08,0.11,0.33,-0.78,32.825794986,34.956199368,23.051,1.1,174.93,-0.14,307669395,2172,1000,11111100,28,25,100,0.0,0,45,45,100824,20.8,0
10243,143.44299999999998,1.9040000000000001,-4.672,7.76921,28.366290000000003,5.36145,0.048369,-0.019534,1.168017,3390.0,7550.0,3290.0,46.6,10.05,00000000 00000000,32.82617363,34.956042508,23.088,0.99,-0.42,-0.05,0.05,-1.4,3.08,0.07,0.31,-0.8,32.825794495,34.956199498000004,23.055,1.08,169.8,0.08,307669420,2172,1000,11111100,28,25,100,0.0,0,20,20,100824,20.8,3
10244,143.233,2.168,-3.9410000000000003,14.74385,29.46497,9.713980000000001,0.047768,-0.027523000000000002,1.148451,3460.0,7530.0,3230.0,46.6,10.08,00000000 00000000,32.826173536999995,34.956042774000004,23.087,0.99,-0.4,-0.01,0.05,-1.39,3.08,0.03,0.3,-0.8,32.825794495,34.956199498000004,23.055,1.08,169.8,0.08,307669445,2172,1000,11111100,28,25,100,0.0,0,45,45,100822,20.88,0
10245,142.975,2.5580000000000003,-3.219,15.70253,30.966179999999998,6.15417,0.060131,-0.07033500000000001,1.154037,3500.0,7470.0,3120.0,46.6,10.1,00000000 00000000,32.826173472,34.956043074,23.085,0.98,-0.38,0.01,0.06,-1.39,3.07,0.0,0.27,-0.81,32.825794044,34.956199575999996,23.043,1.01,171.59,-0.22,307669470,2172,1000,11111100,27,25,100,0.0,0,20,20,100824,20.8,3
10246,142.929,2.87,-2.365,8.53951,36.68867,-2.7559400000000003,0.147337,-0.057645,1.160751,3570.0,7430.0,3020.0,46.6,10.07,00000000 00000000,32.826173387,34.956043333000004,23.086,0.95,-0.37,0.05,0.06,-1.38,3.07,-0.04,0.24,-0.79,32.825794044,34.956199575999996,23.043,1.01,171.59,-0.22,307669495,2172,1000,11111100,27,25,100,0.0,0,45,45,100824,20.8,0
10247,142.99,2.9730000000000003,-1.4609999999999999,-0.10699000000000002,32.730340000000005,0.76583,0.17383900000000002,-0.082856,1.10311,3680.0,7430.0,2960.0,46.6,10.11,00000000 00000000,32.826173304,34.956043583,23.087,0.9,-0.36,0.08,0.06,-1.37,3.07,-0.07,0.21,-0.76,32.825794044,34.956199575999996,23.043,1.01,171.59,-0.22,307669520,2172,1000,11111100,27,25,100,0.0,0,70,70,100822,20.88,0
10248,142.795,2.904,-0.816,-4.34644,19.6033,14.24324,0.10419300000000001,-0.053091,1.052096,3760.0,7420.0,2870.0,46.6,10.08,00000000 00000000,32.82617325,34.95604385,23.087,0.86,-0.36,0.1,0.05,-1.36,3.06,-0.09,0.18,-0.73,32.825793636,34.956199684,23.034,0.88,170.4,-0.16,307669545,2172,1000,11111100,26,25,100,0.0,0,45,45,100824,20.8,3
10249,142.338,2.785,-0.49200000000000005,-4.13302,7.560230000000001,20.3825,0.06267,-0.034985,1.026333,3820.0,7430.0,2840.0,46.6,10.1,00000000 00000000,32.826173186999995,34.9560441,23.087,0.83,-0.35,0.11,0.05,-1.35,3.06,-0.1,0.15,-0.71,32.825793196,34.956199841,23.036,1.02,163.26,0.03,307669570,2172,1000,11111100,26,25,100,0.0,0,20,20,100824,20.8,3
10250,141.83700000000002,2.7030000000000003,-0.503,-2.28047,-6.38359,18.3541,0.069717,-0.033619,0.9939479999999999,3810.0,7400.0,2820.0,46.6,10.08,00000000 00000000,32.826173108,34.95604432,23.09,0.81,-0.34,0.11,0.05,-1.35,3.06,-0.1,0.13,-0.69,32.825793196,34.956199841,23.036,1.02,163.26,0.03,307669595,2172,1000,11111100,26,25,100,0.0,0,45,45,100824,20.71,0
10251,141.439,2.634,-0.831,-3.86744,-17.75797,13.867720000000002,0.11711099999999999,-0.034065,0.976195,3780.0,7380.0,2850.0,46.6,10.11,00000000 00000000,32.826173046,34.956044552,23.09,0.78,-0.34,0.1,0.05,-1.34,3.05,-0.1,0.11,-0.67,32.825792775,34.956200058,23.041,0.97,158.74,0.13,307669620,2172,1000,11111100,26,25,100,0.0,0,20,20,100824,20.71,3
10252,141.126,2.478,-1.355,-8.29778,-21.26301,10.84137,0.14249900000000001,-0.043682,1.016667,3720.0,7350.0,2910.0,46.6,10.1,00000000 00000000,32.826172967,34.956044756,23.093,0.74,-0.35,0.1,0.05,-1.33,3.05,-0.1,0.09,-0.64,32.825792775,34.956200058,23.041,0.97,158.74,0.13,307669645,2172,1000,11111100,26,25,100,0.0,0,45,45,100824,20.8,0
10253,140.916,2.225,-1.885,-10.99892,-20.34958,6.51655,0.121175,-0.05469299999999999,1.012276,3660.0,7350.0,3010.0,46.6,10.12,00000000 00000000,32.8261729,34.956044963000004,23.094,0.7,-0.35,0.11,0.04,-1.32,3.04,-0.1,0.07,-0.61,32.825792357,34.956200271,23.07,1.0,156.72,0.58,307669670,2172,1000,11111100,26,25,100,0.0,0,20,20,100824,20.8,3
10254,140.803,1.9409999999999998,-2.388,-11.22686,-19.86017,3.9420800000000003,0.064549,-0.040697000000000004,0.947577,3600.0,7350.0,3090.0,46.6,10.08,00000000 00000000,32.826172822,34.956045149,23.097,0.68,-0.34,0.1,0.04,-1.31,3.04,-0.1,0.05,-0.6,32.825792357,34.956200271,23.07,1.0,156.72,0.58,307669695,2172,1000,11111100,26,25,100,0.0,0,45,45,100824,20.8,0
10255,140.733,1.6680000000000001,-2.866,-10.37067,-17.7985,2.4588,0.011444,-0.036128,0.898611,3540.0,7380.0,3190.0,46.6,10.11,00000000 00000000,32.826172759,34.956045341999996,23.098,0.67,-0.33,0.08,0.04,-1.31,3.04,-0.08,0.03,-0.59,32.825791934,34.956200501,23.064,0.98,157.66,-0.1,307669720,2172,1000,11111100,26,25,100,0.0,0,20,20,100824,20.8,3
10256,140.7,1.396,-3.2560000000000002,-11.265189999999999,-12.17205,1.21454,-0.016059,-0.035715,0.858441,3490.0,7420.0,3280.0,46.6,10.08,00000000 00000000,32.826172686,34.956045523,23.1,0.67,-0.31,0.05,0.04,-1.3,3.03,-0.05,0.02,-0.6,32.825791934,34.956200501,23.064,0.98,157.66,-0.1,307669745,2172,1000,11111100,26,25,100,0.0,0,45,45,100824,20.8,0
10257,140.691,1.077,-3.43,-14.21031,-1.42425,1.32408,-0.040159,-0.039221,0.84283,3460.0,7470.0,3390.0,46.6,10.1,00000000 00000000,32.826172637,34.956045718,23.099,0.67,-0.29,0.01,0.04,-1.29,3.03,-0.01,0.0,-0.62,32.82579158,34.956200664,23.065,0.84,158.68,0.02,307669770,2172,1000,11111100,26,25,100,0.0,0,20,20,100824,20.8,3
10258,140.636,0.69,-3.3560000000000003,-16.01376,6.2721800000000005,5.65599,-0.041733,-0.025263999999999998,0.850024,3430.0,7500.0,3420.0,46.6,10.08,00000000 00000000,32.826172573,34.956045900999996,23.099,0.68,-0.27,-0.01,0.04,-1.28,3.02,0.02,0.0,-0.64,32.82579158,34.956200664,23.065,0.84,158.68,0.02,307669795,2172,1000,11111100,26,25,100,0.0,0,45,45,100822,20.88,0
10259,140.436,0.28600000000000003,-3.176,-14.839329999999999,6.59025,12.24509,-0.032434,-4.3e-05,0.8584510000000001,3440.0,7540.0,3480.0,46.6,10.09,00000000 00000000,32.826172531,34.956046099,23.096,0.69,-0.26,-0.05,0.04,-1.27,3.02,0.05,0.0,-0.66,32.825791206,34.956200898,23.061,0.88,154.65,-0.04,307669820,2172,1000,11111100,26,25,100,0.0,0,20,20,100824,20.8,3
10260,140.019,0.065,-3.082,-11.21012,1.4028100000000001,23.08636,-0.044624000000000004,-0.000684,0.91404,3440.0,7560.0,3510.0,46.6,10.08,00000000 00000000,32.826172474,34.956046288,23.094,0.71,-0.24,-0.08,0.04,-1.26,3.01,0.08,0.0,-0.68,32.825791206,34.956200898,23.061,0.88,154.65,-0.04,307669845,2172,1000,11111100,26,25,100,0.0,0,45,45,100824,20.8,0
10261,139.338,0.318,-3.0380000000000003,-6.08833,2.97277,31.03783,-0.061738999999999995,-0.002535,1.005816,3400.0,7550.0,3510.0,46.6,10.12,00000000 00000000,32.826172430999996,34.956046489,23.091,0.73,-0.23,-0.09,0.05,-1.25,3.01,0.1,0.0,-0.7,32.8257908,34.956201168,23.074,1.03,150.74,0.25,307669870,2172,1000,11111100,26,25,100,0.0,0,20,20,100824,20.8,3
10262,138.487,0.445,-2.905,-0.4714,7.2701199999999995,38.09296,-0.06705599999999999,-0.010584,1.061779,3340.0,7500.0,3490.0,46.6,10.09,00000000 00000000,32.82617238,34.956046687,23.089,0.75,-0.21,-0.08,0.05,-1.25,3.0,0.09,0.0,-0.73,32.8257908,34.956201168,23.074,1.03,150.74,0.25,307669895,2172,1000,11111100,26,25,100,0.0,0,45,45,100822,20.96,0
10263,137.404,0.447,-2.69,4.19411,8.872580000000001,47.68623,-0.037716,0.0071719999999999996,1.0965200000000002,3300.0,7430.0,3490.0,46.6,10.11,00000000 00000000,32.826172357,34.956046908000005,23.085,0.77,-0.2,-0.07,0.05,-1.24,3.0,0.07,0.0,-0.75,32.825790415,34.956201399,23.064,0.9,155.65,-0.16,307669920,2172,1000,11111100,26,25,100,0.0,0,20,20,100822,20.96,3
10264,136.131,0.359,-2.476,7.1871,7.050039999999999,53.40509,0.01797,0.019003,1.120947,3250.0,7320.0,3470.0,46.6,10.09,00000000 00000000,32.826172312,34.956047116,23.084,0.78,-0.19,-0.04,0.05,-1.23,2.99,0.04,0.0,-0.77,32.825790415,34.956201399,23.064,0.9,155.65,-0.16,307669945,2172,1000,11111100,26,25,100,0.0,0,45,45,100822,20.96,0
10265,134.725,0.21899999999999997,-2.327,8.32887,4.83845,58.22251,0.023932,0.015519,1.11562,3190.0,7210.0,3470.0,46.6,10.12,00000000 00000000,32.82617229,34.956047343,23.082,0.79,-0.2,-0.01,0.05,-1.22,2.99,0.01,0.0,-0.77,32.825790034,34.956201619,23.061,0.94,154.04,-0.07,307669970,2172,1000,11111100,26,25,100,0.0,0,20,20,100822,20.96,3
10266,133.162,0.08800000000000001,-2.18,6.40738,6.48059,66.79694,-0.038499,-0.009868,1.0957299999999999,3100.0,7070.0,3440.0,46.6,10.08,00000000 00000000,32.826172245,34.956047556,23.081,0.79,-0.19,0.0,0.06,-1.21,2.98,0.0,0.0,-0.78,32.825790034,34.956201619,23.061,0.94,154.04,-0.07,307669995,2172,1000,11111100,26,25,100,0.0,0,45,45,100822,20.96,8
10267,131.366,0.042,-2.0869999999999997,2.85882,-1.5137399999999999,76.29045,-0.035682,-0.00443,1.093759,3020.0,6950.0,3480.0,46.6,10.07,00000000 00000000,32.826172219,34.956047782,23.082,0.81,-0.17,0.03,0.06,-1.2,2.98,-0.02,0.0,-0.8,32.825789628,34.956201944,23.077,1.02,147.88,0.34,307670020,2172,1000,11111100,26,25,100,0.0,0,20,20,100822,20.96,3
10268,129.356,0.044000000000000004,-2.3280000000000003,4.5320800000000006,-16.65135,82.91244,0.089804,0.00243,1.1683860000000001,2880.0,6810.0,3500.0,46.6,10.1,00000000 00000000,32.826172179000004,34.956048,23.083,0.81,-0.17,0.06,0.06,-1.19,2.97,-0.05,0.0,-0.8,32.825789628,34.956201944,23.077,1.02,147.88,0.34,307670045,2172,1000,11111100,26,25,100,0.0,0,45,45,100822,20.96,0
10269,127.301,0.042,-2.7939999999999996,9.53423,-17.11362,78.72309,0.137902,0.006142,1.162342,2670.0,6640.0,3510.0,46.6,10.1,00000000 00000000,32.826172161,34.956048231,23.084,0.8,-0.19,0.1,0.05,-1.18,2.96,-0.1,0.0,-0.78,32.825789245,34.956202177,23.077,0.95,152.81,0.01,307670070,2172,1000,11111100,29,25,100,0.0,0,20,20,100822,20.96,3
10270,125.524,0.218,-3.01,11.35854,2.2174,60.297709999999995,0.08905700000000001,-0.047264,1.074991,2470.0,6480.0,3540.0,46.6,10.07,00000000 00000000,32.826172116,34.956048444000004,23.087,0.78,-0.2,0.13,0.05,-1.17,2.96,-0.13,0.0,-0.76,32.825789245,34.956202177,23.077,0.95,152.81,0.01,307670095,2172,1000,11111100,29,25,100,0.0,0,45,45,100822,20.88,0
10271,124.27799999999999,0.462,-2.725,13.294870000000001,18.34273,38.81861,0.107985,-0.103255,0.9972799999999999,2350.0,6340.0,3540.0,46.6,10.1,00000000 00000000,32.826172091,34.956048664,23.091,0.76,-0.2,0.14,0.05,-1.17,2.95,-0.14,-0.01,-0.75,32.825788844,34.956202466,23.085,0.97,150.94,0.18,307670120,2172,1000,11111100,29,25,100,0.0,0,20,20,100822,20.96,3
10272,123.462,0.778,-2.273,14.17005,14.98599,27.324990000000003,0.137025,-0.12592,0.9463309999999999,2300.0,6220.0,3480.0,46.6,10.09,00000000 00000000,32.826172045,34.956048864,23.095,0.72,-0.2,0.13,0.05,-1.16,2.95,-0.14,-0.05,-0.73,32.825788844,34.956202466,23.085,0.97,150.94,0.18,307670145,2172,1000,11111100,29,25,100,0.0,0,45,45,100822,20.96,0
10273,122.777,1.061,-2.142,9.64134,-5.50584,28.564009999999996,0.153695,-0.14297,0.9295120000000001,2280.0,6130.0,3440.0,46.6,10.08,00000000 00000000,32.826172022,34.956049062,23.099,0.67,-0.2,0.12,0.04,-1.15,2.94,-0.12,-0.08,-0.7,32.825788421999995,34.95620269,23.1,1.02,155.92,0.29,307670170,2172,1000,11111100,28,25,100,0.0,0,20,20,100822,20.88,3
10274,121.969,1.18,-2.54,2.66073,-21.813,34.95346,0.12201300000000001,-0.0923,0.973251,2200.0,6050.0,3410.0,46.5,10.05,00000000 00000000,32.826171975,34.956049238,23.102,0.63,-0.21,0.11,0.04,-1.14,2.93,-0.11,-0.12,-0.67,32.825788421999995,34.95620269,23.1,1.02,155.92,0.29,307670195,2172,1000,11111100,28,25,100,0.0,0,45,45,100824,20.8,0
10275,120.965,1.1540000000000001,-3.096,-1.26095,-19.10745,35.44103,0.07710499999999999,-0.042238,0.9675600000000001,2080.0,5980.0,3450.0,46.5,10.08,00000000 00000000,32.82617247,34.956049785,23.104,0.6,-0.21,0.1,0.04,-1.13,2.93,-0.1,-0.14,-0.66,32.825787999,34.956203009,23.103,1.04,149.59,0.08,307670220,2172,1000,11111100,27,25,100,0.0,0,20,20,100824,20.8,3
10276,120.13600000000001,1.045,-3.468,-3.6338,-9.77962,30.942709999999998,0.034194,0.006566,0.899573,1970.0,5940.0,3510.0,46.5,10.08,00000000 00000000,32.826172421,34.956049945,23.107,0.59,-0.21,0.09,0.04,-1.12,2.92,-0.09,-0.15,-0.65,32.825787999,34.956203009,23.103,1.04,149.59,0.08,307670245,2172,1000,11111100,27,25,100,0.0,0,45,45,100822,20.96,0
10277,119.29700000000001,0.8909999999999999,-3.6710000000000003,-5.6113800000000005,-7.75793,27.5541,-0.001986,0.047546,0.8389469999999999,1860.0,5920.0,3550.0,46.5,10.1,00000000 00000000,32.826172994000004,34.956050544,23.108,0.59,-0.2,0.05,0.03,-1.11,2.91,-0.06,-0.15,-0.66,32.82578772,34.956203271999996,23.091,0.79,141.55,-0.22,307670270,2172,1000,11111100,27,25,100,0.0,0,20,20,100822,20.96,3
10278,118.63,0.7120000000000001,-3.928,-4.8666599999999995,-11.833860000000001,26.75427,-0.04993,0.036113,0.820343,1760.0,5880.0,3530.0,46.5,10.05,00000000 00000000,32.826172948,34.956050704,23.109,0.6,-0.19,0.01,0.03,-1.1,2.91,-0.02,-0.14,-0.67,32.82578772,34.956203271999996,23.091,0.79,141.55,-0.22,307670295,2172,1000,11111100,27,25,100,0.0,0,45,45,100820,21.05,0
10279,117.82700000000001,0.5770000000000001,-4.247,-2.56353,-13.041730000000001,28.04816,-0.091567,0.0035259999999999996,0.83067,1660.0,5850.0,3560.0,46.5,10.11,00000000 00000000,32.826173553000004,34.956051308,23.109,0.61,-0.17,-0.02,0.03,-1.09,2.9,0.02,-0.13,-0.7,32.825787342,34.956203579000004,23.111,0.94,147.86,0.42,307670320,2172,1000,11111100,28,25,100,0.0,0,20,20,100820,21.05,3
10280,117.10700000000001,0.486,-4.553999999999999,-0.25669000000000003,-10.04076,29.36287,-0.10899600000000001,0.011777,0.8891459999999999,1560.0,5820.0,3560.0,46.5,10.07,00000000 00000000,32.826173518000004,34.956051474,23.108,0.63,-0.13,-0.06,0.04,-1.08,2.89,0.06,-0.13,-0.74,32.825787342,34.956203579000004,23.111,0.94,147.86,0.42,307670345,2172,1000,11111100,28,25,100,0.0,0,45,45,100822,20.96,0
10281,116.425,0.474,-4.738,4.73709,-3.7692300000000003,28.204040000000003,-0.10432899999999999,-0.022706,1.009158,1480.0,5800.0,3590.0,46.5,10.08,00000000 00000000,32.826173292,34.956051511999995,23.105,0.65,-0.1,-0.08,0.04,-1.07,2.89,0.08,-0.13,-0.78,32.825786971,34.956203945,23.095,1.07,140.16,-0.32,307670370,2172,1000,11111100,28,25,100,0.0,0,20,20,100822,20.96,3
10282,115.744,0.619,-4.675,11.136510000000001,10.707089999999999,24.85765,-0.083567,-0.040523,1.0368979999999999,1400.0,5740.0,3570.0,46.5,10.05,00000000 00000000,32.826173274,34.956051688,23.103,0.66,-0.05,-0.07,0.04,-1.06,2.88,0.07,-0.14,-0.82,32.825786971,34.956203945,23.095,1.07,140.16,-0.32,307670395,2172,1000,11111100,28,25,100,0.0,0,45,45,100822,20.96,0
10283,115.1,0.907,-4.196000000000001,14.41935,27.7998,21.33543,-0.0306,-0.02584,1.052258,1380.0,5690.0,3540.0,46.5,10.1,00000000 00000000,32.826173493,34.956051985,23.1,0.66,-0.02,-0.07,0.04,-1.05,2.87,0.06,-0.16,-0.86,32.825786601,34.956204318000005,23.084,1.0,141.48,-0.17,307670420,2172,1000,11111100,28,25,100,0.0,0,20,20,100822,20.88,3
10284,114.57700000000001,1.215,-3.3739999999999997,11.91184,36.54759,19.1739,0.08646799999999999,-0.034007,1.1114030000000001,1380.0,5610.0,3460.0,46.5,10.09,00000000 00000000,32.826173489,34.956052162,23.099,0.65,-0.01,-0.05,0.05,-1.04,2.86,0.05,-0.17,-0.87,32.825786601,34.956204318000005,23.084,1.0,141.48,-0.17,307670445,2172,1000,11111100,28,25,100,0.0,0,45,45,100824,20.8,0
10285,114.189,1.395,-2.5140000000000002,4.795,31.307740000000003,21.28203,0.14895999999999998,-0.05243099999999999,1.116522,1430.0,5560.0,3380.0,46.5,10.12,00000000 00000000,32.826172926,34.956052009000004,23.096,0.64,-0.02,-0.02,0.05,-1.03,2.86,0.01,-0.18,-0.85,32.825786319,34.95620472,23.06,0.97,129.73,-0.49,307670470,2172,1000,11111100,29,25,100,0.0,0,20,20,100822,20.88,3
10286,113.625,1.416,-1.91,-1.07545,18.13551,22.72454,0.118658,-0.051578,1.1103450000000001,1470.0,5520.0,3320.0,46.5,10.05,00000000 00000000,32.826172919,34.956052177,23.096,0.61,-0.03,0.0,0.05,-1.03,2.85,0.0,-0.2,-0.82,32.825786319,34.95620472,23.06,0.97,129.73,-0.49,307670495,2172,1000,11111100,29,25,100,0.0,0,45,45,100822,20.88,0
10287,113.13600000000001,1.327,-1.643,-4.41245,2.50782,15.86081,0.091504,-0.045573,1.154993,1490.0,5510.0,3320.0,46.5,10.1,00000000 00000000,32.826172909,34.956052338,23.096,0.59,-0.04,0.03,0.05,-1.02,2.84,-0.04,-0.22,-0.81,32.825786319,34.95620472,23.06,0.97,129.73,-0.49,307670520,2172,1000,11111100,29,25,100,0.0,0,70,70,100822,20.88,0
10288,112.97,1.173,-1.8980000000000001,-6.4262,-22.21169,10.77848,0.139803,-0.061274,1.184513,1460.0,5480.0,3300.0,46.5,10.1,00000000 00000000,32.826172209,34.956052056,23.095,0.57,-0.05,0.08,0.05,-1.01,2.83,-0.08,-0.24,-0.78,32.825785945,34.956205155,23.054,1.08,136.88,-0.07,307670545,2172,1000,11111100,29,25,100,0.0,0,45,45,100822,20.88,3
10289,112.911,0.9490000000000001,-2.6910000000000003,-10.1776,-37.12791,8.96293,0.171415,-0.068204,1.172299,1400.0,5490.0,3360.0,46.5,10.12,00000000 00000000,32.826171396,34.956051664,23.095,0.55,-0.07,0.12,0.04,-1.0,2.82,-0.12,-0.26,-0.75,32.825785537,34.956205558,23.051,1.17,140.23,-0.06,307670570,2172,1000,11111100,29,25,100,0.0,0,20,20,100822,20.88,3
10290,112.73100000000001,0.633,-3.58,-13.50653,-30.26553,6.24784,0.144656,-0.028876,1.145861,1280.0,5500.0,3430.0,46.5,10.08,00000000 00000000,32.826171377,34.95605181,23.099,0.53,-0.09,0.16,0.04,-0.99,2.82,-0.16,-0.28,-0.73,32.825785537,34.956205558,23.051,1.17,140.23,-0.06,307670595,2172,1000,11111100,29,25,100,0.0,0,45,45,100822,20.88,0
10291,112.682,0.305,-4.087,-12.02347,-10.0863,-1.06087,0.10566099999999999,0.030686,1.05881,1190.0,5530.0,3520.0,46.5,10.09,00000000 00000000,32.826171363,34.956051936,23.101,0.52,-0.1,0.19,0.04,-0.98,2.81,-0.19,-0.28,-0.71,32.825785126,34.956206021,23.056,1.17,137.83,0.13,307670620,2172,1000,11111100,29,25,100,0.0,0,20,20,100822,20.88,3
10292,112.81299999999999,0.035,-4.156000000000001,-10.32656,2.53018,-7.2437,0.08043,0.047999,0.971692,1170.0,5570.0,3590.0,46.5,10.08,00000000 00000000,32.826171337,34.956052078,23.106,0.53,-0.11,0.19,0.03,-0.97,2.8,-0.2,-0.27,-0.71,32.825785126,34.956206021,23.056,1.17,137.83,0.13,307670645,2172,1000,11111100,29,25,100,0.0,0,45,45,100824,20.71,0
10293,113.04299999999999,0.18899999999999997,-4.065,-8.81833,3.0371099999999998,-8.98751,0.076736,0.036185,0.915585,1180.0,5620.0,3630.0,46.5,10.09,00000000 00000000,32.826171316,34.956052208,23.109,0.54,-0.12,0.18,0.03,-0.96,2.79,-0.19,-0.26,-0.7,32.825784776,34.956206456,23.069,1.12,133.61,0.26,307670670,2172,1000,11111100,29,25,100,0.0,0,20,20,100824,20.71,3
10294,113.266,0.369,-4.0569999999999995,-6.672339999999999,-2.43991,-7.48521,0.081582,0.029483999999999996,0.871755,1200.0,5640.0,3630.0,46.5,10.08,00000000 00000000,32.826171287,34.956052354,23.113,0.55,-0.13,0.15,0.03,-0.95,2.78,-0.16,-0.25,-0.69,32.825784776,34.956206456,23.069,1.12,133.61,0.26,307670695,2172,1000,11111100,29,25,100,0.0,0,45,45,100824,20.8,0
10295,113.427,0.499,-4.178,-4.616630000000001,-7.01242,-4.195530000000001,0.090435,0.01081,0.853556,1210.0,5670.0,3670.0,46.5,10.11,00000000 00000000,32.826171261999995,34.956052488000005,23.116,0.55,-0.14,0.12,0.02,-0.94,2.77,-0.13,-0.24,-0.69,32.825784415,34.956206931,23.094,1.1,133.25,0.53,307670720,2172,1000,11111100,28,25,100,0.0,0,20,20,100824,20.8,3
10296,113.478,0.581,-4.396,-2.07876,-10.38515,0.6480199999999999,0.085495,-0.009969,0.839052,1210.0,5680.0,3690.0,46.5,10.08,00000000 00000000,32.826171228,34.956052636,23.119,0.55,-0.15,0.08,0.02,-0.93,2.76,-0.09,-0.24,-0.68,32.825784415,34.956206931,23.094,1.1,133.25,0.53,307670745,2172,1000,11111100,28,25,100,0.0,0,45,45,100822,20.88,0
10297,113.53299999999999,0.609,-4.6930000000000005,0.92499,-12.42657,2.6133599999999997,0.064067,-0.024793,0.844353,1200.0,5710.0,3750.0,46.5,10.11,00000000 00000000,32.826170694,34.956052346999996,23.12,0.55,-0.15,0.04,0.02,-0.92,2.75,-0.06,-0.24,-0.67,32.825784061,34.956207305999996,23.099,1.05,138.2,0.09,307670770,2172,1000,11111100,28,25,100,0.0,0,20,20,100822,20.96,3
10298,113.47,0.546,-4.99,4.394,-10.85977,1.42933,0.025854000000000002,-0.037331,0.8362129999999999,1160.0,5710.0,3770.0,46.5,10.07,00000000 00000000,32.826170659,34.956052496999995,23.12,0.55,-0.15,0.01,0.02,-0.91,2.74,-0.02,-0.24,-0.68,32.825784061,34.956207305999996,23.099,1.05,138.2,0.09,307670795,2172,1000,11111100,28,25,100,0.0,0,45,45,100822,20.88,0
10299,113.553,0.423,-5.23,5.8167,-8.21718,0.26624000000000003,-0.0037119999999999996,-0.06289700000000001,0.82119,1140.0,5700.0,3810.0,46.5,10.11,00000000 00000000,32.82617012,34.956052214,23.118,0.56,-0.13,-0.03,0.02,-0.9,2.73,0.01,-0.25,-0.69,32.825783686,34.956207734,23.089,1.06,137.68,-0.16,307670820,2172,1000,11111100,28,25,100,0.0,0,20,20,100822,20.96,3
10300,113.501,0.285,-5.428999999999999,5.5195,-8.035680000000001,3.50072,0.0078049999999999994,-0.058933000000000006,0.854722,1100.0,5660.0,3810.0,46.5,10.08,00000000 00000000,32.826170092,34.956052364,23.117,0.55,-0.11,-0.07,0.02,-0.89,2.73,0.06,-0.26,-0.71,32.825783686,34.956207734,23.089,1.06,137.68,-0.16,307670845,2172,1000,11111100,28,25,100,0.0,0,45,45,100822,20.88,0
10301,113.464,0.165,-5.622000000000001,6.19064,-6.084919999999999,6.15426,0.025983,-0.043819,0.9411430000000001,1070.0,5640.0,3820.0,46.5,10.12,00000000 00000000,32.826169588,34.956052131999996,23.113,0.56,-0.09,-0.1,0.02,-0.88,2.72,0.08,-0.27,-0.72,32.825783351999995,34.956208113,23.082,1.02,136.2,-0.13,307670870,2172,1000,11111100,28,25,100,0.0,0,20,20,100822,20.88,3
10302,113.323,0.01,-5.682,8.69944,1.45496,3.4067,0.026345,-0.035239,0.977751,1030.0,5610.0,3810.0,46.5,10.08,00000000 00000000,32.826169568000005,34.956052283000005,23.11,0.56,-0.07,-0.1,0.03,-0.87,2.71,0.09,-0.28,-0.74,32.825783351999995,34.956208113,23.082,1.02,136.2,-0.13,307670895,2172,1000,11111100,28,25,100,0.0,0,45,45,100822,20.88,0
10303,113.23700000000001,0.231,-5.6,8.8411,3.5268900000000003,2.99542,0.051296,-0.03027,0.978482,1020.0,5580.0,3790.0,46.5,10.11,00000000 00000000,32.826169566,34.956052416999995,23.107,0.55,-0.06,-0.11,0.03,-0.86,2.7,0.1,-0.29,-0.75,32.825782973,34.956208605,23.08,1.15,133.71,0.0,307670920,2172,1000,11111100,28,25,100,0.0,0,20,20,100824,20.8,3
10304,113.06,0.387,-5.572,4.55708,-1.4907299999999999,10.78026,0.078109,-0.049489,1.021056,1010.0,5550.0,3760.0,46.5,10.07,00000000 00000000,32.826169553,34.956052566,23.104,0.55,-0.05,-0.11,0.03,-0.85,2.69,0.1,-0.3,-0.76,32.825782973,34.956208605,23.08,1.15,133.71,0.0,307670945,2172,1000,11111100,28,25,100,0.0,0,45,45,100824,20.71,0
10305,112.802,0.385,-5.6770000000000005,-0.65735,-5.2143,20.73101,0.068511,-0.043129,1.072948,-990.0,5530.0,3760.0,46.5,10.11,00000000 00000000,32.826168902,34.95605225,23.099,0.55,-0.04,-0.1,0.04,-0.84,2.68,0.09,-0.31,-0.76,32.825782657,34.956209004,23.065,1.02,133.12,-0.29,307670970,2172,1000,11111100,28,25,100,0.0,0,20,20,100824,20.71,3
10306,112.20100000000001,0.243,-5.784,-5.8538,-2.81019,28.3096,0.08720900000000001,-0.032673,1.1060379999999999,-930.0,5510.0,3750.0,46.5,10.08,00000000 00000000,32.826168893,34.956052398000004,23.096,0.54,-0.03,-0.08,0.04,-0.83,2.67,0.07,-0.32,-0.77,32.825782657,34.956209004,23.065,1.02,133.12,-0.29,307670995,2172,1000,11111100,28,25,100,0.0,0,45,45,100826,20.63,8
10307,111.397,0.049,-5.85,-10.93295,-3.1253900000000003,38.334509999999995,0.08992699999999999,-0.050607,1.130131,-880.0,5510.0,3820.0,46.5,10.07,00000000 00000000,32.826168898,34.956052527,23.093,0.54,-0.02,-0.05,0.04,-0.82,2.65,0.04,-0.33,-0.77,32.825782331,34.956209521,23.048,1.1,127.66,-0.3,307671020,2172,1000,11111100,28,25,100,0.0,0,20,20,100826,20.63,3
10308,110.39,0.49,-5.96,-15.606979999999998,-6.2577,44.0361,0.06538200000000001,-0.048866,1.1715389999999999,-780.0,5510.0,3860.0,46.5,10.05,00000000 00000000,32.826168893,34.956052671,23.092,0.53,-0.01,-0.01,0.04,-0.81,2.64,0.0,-0.34,-0.78,32.825782331,34.956209521,23.048,1.1,127.66,-0.3,307671045,2172,1000,11111100,28,25,100,0.0,0,45,45,100826,20.55,0
10309,109.304,1.012,-6.184,-15.9503,-13.71824,47.279509999999995,0.14992,-0.051157,1.176739,-660.0,5530.0,3920.0,46.5,10.07,00000000 00000000,32.826168904,34.956052795,23.09,0.52,0.0,0.02,0.04,-0.8,2.63,-0.04,-0.35,-0.78,32.825782015,34.956209994,23.046,1.12,128.37,-0.03,307671070,2172,1000,11111100,29,25,100,0.0,0,20,20,100824,20.71,3
10310,108.101,1.511,-6.59,-12.54911,-18.92547,52.65521999999999,0.217207,-0.068797,1.1532639999999998,-500.0,5540.0,3960.0,46.5,10.07,00000000 00000000,32.826168900999996,34.956052935,23.091,0.51,-0.02,0.07,0.04,-0.79,2.62,-0.08,-0.36,-0.77,32.825782015,34.956209994,23.046,1.12,128.37,-0.03,307671095,2172,1000,11111100,29,25,100,0.0,0,45,45,100824,20.71,0
10311,106.805,1.913,-6.954,-6.8227,-11.62009,52.19229,0.18988,-0.058935,1.102908,-320.0,5530.0,4020.0,46.5,10.12,00000000 00000000,32.826168913000004,34.956053053000005,23.092,0.5,-0.04,0.11,0.04,-0.78,2.61,-0.12,-0.36,-0.75,32.825781651999996,34.95621047,23.054,1.1,133.46,0.2,307671120,2172,1000,11111100,29,25,100,0.0,0,20,20,100824,20.71,3
10312,105.602,2.141,-7.0520000000000005,0.8566799999999999,0.20648000000000002,45.06774,0.138776,-0.06239,1.031736,-160.0,5510.0,4060.0,46.5,10.08,00000000 00000000,32.826168902,34.956053186999995,23.095,0.49,-0.04,0.13,0.04,-0.77,2.6,-0.14,-0.37,-0.73,32.825781651999996,34.95621047,23.054,1.1,133.46,0.2,307671145,2172,1000,11111100,29,25,100,0.0,0,45,45,100824,20.71,0
10313,104.574,2.135,-6.891,9.45305,8.165510000000001,36.19712,0.114954,-0.074898,0.982612,-50.0,5480.0,4080.0,46.5,10.12,00000000 00000000,32.826168909,34.956053301,23.098,0.48,-0.04,0.13,0.03,-0.76,2.59,-0.15,-0.37,-0.73,32.825781341,34.956210886,23.067,1.04,131.5,0.25,307671170,2172,1000,11111100,29,25,100,0.0,0,20,20,100826,20.63,3
10314,103.719,1.902,-6.671,17.11447,5.4701,30.43163,0.11890099999999999,-0.085083,0.9548040000000001,20.0,5420.0,4050.0,46.5,10.07,00000000 00000000,32.826168898,34.95605343,23.101,0.47,-0.04,0.12,0.03,-0.75,2.58,-0.14,-0.38,-0.73,32.825781341,34.956210886,23.067,1.04,131.5,0.25,307671195,2172,1000,11111100,29,25,100,0.0,0,45,45,100824,20.71,0
10315,102.883,1.475,-6.622000000000001,24.44466,-3.8904300000000003,32.97244,0.11599300000000001,-0.067597,0.915394,80.0,5360.0,4020.0,46.5,10.1,00000000 00000000,32.826168900999996,34.956053538,23.102,0.46,-0.04,0.11,0.03,-0.74,2.57,-0.13,-0.4,-0.73,32.825781041999996,34.956211374,23.067,1.02,126.95,0.05,307671220,2172,1000,11111100,28,25,100,0.0,0,20,20,100824,20.71,3
10316,101.956,0.899,-6.784,29.23065,-8.927480000000001,34.18848,0.100879,-0.029018000000000002,0.878143,170.0,5260.0,3950.0,46.5,10.08,00000000 00000000,32.82616889,34.956053661,23.105,0.45,-0.05,0.09,0.02,-0.73,2.56,-0.11,-0.4,-0.72,32.825781041999996,34.956211374,23.067,1.02,126.95,0.05,307671245,2172,1000,11111100,28,25,100,0.0,0,45,45,100824,20.8,0
10317,101.035,0.263,-6.984,29.15261,-7.3003800000000005,33.0389,0.10486500000000001,-0.040851,0.8637870000000001,270.0,5170.0,3890.0,46.5,10.1,00000000 00000000,32.826168889,34.956053766,23.105,0.45,-0.05,0.05,0.02,-0.72,2.54,-0.08,-0.41,-0.72,32.825780804000004,34.95621181,23.069,0.97,122.85,0.03,307671270,2172,1000,11111100,27,25,100,0.0,0,20,20,100824,20.8,3
10318,100.152,0.324,-7.0889999999999995,26.07997,0.08052000000000001,31.08983,0.07117000000000001,-0.040984,0.849634,380.0,5070.0,3810.0,46.5,10.07,00000000 00000000,32.826168877,34.956053886,23.106,0.44,-0.04,0.02,0.02,-0.71,2.53,-0.04,-0.41,-0.72,32.825780804000004,34.95621181,23.069,0.97,122.85,0.03,307671295,2172,1000,11111100,27,25,100,0.0,0,45,45,100824,20.8,0
10319,99.339,0.835,-6.99,22.42312,7.38927,28.576040000000003,0.025454,-0.031954,0.811196,460.0,4990.0,3750.0,46.5,10.1,00000000 00000000,32.826168873,34.956053982,23.104,0.43,-0.03,-0.01,0.02,-0.7,2.52,0.0,-0.42,-0.73,32.825780562,34.956212371999996,23.059,1.07,116.98,-0.15,307671320,2172,1000,11111100,27,25,100,0.0,0,20,20,100822,20.88,3
10320,98.572,1.261,-6.819,18.7087,6.06345,28.933809999999998,-0.003325,-0.030070999999999997,0.7991560000000001,520.0,4910.0,3680.0,46.5,10.08,00000000 00000000,32.826168867,34.956054098,23.103,0.42,-0.01,-0.06,0.02,-0.7,2.51,0.04,-0.43,-0.75,32.825780562,34.956212371999996,23.059,1.07,116.98,-0.15,307671345,2172,1000,11111100,27,25,100,0.0,0,45,45,100824,20.8,0
10321,97.78399999999999,1.5859999999999999,-6.731,14.65516,3.14003,30.0751,-0.023842,-0.015274000000000001,0.841426,570.0,4850.0,3630.0,46.5,10.1,00000000 00000000,32.826168874000004,34.956054191,23.098,0.42,0.01,-0.11,0.02,-0.69,2.5,0.08,-0.44,-0.77,32.825780348,34.956212854,23.053,1.01,117.77,-0.11,307671370,2172,1000,11111100,27,25,100,0.0,0,20,20,100824,20.8,3
10322,97.044,1.8359999999999999,-6.6579999999999995,12.73213,5.57993,25.03981,-0.038014,0.003578,0.902544,630.0,4790.0,3560.0,46.5,10.08,00000000 00000000,32.82616888,34.956054304,23.095,0.41,0.04,-0.14,0.03,-0.68,2.48,0.12,-0.45,-0.8,32.825780348,34.956212854,23.053,1.01,117.77,-0.11,307671395,2172,1000,11111100,27,25,100,0.0,0,45,45,100822,20.88,0
10323,96.50299999999999,2.099,-6.445,13.30195,13.277120000000002,15.49814,-0.013441999999999999,0.001609,0.9660299999999999,680.0,4750.0,3520.0,46.5,10.1,00000000 00000000,32.826168906,34.956054393,23.089,0.41,0.07,-0.16,0.03,-0.67,2.47,0.14,-0.46,-0.84,32.82578007,34.956213395,23.041,1.07,121.71,-0.2,307671420,2172,1000,11111100,26,25,100,0.0,0,20,20,100822,20.88,3
10324,96.163,2.4,-6.047000000000001,13.09158,18.83359,9.68999,0.059573,-0.0016699999999999998,1.030402,700.0,4700.0,3460.0,46.5,10.04,00000000 00000000,32.826168926,34.956054503000004,23.085,0.4,0.09,-0.16,0.04,-0.66,2.46,0.14,-0.46,-0.86,32.82578007,34.956213395,23.041,1.07,121.71,-0.2,307671445,2172,1000,11111100,26,25,100,0.0,0,45,45,100824,20.8,0
10325,95.934,2.676,-5.551,10.67722,21.52899,6.53669,0.138032,-0.008918,1.135151,670.0,4680.0,3430.0,46.5,10.1,00000000 00000000,32.82616896,34.956054584,23.078,0.39,0.09,-0.14,0.04,-0.65,2.45,0.12,-0.47,-0.86,32.825779811,34.956213935,23.03,1.16,119.62,-0.21,307671470,2172,1000,11111100,26,25,100,0.0,0,20,20,100824,20.8,3
10326,95.785,2.8989999999999996,-4.99,7.833810000000001,24.116329999999998,3.54034,0.18603599999999998,-0.014641999999999999,1.190871,620.0,4660.0,3400.0,46.5,10.08,00000000 00000000,32.82616898,34.956054688,23.075,0.37,0.08,-0.1,0.04,-0.64,2.43,0.08,-0.49,-0.84,32.825779811,34.956213935,23.03,1.16,119.62,-0.21,307671495,2172,1000,11111100,26,25,100,0.0,0,45,45,100824,20.71,0
10327,95.73,3.0460000000000003,-4.377,4.31358,24.06157,-0.08419,0.1793,-0.015515000000000001,1.177969,570.0,4630.0,3350.0,46.5,10.09,00000000 00000000,32.826168996,34.956054787,23.073,0.35,0.06,-0.05,0.05,-0.63,2.42,0.03,-0.51,-0.82,32.825779811,34.956213935,23.03,1.16,119.62,-0.21,307671520,2172,1000,11111100,26,25,100,0.0,0,70,70,100824,20.8,0
10328,95.805,3.12,-3.855,1.2685600000000001,15.176039999999999,-6.9575,0.13000899999999999,-0.004288,1.184561,520.0,4600.0,3290.0,46.5,10.07,00000000 00000000,32.826169019,34.956054848,23.07,0.33,0.04,-0.01,0.05,-0.62,2.41,-0.01,-0.52,-0.8,32.825779505,34.956214579000005,23.024,1.26,119.58,-0.07,307671545,2172,1000,11111100,26,25,100,0.0,0,45,45,100824,20.71,3
10329,96.059,3.147,-3.722,-0.20914000000000002,-7.38753,-12.01517,0.155703,-0.037834,1.149892,460.0,4600.0,3290.0,46.5,10.11,00000000 00000000,32.826169041,34.956054906999995,23.068,0.31,0.02,0.03,0.05,-0.61,2.4,-0.05,-0.54,-0.78,32.825779243,34.956215094,23.021,1.12,121.11,-0.05,307671570,2172,1000,11111100,26,25,100,0.0,0,20,20,100824,20.8,3
10330,96.321,3.114,-4.216,-5.07052,-30.197159999999997,-8.28502,0.21174899999999997,-0.072167,1.112104,450.0,4600.0,3270.0,46.5,10.07,00000000 00000000,32.826169045,34.956054988000005,23.069,0.28,0.0,0.06,0.05,-0.6,2.38,-0.08,-0.57,-0.75,32.825779243,34.956215094,23.021,1.12,121.11,-0.05,307671595,2172,1000,11111100,26,25,100,0.0,0,45,45,100824,20.8,0
10331,96.51,2.891,-5.018,-13.808370000000002,-32.92467,-5.34117,0.209378,-0.063815,1.067246,480.0,4610.0,3320.0,46.5,10.1,00000000 00000000,32.826169048000004,34.956055025,23.069,0.25,-0.02,0.08,0.04,-0.59,2.37,-0.11,-0.6,-0.72,32.82577897,34.956215746999995,23.026,1.24,116.27,0.14,307671620,2172,1000,11111100,26,25,100,0.0,0,20,20,100822,20.88,3
10332,96.639,2.488,-5.8,-18.34046,-29.043,-1.9687599999999998,0.13533,-0.007677,1.018933,550.0,4640.0,3370.0,46.5,10.09,00000000 00000000,32.82616904,34.956055089,23.072,0.22,-0.04,0.1,0.04,-0.58,2.36,-0.12,-0.62,-0.69,32.82577897,34.956215746999995,23.026,1.24,116.27,0.14,307671645,2172,1000,11111100,26,25,100,0.0,0,45,45,100824,20.8,0
10333,96.71,2.024,-6.4479999999999995,-18.44398,-23.37067,0.29893000000000003,0.104648,0.047820999999999995,0.9683280000000001,620.0,4690.0,3450.0,46.5,10.09,00000000 00000000,32.826169029,34.956055112,23.072,0.22,-0.05,0.09,0.04,-0.57,2.34,-0.12,-0.62,-0.69,32.825778749,34.956216389,23.025,1.29,112.16,0.0,307671670,2172,1000,11111100,26,25,100,0.0,0,20,20,100824,20.8,3
10334,96.73,1.5919999999999999,-7.0,-15.56635,-21.935370000000002,2.8383599999999998,0.10855699999999999,0.053079999999999995,0.960083,690.0,4740.0,3510.0,46.5,10.09,00000000 00000000,32.826169017,34.956055173,23.074,0.23,-0.05,0.09,0.04,-0.56,2.33,-0.12,-0.62,-0.69,32.825778749,34.956216389,23.025,1.29,112.16,0.0,307671695,2172,1000,11111100,26,25,100,0.0,0,45,45,100824,20.8,0
10335,96.654,1.244,-7.545,-11.0224,-21.55142,7.45286,0.147867,0.052073,0.952332,750.0,4790.0,3590.0,46.5,10.12,00000000 00000000,32.826169007,34.956055203000005,23.075,0.24,-0.05,0.08,0.03,-0.56,2.31,-0.11,-0.61,-0.69,32.825778523000004,34.956217032,23.035,1.18,112.1,0.23,307671720,2172,1000,11111100,26,25,100,0.0,0,20,20,100822,20.88,3
10336,96.427,1.001,-8.054,-5.87132,-17.72402,12.51065,0.14890799999999998,0.045486,0.9431930000000001,830.0,4820.0,3640.0,46.5,10.1,00000000 00000000,32.826168994,34.956055268,23.077,0.24,-0.06,0.07,0.03,-0.55,2.3,-0.1,-0.6,-0.68,32.825778523000004,34.956217032,23.035,1.18,112.1,0.23,307671745,2172,1000,11111100,26,25,100,0.0,0,45,45,100822,20.96,0
10337,96.118,0.865,-8.39,-1.34581,-8.06657,12.478639999999999,0.12331700000000001,0.048048,0.9156780000000001,890.0,4850.0,3710.0,46.5,10.11,00000000 00000000,32.826168986,34.956055305,23.078,0.25,-0.06,0.06,0.03,-0.54,2.29,-0.09,-0.59,-0.68,32.825778307,34.956217556999995,23.043,1.09,116.04,0.16,307671770,2172,1000,11111100,26,25,100,0.0,0,20,20,100822,20.96,3
10338,95.84899999999999,0.835,-8.493,1.64736,-1.0616700000000001,9.61533,0.10173099999999999,0.043637,0.875627,960.0,4860.0,3720.0,46.5,10.07,00000000 00000000,32.826168972,34.956055375,23.079,0.26,-0.06,0.03,0.03,-0.53,2.27,-0.06,-0.58,-0.68,32.825778307,34.956217556999995,23.043,1.09,116.04,0.16,307671795,2172,1000,11111100,26,25,100,0.0,0,45,45,100822,20.96,0
10339,95.61399999999999,0.857,-8.493,2.64343,1.08999,9.10164,0.074987,0.025710000000000004,0.861844,990.0,4860.0,3740.0,46.5,10.1,00000000 00000000,32.826168957,34.956055416999995,23.078,0.27,-0.05,0.0,0.03,-0.52,2.26,-0.03,-0.57,-0.69,32.825778111,34.956218187,23.041,1.13,109.52,0.0,307671820,2172,1000,11111100,26,25,100,0.0,0,20,20,100820,21.05,3
10340,95.381,0.8809999999999999,-8.436,1.55045,3.9093199999999997,9.30233,0.059217,-0.0037600000000000003,0.884858,1020.0,4840.0,3740.0,46.5,10.07,00000000 00000000,32.826168945999996,34.95605549,23.078,0.27,-0.04,-0.02,0.03,-0.51,2.24,0.0,-0.57,-0.7,32.825778111,34.956218187,23.041,1.13,109.52,0.0,307671845,2172,1000,11111100,26,25,100,0.0,0,45,45,100820,21.05,0
10341,95.11399999999999,0.831,-8.324,-3.227,4.62092,13.436010000000001,0.09440499999999999,-0.042564,0.919608,1030.0,4830.0,3760.0,46.5,10.09,00000000 00000000,32.826168939,34.956055537,23.075,0.26,-0.02,-0.05,0.03,-0.5,2.23,0.01,-0.57,-0.71,32.825777955,34.956218686,23.034,0.99,110.26,-0.13,307671870,2172,1000,11111100,26,25,100,0.0,0,20,20,100820,21.05,3
10342,94.696,0.615,-8.183,-8.23114,8.29373,22.25627,0.053497,-0.026088,0.9178700000000001,1050.0,4840.0,3800.0,46.6,10.05,00000000 00000000,32.826168934,34.956055606999996,23.073,0.25,-0.01,-0.07,0.03,-0.49,2.22,0.03,-0.58,-0.72,32.825777955,34.956218686,23.034,0.99,110.26,-0.13,307671895,2172,1000,11111100,26,25,100,0.0,0,45,45,100820,21.05,0
10343,94.102,0.303,-7.859,-9.29119,19.28398,27.263790000000004,-0.042158,-0.033213,0.911328,1090.0,4840.0,3790.0,46.6,10.11,00000000 00000000,32.82616894,34.956055645,23.07,0.25,0.01,-0.09,0.03,-0.48,2.2,0.05,-0.59,-0.75,32.825777736999996,34.956219272,23.03,1.07,113.45,-0.03,307671920,2172,1000,11111100,26,25,100,0.0,0,20,20,100820,21.05,3
10344,93.46,0.011000000000000001,-7.176,-8.989519999999999,35.69243,26.4958,-0.098578,-0.052938,0.929918,1120.0,4850.0,3780.0,46.6,10.08,00000000 00000000,32.826168948,34.956055711,23.067,0.24,0.05,-0.11,0.03,-0.48,2.19,0.08,-0.6,-0.8,32.825777736999996,34.956219272,23.03,1.07,113.45,-0.03,307671945,2172,1000,11111100,26,25,100,0.0,0,45,45,100822,20.88,0
10345,92.83200000000001,0.297,-6.117000000000001,-7.3223899999999995,47.22871,26.89435,-0.018934,-0.05235,1.0048549999999998,1090.0,4870.0,3800.0,46.6,10.08,00000000 00000000,32.826168982,34.956055743,23.063,0.23,0.1,-0.13,0.04,-0.47,2.17,0.09,-0.61,-0.84,32.825777517,34.956219785,23.025,1.07,116.85,-0.09,307671970,2172,1000,11111100,26,25,100,0.0,0,20,20,100822,20.88,3
10346,92.152,0.506,-4.871,-4.13314,50.416140000000006,29.075440000000004,0.122775,-0.055713,1.0646229999999999,1040.0,4870.0,3780.0,46.6,10.07,00000000 00000000,32.826169007,34.956055804,23.059,0.22,0.11,-0.12,0.04,-0.46,2.16,0.08,-0.62,-0.85,32.825777517,34.956219785,23.025,1.07,116.85,-0.09,307671995,2172,1000,11111100,26,25,100,0.0,0,45,45,100824,20.8,8
