,Heading,Pitch,Roll,Gyro_X,Gyro_Y,Gyro_Z,Acc_X,Acc_Y,Acc_Z,Magn_X,Magn_Y,Magn_Z,Temperature,Vdd,USW (L/H),Latitude,Longitude,Altitude,V_East,V_North,V_Up,Heave,Surge,Sway,V_Heave,V_Surge,V_Sway,Lat_GNSS,Long_GNSS,Height_GNSS,Hor_spd,Trk_gnd,Ver_spd,ms_gps,GPS_Week,GNSS_info_1,GNSS_info_2,#solnSVs,V_latency,anglesPosType,Heading_GNSS,Latency_ms_head,Latency_ms_pos,Latency_ms_vel,P_Bar,H_Bar,New_GPS
11650,25.482,2.109,-4.939,5.590990000000001,-5.32377,3.5508,0.012718,-0.042867,1.0022360000000001,6760.0,9930.0,6470.0,46.4,10.08,00000000 00000000,32.826549369,34.956770348,24.647,1.13,3.37,0.0,0.11,2.82,-3.27,0.0,0.33,-1.5,32.825890287,34.956521534000004,21.039,0.05,126.51,-0.03,307718420,2172,111,11110000,19,25,100,0.0,0,20,20,100796,23.05,3
11651,25.362,1.959,-5.101,7.524719999999999,-8.03387,5.294230000000001,0.003498,-0.049129,1.0076969999999998,6790.0,9910.0,6430.0,46.4,10.07,00000000 00000000,32.826550128,34.956770651,24.646,1.12,3.37,0.0,0.11,2.81,-3.28,0.0,0.33,-1.52,32.825890287,34.956521534000004,21.039,0.05,126.51,-0.03,307718445,2172,111,11110000,19,25,100,0.0,0,45,45,100798,22.97,0
11652,25.179000000000002,1.758,-5.33,9.667819999999999,-10.62294,8.1448,-0.019407,-0.054229999999999993,1.011095,6820.0,9870.0,6390.0,46.4,10.08,00000000 00000000,32.826550888,34.956770949,24.646,1.1,3.38,0.0,0.11,2.8,-3.29,0.0,0.33,-1.54,32.825890297,34.956521556999995,21.04,0.04,63.51,0.03,307718470,2172,111,11110000,19,25,100,0.0,0,20,20,100796,23.05,3
11653,24.925,1.535,-5.584,9.446660000000001,-8.90366,10.13738,-0.072849,-0.07456499999999999,1.016089,6860.0,9820.0,6340.0,46.4,10.07,00000000 00000000,32.826551649,34.956771239,24.646,1.06,3.39,0.0,0.11,2.8,-3.3,0.0,0.32,-1.57,32.825890297,34.956521556999995,21.04,0.04,63.51,0.03,307718495,2172,111,11110000,19,25,100,0.0,0,45,45,100796,23.05,0
11654,24.642,1.355,-5.694,6.79316,0.13885999999999998,11.059289999999999,-0.10799,-0.093959,1.007974,6880.0,9780.0,6290.0,46.4,10.1,00000000 00000000,32.826552412,34.956771519,24.646,1.02,3.39,0.0,0.11,2.79,-3.31,0.0,0.3,-1.61,32.825890275,34.956521572,21.044,0.05,149.59,0.06,307718520,2172,111,11110000,19,25,100,0.0,0,20,20,100796,23.05,3
11655,24.318,1.27,-5.563,2.23298,9.39201,14.954939999999999,-0.07850900000000001,-0.111002,1.012122,6890.0,9730.0,6240.0,46.4,10.08,00000000 00000000,32.826553176,34.956771785,24.646,0.97,3.39,0.0,0.11,2.78,-3.32,0.0,0.28,-1.65,32.825890275,34.956521572,21.044,0.05,149.59,0.06,307718545,2172,111,11110000,19,25,100,0.0,0,45,45,100798,22.89,0
11656,23.886,1.3230000000000002,-5.226,-3.39376,17.0936,18.7898,-0.041186,-0.096286,1.017752,6860.0,9710.0,6220.0,46.4,10.08,00000000 00000000,32.82655394,34.956772039,24.646,0.93,3.39,0.0,0.1,2.77,-3.33,0.0,0.26,-1.68,32.825890303,34.956521582,21.037,0.06,16.04,-0.12,307718570,2172,111,11110000,19,25,100,0.0,0,20,20,100798,22.89,3
11657,23.421999999999997,1.51,-4.717,-8.111889999999999,22.06605,18.86424,-0.023347,-0.090861,1.014091,6810.0,9710.0,6210.0,46.4,10.08,00000000 00000000,32.826554703,34.956772284,24.646,0.89,3.39,0.0,0.1,2.77,-3.34,-0.01,0.24,-1.71,32.825890303,34.956521582,21.037,0.06,16.04,-0.12,307718595,2172,111,11110000,19,25,100,0.0,0,45,45,100798,22.89,0
11658,22.998,1.78,-4.151,-10.77031,20.74217,16.78621,0.006781000000000001,-0.085267,1.003285,6740.0,9750.0,6230.0,46.4,10.09,00000000 00000000,32.826555465,34.956772521,24.646,0.87,3.38,0.0,0.1,2.76,-3.35,-0.01,0.23,-1.73,32.825890320999996,34.956521604,21.042,0.05,45.68,0.1,307718620,2172,111,11110000,19,25,100,0.0,0,20,20,100798,22.97,3
11659,22.598000000000003,2.119,-3.717,-14.355,12.54712,17.61199,0.034964,-0.106548,1.00797,6670.0,9800.0,6230.0,46.4,10.08,00000000 00000000,32.826556226,34.956772753,24.646,0.86,3.37,0.0,0.1,2.75,-3.36,-0.01,0.21,-1.73,32.825890320999996,34.956521604,21.042,0.05,45.68,0.1,307718645,2172,111,11110000,19,25,100,0.0,0,45,45,100796,23.05,0
11660,22.146,2.546,-3.49,-17.16266,5.197019999999999,19.69997,0.006064,-0.067174,0.9940889999999999,6630.0,9870.0,6250.0,46.4,10.1,00000000 00000000,32.826556984,34.956772982,24.646,0.85,3.36,0.0,0.1,2.74,-3.37,-0.01,0.2,-1.73,32.825890429,34.95652166,21.04,0.26,23.62,-0.05,307718670,2172,111,11110000,19,25,100,0.0,0,20,20,100796,23.14,3
11661,21.776999999999997,3.002,-3.342,-16.940279999999998,5.56494,10.86886,-0.030593000000000002,-0.041750999999999996,0.966166,6610.0,9970.0,6240.0,46.4,10.07,00000000 00000000,32.826557742,34.956773208,24.646,0.83,3.37,0.0,0.1,2.73,-3.38,-0.01,0.19,-1.75,32.825890429,34.95652166,21.04,0.26,23.62,-0.05,307718695,2172,111,11110000,19,25,100,0.0,0,45,45,100798,22.97,0
11662,21.629,3.409,-3.236,-14.881570000000002,1.22622,4.03967,-0.035518,-0.035869,0.923434,6600.0,10060.0,6250.0,46.4,10.1,00000000 00000000,32.826558502,34.956773429,24.646,0.81,3.38,-0.01,0.1,2.73,-3.39,0.0,0.2,-1.76,32.825890473,34.956521685,21.05,0.1,25.29,0.2,307718720,2172,111,11110000,19,25,100,0.0,0,20,20,100798,22.89,3
11663,21.566,3.766,-3.287,-13.41053,-5.40249,3.10636,-0.042142,-0.035255,0.923275,6610.0,10110.0,6230.0,46.4,10.08,00000000 00000000,32.826559265,34.956773646,24.645,0.8,3.4,-0.03,0.1,2.72,-3.4,0.01,0.2,-1.78,32.825890473,34.956521685,21.05,0.1,25.29,0.2,307718745,2172,111,11110000,19,25,100,0.0,0,45,45,100798,22.89,0
11664,21.524,4.073,-3.4539999999999997,-10.51031,-7.073460000000001,1.54911,-0.07686,-0.015227000000000001,0.9448700000000001,6630.0,10170.0,6220.0,46.4,10.09,00000000 00000000,32.826560031999996,34.956773856999995,24.644,0.78,3.41,-0.05,0.1,2.71,-3.41,0.03,0.21,-1.8,32.825890583,34.95652174,21.055,0.26,23.14,0.09,307718770,2172,111,11110000,19,25,100,0.0,0,20,20,100800,22.8,3
11665,21.522,4.289,-3.6189999999999998,-6.920089999999999,-6.45477,0.028189999999999996,-0.10041699999999999,-0.029976999999999997,0.929587,6660.0,10210.0,6200.0,46.4,10.05,00000000 00000000,32.826560803,34.956774063000005,24.643,0.75,3.44,-0.06,0.1,2.7,-3.42,0.05,0.22,-1.83,32.825890583,34.95652174,21.055,0.26,23.14,0.09,307718795,2172,111,11110000,19,25,100,0.0,0,45,45,100798,22.89,0
11666,21.508000000000003,4.4319999999999995,-3.79,-4.46395,-7.28937,3.09686,-0.09214,-0.079847,0.9428790000000001,6690.0,10230.0,6180.0,46.4,10.09,00000000 00000000,32.82656158,34.95677426,24.641,0.72,3.46,-0.08,0.1,2.69,-3.43,0.06,0.23,-1.86,32.825890715,34.95652184,21.066,0.34,32.46,0.22,307718820,2172,111,11110000,19,25,100,0.0,0,20,20,100798,22.89,3
11667,21.359,4.54,-3.9339999999999997,-3.5215300000000003,-4.17558,9.08571,-0.101922,-0.072573,0.960499,6720.0,10250.0,6150.0,46.4,10.08,00000000 00000000,32.82656236,34.956774449,24.638,0.68,3.47,-0.09,0.1,2.69,-3.44,0.08,0.22,-1.9,32.825890715,34.95652184,21.066,0.34,32.46,0.22,307718845,2172,111,11110000,19,25,100,0.0,0,45,45,100798,22.89,0
11668,21.105,4.638999999999999,-3.975,-2.784,-1.37442,10.96926,-0.098378,-0.076237,0.95473,6740.0,10280.0,6140.0,46.4,10.1,00000000 00000000,32.826563143,34.956774628000005,24.636,0.65,3.49,-0.11,0.1,2.68,-3.45,0.09,0.22,-1.93,32.825890862,34.956521941999995,21.074,0.37,30.5,0.16,307718870,2172,111,11110000,19,25,100,0.0,0,20,20,100798,22.89,3
11669,20.831999999999997,4.71,-3.9939999999999998,-1.32131,-1.9049,11.1427,-0.08732899999999999,-0.088372,0.9514530000000001,6740.0,10310.0,6130.0,46.4,10.07,00000000 00000000,32.82656393,34.956774797,24.633,0.61,3.5,-0.12,0.11,2.67,-3.46,0.1,0.22,-1.96,32.825890862,34.956521941999995,21.074,0.37,30.5,0.16,307718895,2172,111,11110000,19,25,100,0.0,0,45,45,100798,22.89,0
11670,20.558000000000003,4.742,-4.0280000000000005,0.1699,-2.55822,10.4968,-0.09497699999999999,-0.09681000000000001,0.9451149999999999,6760.0,10330.0,6110.0,46.4,10.09,00000000 00000000,32.826564719000004,34.956774957,24.63,0.58,3.51,-0.13,0.11,2.66,-3.47,0.11,0.22,-2.0,32.825891093,34.956522101,21.096,0.59,30.19,0.44,307718920,2172,111,11110000,18,25,100,0.0,0,20,20,100800,22.8,3
11671,20.313,4.739,-4.0889999999999995,1.4095600000000001,-3.7130199999999998,8.63198,-0.09880900000000001,-0.11186700000000001,0.956414,6780.0,10330.0,6080.0,46.4,10.07,00000000 00000000,32.82656551,34.956775107,24.626,0.54,3.52,-0.15,0.11,2.65,-3.48,0.13,0.21,-2.03,32.825891093,34.956522101,21.096,0.59,30.19,0.44,307718945,2172,111,11110000,18,25,100,0.0,0,45,45,100800,22.8,0
11672,20.16,4.678999999999999,-4.132,5.2104099999999995,0.6961,2.24398,-0.046934,-0.08330800000000001,1.086268,6790.0,10340.0,6070.0,46.4,10.09,00000000 00000000,32.826566303,34.956775248,24.622,0.5,3.53,-0.14,0.11,2.65,-3.49,0.13,0.21,-2.06,32.825891281,34.956522222,21.101,0.47,28.49,0.09,307718970,2172,111,11110000,18,25,100,0.0,0,20,20,100798,22.89,3
11673,20.157,4.466,-4.053,11.24415,3.8079300000000003,-1.76058,0.024419,-0.049411000000000004,1.124974,6790.0,10300.0,6060.0,46.4,10.07,00000000 00000000,32.826567098000005,34.956775381,24.619,0.49,3.54,-0.11,0.12,2.64,-3.5,0.1,0.21,-2.08,32.825891281,34.956522222,21.101,0.47,28.49,0.09,307718995,2172,111,11110000,18,25,100,0.0,0,45,45,100800,22.8,0
11674,20.141,4.175,-4.039,11.3621,-4.7649,2.8524700000000003,-0.016666999999999998,-0.11423599999999999,1.047715,6770.0,10260.0,6070.0,46.4,10.08,00000000 00000000,32.826567897,34.956775511,24.616,0.47,3.55,-0.09,0.12,2.63,-3.51,0.07,0.21,-2.09,32.825891542,34.956522362,21.106,0.63,24.3,0.1,307719020,2172,111,11110000,18,25,100,0.0,0,20,20,100800,22.8,3
11675,19.939,3.9610000000000003,-4.298,6.33748,-14.99076,12.14575,-0.119895,-0.14714000000000002,1.01567,6800.0,10200.0,6040.0,46.4,10.08,00000000 00000000,32.826568695,34.956775635,24.614,0.44,3.54,-0.08,0.12,2.62,-3.52,0.06,0.2,-2.11,32.825891542,34.956522362,21.106,0.63,24.3,0.1,307719045,2172,111,11110000,18,25,100,0.0,0,45,45,100798,22.89,0
11676,19.545,3.873,-4.564,3.3323699999999996,-4.22856,16.70996,-0.200486,-0.129347,1.016505,6840.0,10180.0,6000.0,46.4,10.08,00000000 00000000,32.826568203,34.956771273,24.611,0.34,3.54,-0.08,0.12,2.61,-3.53,0.06,0.18,-2.16,32.825891815,34.956522505,21.1,0.66,23.9,-0.11,307719070,2172,111,11111100,19,25,100,0.0,0,20,20,100798,22.89,3
11677,19.113,3.8280000000000003,-4.425,2.87975,10.69285,18.07988,-0.140747,-0.13307,1.0092969999999999,6870.0,10170.0,5970.0,46.4,10.04,00000000 00000000,32.826569,34.956771356,24.608,0.27,3.54,-0.08,0.12,2.61,-3.54,0.06,0.16,-2.22,32.825891815,34.956522505,21.1,0.66,23.9,-0.11,307719095,2172,111,11111100,19,25,100,0.0,0,45,45,100798,22.89,0
11678,18.596,3.822,-4.084,0.24565,12.34344,22.47079,-0.015998,-0.108331,1.0874979999999999,6850.0,10190.0,5990.0,46.4,10.08,00000000 00000000,32.826568525,34.956770833,24.606,0.23,3.53,-0.07,0.12,2.6,-3.55,0.05,0.15,-2.26,32.825892171,34.956522641,21.073,0.82,17.82,-0.54,307719120,2172,111,11111100,18,25,100,0.0,0,20,20,100796,23.05,3
11679,17.995,3.887,-3.844,-2.2810900000000003,2.09563,24.38503,0.127094,-0.055663,1.1073950000000001,6820.0,10220.0,5990.0,46.4,10.05,00000000 00000000,32.82656932,34.956770894,24.604,0.23,3.53,-0.05,0.12,2.59,-3.56,0.03,0.14,-2.26,32.825892171,34.956522641,21.073,0.82,17.82,-0.54,307719145,2172,111,11111100,18,25,100,0.0,0,45,45,100798,22.89,0
11680,17.469,3.995,-3.884,-3.15065,-8.54327,17.71182,0.191226,-0.056415,1.149699,6810.0,10270.0,5990.0,46.4,10.08,00000000 00000000,32.826568739,34.956772345,24.611,0.27,3.52,-0.01,0.12,2.58,-3.57,0.0,0.15,-2.23,32.825892455,34.956522837,21.084,0.72,30.28,0.21,307719170,2172,111,11111100,18,25,100,0.0,0,20,20,100798,22.89,3
11681,17.086,4.088,-4.203,-1.9505700000000001,-18.30128,13.83102,0.19843,-0.021404,1.153812,6850.0,10320.0,5960.0,46.4,10.05,00000000 00000000,32.826569531,34.956772422,24.611,0.3,3.52,0.02,0.12,2.57,-3.58,-0.04,0.16,-2.19,32.825892455,34.956522837,21.084,0.72,30.28,0.21,307719195,2172,111,11111100,18,25,100,0.0,0,45,45,100800,22.8,0
11682,16.801,4.141,-4.681,-0.5565899999999999,-20.40626,8.73674,0.121993,-0.01043,1.128888,6910.0,10370.0,5930.0,46.4,10.09,00000000 00000000,32.826569014,34.956773552,24.62,0.34,3.52,0.06,0.12,2.57,-3.59,-0.08,0.18,-2.17,32.825892797,34.956523069,21.1,0.87,29.76,0.32,307719220,2172,111,11111100,18,25,100,0.0,0,20,20,100800,22.8,3
11683,16.652,4.128,-5.144,2.99621,-16.841910000000002,2.72534,0.036107,-0.000535,1.040666,6980.0,10410.0,5880.0,46.4,10.07,00000000 00000000,32.826569807,34.956773644,24.622,0.34,3.54,0.08,0.12,2.56,-3.6,-0.1,0.19,-2.16,32.825892797,34.956523069,21.1,0.87,29.76,0.32,307719245,2172,111,11111100,18,25,100,0.0,0,45,45,100798,22.89,0
11684,16.659000000000002,3.985,-5.51,7.559819999999999,-11.76946,-5.13708,0.015709,0.022063,0.977835,7040.0,10410.0,5850.0,46.4,10.08,00000000 00000000,32.826569307,34.956772046,24.63,0.31,3.55,0.08,0.11,2.55,-3.61,-0.1,0.21,-2.17,32.825893124000004,34.956523205,21.113,0.76,19.3,0.26,307719270,2172,111,11111100,17,25,100,0.0,0,20,20,100798,22.89,3
11685,16.858,3.74,-5.728,9.94362,-4.68941,-11.5637,0.037047000000000004,0.021929,0.94805,7090.0,10370.0,5810.0,46.4,10.04,00000000 00000000,32.826570109,34.95677213,24.632,0.31,3.58,0.07,0.11,2.54,-3.62,-0.09,0.23,-2.18,32.825893124000004,34.956523205,21.113,0.76,19.3,0.26,307719295,2172,111,11111100,17,25,100,0.0,0,45,45,100798,22.97,0
11686,17.109,3.457,-5.853,9.58042,-5.36483,-10.01774,0.06422,-0.011434,0.903,7090.0,10310.0,5800.0,46.4,10.08,00000000 00000000,32.826569544,34.956769948,24.631,0.28,3.58,0.05,0.11,2.53,-3.63,-0.07,0.25,-2.19,32.825893388000004,34.956523292,21.113,0.6,15.59,0.0,307719320,2172,111,11111100,17,25,100,0.0,0,20,20,100798,22.97,3
11687,17.266,3.2260000000000004,-6.106,7.42225,-15.113560000000001,-3.9032400000000003,0.109274,-0.027041000000000003,0.899148,7100.0,10240.0,5790.0,46.4,10.08,00000000 00000000,32.826570351,34.956770025,24.632,0.29,3.59,0.03,0.1,2.52,-3.64,-0.05,0.26,-2.18,32.825893388000004,34.956523292,21.113,0.6,15.59,0.0,307719345,2172,111,11111100,17,25,100,0.0,0,45,45,100798,22.89,0
11688,17.271,3.057,-6.612,6.259930000000001,-24.44865,1.92018,0.132748,-0.043227999999999996,0.9337110000000001,7130.0,10220.0,5770.0,46.5,10.08,00000000 00000000,32.826571167,34.956769234,24.64,0.29,3.59,0.01,0.1,2.52,-3.65,-0.03,0.26,-2.17,32.825893563,34.956523432,21.113,0.46,34.13,0.25,307719370,2172,111,11111100,17,25,100,0.0,0,20,20,100800,22.8,3
11689,17.153,2.9139999999999997,-7.267,6.25191,-27.07808,4.9503900000000005,0.11273,-0.039935000000000005,0.9544040000000001,7210.0,10210.0,5690.0,46.5,10.05,00000000 00000000,32.826571975,34.956769313,24.64,0.29,3.59,0.0,0.1,2.51,-3.66,-0.02,0.26,-2.16,32.825893563,34.956523432,21.113,0.46,34.13,0.25,307719395,2172,111,11111100,17,25,100,0.0,0,45,45,100798,22.89,0
11690,17.035999999999998,2.7880000000000003,-7.9,4.6689099999999994,-23.8339,1.93154,0.077238,-0.034934,0.9373549999999999,7290.0,10230.0,5630.0,46.5,10.09,00000000 00000000,32.82657133,34.956769739,24.64,0.29,3.58,0.0,0.1,2.5,-3.68,-0.01,0.26,-2.16,32.825893801999996,34.956523632,21.141,0.65,35.16,0.31,307719420,2172,111,11111100,17,25,100,0.0,0,20,20,100798,22.89,3
11691,17.078,2.67,-8.456,4.66044,-20.21041,-7.76952,0.049735,0.0006490000000000001,0.912624,7370.0,10230.0,5560.0,46.5,10.07,00000000 00000000,32.826572138,34.956769817,24.639,0.28,3.6,-0.02,0.1,2.49,-3.69,0.0,0.27,-2.17,32.825893801999996,34.956523632,21.141,0.65,35.16,0.31,307719445,2172,111,11111100,17,25,100,0.0,0,45,45,100798,22.97,0
11692,17.372,2.498,-8.934,4.55785,-17.52019,-15.60154,0.026996,-0.027849000000000002,0.8890879999999999,7430.0,10220.0,5530.0,46.5,10.08,00000000 00000000,32.826571586,34.956770744,24.628,0.27,3.6,-0.05,0.1,2.48,-3.7,0.02,0.28,-2.19,32.825894145999996,34.956523852,21.123,0.86,28.34,-0.36,307719470,2172,111,11111100,16,25,100,0.0,0,20,20,100798,22.97,3
11693,17.719,2.371,-9.361,0.5897899999999999,-15.59981,-12.22373,0.000294,-0.042962,0.878526,7470.0,10190.0,5520.0,46.5,10.05,00000000 00000000,32.826572397,34.956770814,24.626,0.24,3.61,-0.08,0.1,2.48,-3.71,0.05,0.27,-2.21,32.825894145999996,34.956523852,21.123,0.86,28.34,-0.36,307719495,2172,111,11111100,16,25,100,0.0,0,45,45,100798,22.89,0
11694,17.962,2.366,-9.751,-3.11557,-14.136439999999999,-8.0268,-0.025351,-0.013684,0.903802,7510.0,10160.0,5520.0,46.5,10.1,00000000 00000000,32.826571881,34.956770471,24.634,0.2,3.61,-0.11,0.1,2.47,-3.72,0.08,0.27,-2.24,32.825894508000005,34.956524153000004,21.133,0.98,35.12,0.2,307719520,2172,111,11111100,16,25,100,0.0,0,20,20,100798,22.97,3
11695,18.173,2.408,10.049,-2.47349,-7.9603600000000005,-8.33644,-0.05322,-0.0017170000000000002,0.9221229999999999,7570.0,10130.0,5510.0,46.5,10.07,00000000 00000000,32.826572695,34.956770522,24.63,0.16,3.63,-0.13,0.1,2.46,-3.73,0.11,0.28,-2.29,32.825894508000005,34.956524153000004,21.133,0.98,35.12,0.2,307719545,2172,111,11111100,16,25,100,0.0,0,45,45,100798,22.97,0
11696,18.372,2.423,10.128,-2.20718,1.95387,-5.7122,-0.058953,-0.027006,0.9331940000000001,7600.0,10110.0,5520.0,46.5,10.08,00000000 00000000,32.826572182,34.956772774,24.626,0.14,3.64,-0.16,0.11,2.45,-3.74,0.13,0.29,-2.33,32.825894923,34.956524389,21.105,1.02,25.64,-0.56,307719570,2172,111,11111100,16,25,100,0.0,0,20,20,100798,22.97,3
11697,18.463,2.49,-9.926,-4.62389,13.753179999999999,0.08244,-0.009325,-0.062921,0.986556,7590.0,10080.0,5550.0,46.5,10.07,00000000 00000000,32.826573004000004,34.956772806,24.622,0.09,3.66,-0.17,0.11,2.44,-3.75,0.15,0.29,-2.38,32.825894923,34.956524389,21.105,1.02,25.64,-0.56,307719595,2172,111,11111100,16,25,100,0.0,0,45,45,100798,22.89,0
11698,18.39,2.638,-9.538,-5.93316,15.89211,7.0458300000000005,0.049524,-0.046112,1.026646,7570.0,10060.0,5570.0,46.5,10.08,00000000 00000000,32.826572512,34.956772437,24.613,0.06,3.65,-0.17,0.11,2.43,-3.77,0.15,0.28,-2.4,32.825895324,34.956524607,21.09,0.97,24.59,-0.3,307719620,2172,111,11111100,16,25,100,0.0,0,20,20,100798,22.89,3
11699,18.180999999999997,2.8160000000000003,-9.126,-5.34205,16.86293,10.784460000000001,0.062873,-0.001952,1.055187,7520.0,10050.0,5610.0,46.5,10.07,00000000 00000000,32.826573335999996,34.95677245,24.609,0.03,3.67,-0.16,0.12,2.43,-3.78,0.14,0.29,-2.42,32.825895324,34.956524607,21.09,0.97,24.59,-0.3,307719645,2172,111,11111100,16,25,100,0.0,0,45,45,100800,22.8,0
11700,17.913,2.9930000000000003,-8.656,-5.71051,19.44254,13.0072,0.11334300000000001,-0.006253,1.1103690000000002,7460.0,10050.0,5640.0,46.5,10.09,00000000 00000000,32.826572743,34.956772070999996,24.604,0.02,3.67,-0.14,0.12,2.42,-3.79,0.12,0.3,-2.44,32.825895636,34.956524824,21.102,0.8,30.44,0.24,307719670,2172,111,11111100,16,25,100,0.0,0,20,20,100798,22.89,3
11701,17.546,3.167,-8.172,-3.20038,16.09244,17.465770000000003,0.135757,0.021997,1.101924,7400.0,10070.0,5670.0,46.5,10.07,00000000 00000000,32.826573571,34.956772077,24.601,0.02,3.69,-0.11,0.12,2.41,-3.8,0.09,0.31,-2.44,32.825895636,34.956524824,21.102,0.8,30.44,0.24,307719695,2172,111,11111100,16,25,100,0.0,0,45,45,100798,22.89,0
11702,17.105,3.227,-7.885,3.3735,5.00379,16.79202,0.132103,0.036853,1.0864989999999999,7350.0,10090.0,5700.0,46.5,10.08,00000000 00000000,32.826572977,34.956771707,24.598,0.02,3.7,-0.09,0.12,2.4,-3.81,0.07,0.33,-2.44,32.825895957,34.956525113000005,21.124,0.89,37.29,0.43,307719720,2172,111,11111100,15,25,100,0.0,0,20,20,100798,22.89,3
11703,16.703,3.113,-7.805,9.76216,1.7504,13.97388,0.08758300000000001,0.000212,1.118415,7340.0,10100.0,5710.0,46.5,10.08,00000000 00000000,32.826573812,34.956771714,24.596,0.02,3.72,-0.06,0.12,2.39,-3.82,0.04,0.35,-2.44,32.825895957,34.956525113000005,21.124,0.89,37.29,0.43,307719745,2172,111,11111100,15,25,100,0.0,0,45,45,100798,22.89,0
11704,16.308,2.873,-7.729,12.126489999999999,0.7956300000000001,15.927320000000002,0.017285,-0.0389,1.107557,7350.0,10090.0,5710.0,46.5,10.1,00000000 00000000,32.826573241999995,34.956771363,24.601,0.0,3.72,-0.04,0.12,2.39,-3.84,0.02,0.36,-2.45,32.82589631,34.95652553,21.132,1.1,44.93,0.15,307719770,2172,111,11111100,15,25,100,0.0,0,20,20,100798,22.89,3
11705,15.81,2.6510000000000002,-7.805,11.00281,-8.714089999999999,21.74345,0.074804,-0.070495,1.158417,7380.0,10080.0,5700.0,46.5,10.04,00000000 00000000,32.826574082,34.956771359,24.601,-0.02,3.73,-0.01,0.12,2.38,-3.85,0.0,0.36,-2.48,32.82589631,34.95652553,21.132,1.1,44.93,0.15,307719795,2172,111,11111100,15,25,100,0.0,0,45,45,100798,22.89,0
11706,15.089,2.459,-8.048,11.92785,-9.951410000000001,32.68728,0.20521799999999998,-0.027507999999999998,1.19915,7430.0,10110.0,5690.0,46.5,10.07,00000000 00000000,32.826573538000005,34.95677098,24.6,-0.02,3.72,0.03,0.12,2.37,-3.86,-0.05,0.36,-2.48,32.825896689000004,34.956525823,21.106,1.0,33.09,-0.51,307719820,2172,111,11111100,15,25,100,0.0,0,20,20,100800,22.8,3
11707,14.23,2.2769999999999997,-8.024,11.14911,11.73195,30.1757,0.21609699999999998,-0.009290000000000001,1.121181,7480.0,10170.0,5680.0,46.4,10.07,00000000 00000000,32.826574377,34.956770974,24.602,-0.01,3.73,0.08,0.12,2.36,-3.87,-0.1,0.37,-2.46,32.825896689000004,34.956525823,21.106,1.0,33.09,-0.51,307719845,2172,111,11111100,15,25,100,0.0,0,45,45,100798,22.89,0
11708,13.579,2.153,-7.43,5.05196,30.418020000000002,20.9369,0.175595,-0.06549400000000001,1.015647,7450.0,10240.0,5690.0,46.4,10.08,00000000 00000000,32.826573923000005,34.956770583,24.604,0.0,3.71,0.1,0.12,2.35,-3.88,-0.12,0.37,-2.44,32.825897154,34.956526029,21.071,1.1,20.46,-0.69,307719870,2172,111,11111100,15,25,100,0.0,0,20,20,100798,22.89,3
11709,13.085,2.161,-6.645,-0.9202,27.22989,19.530179999999998,0.15973900000000002,-0.102538,0.958493,7340.0,10260.0,5720.0,46.4,10.05,00000000 00000000,32.826574758,34.956770584000004,24.606,0.0,3.7,0.1,0.11,2.34,-3.9,-0.12,0.35,-2.42,32.825897154,34.956526029,21.071,1.1,20.46,-0.69,307719895,2172,111,11111100,15,25,100,0.0,0,45,45,100798,22.89,0
11710,12.588,2.296,-6.157,-5.00736,9.63503,20.821,0.16098900000000002,-0.10676600000000001,0.947686,7230.0,10250.0,5750.0,46.4,10.1,00000000 00000000,32.826574302,34.956770203000005,24.608,0.01,3.67,0.09,0.11,2.34,-3.91,-0.11,0.34,-2.4,32.825897606999995,34.956526276,21.048,1.1,24.73,-0.46,307719920,2172,111,11111100,14,25,100,0.0,0,20,20,100798,22.89,3
11711,12.065,2.484,-6.0889999999999995,-5.2549,-3.9291300000000002,22.51481,0.121726,-0.087479,0.960073,7190.0,10260.0,5740.0,46.4,10.08,00000000 00000000,32.826575126,34.956770209,24.611,0.02,3.65,0.08,0.1,2.33,-3.92,-0.11,0.32,-2.38,32.825897606999995,34.956526276,21.048,1.1,24.73,-0.46,307719945,2172,111,11111100,14,25,100,0.0,0,45,45,100798,22.89,0
11712,11.529000000000002,2.673,-6.228,-4.9134199999999995,-7.94844,20.52415,0.11027,-0.033864,0.971483,7200.0,10290.0,5730.0,46.4,10.1,00000000 00000000,32.826575946,34.956769833,24.613,0.02,3.65,0.08,0.1,2.32,-3.93,-0.1,0.31,-2.37,32.825897767,34.956526569,21.105,0.65,57.22,1.13,307719970,2172,111,11111100,15,25,100,0.0,0,20,20,100798,22.89,3
11713,11.145,2.813,-6.4,-2.56352,-6.7589,10.073189999999999,0.116274,0.000504,0.9856309999999999,7230.0,10340.0,5690.0,46.4,10.05,00000000 00000000,32.826576769,34.956769840999996,24.615,0.03,3.66,0.07,0.1,2.31,-3.95,-0.1,0.32,-2.36,32.825897767,34.956526569,21.105,0.65,57.22,1.13,307719995,2172,111,11111100,15,25,100,0.0,0,45,45,100798,22.89,8
11714,11.049000000000001,2.8480000000000003,-6.559,0.22541,-7.45688,-1.17795,0.083655,-0.00315,0.93558,7240.0,10380.0,5680.0,46.4,10.05,00000000 00000000,32.826576097,34.956769455999996,24.621,0.03,3.66,0.07,0.1,2.3,-3.96,-0.09,0.33,-2.35,32.825898029,34.956526776,21.116,0.69,33.62,0.21,307720020,2172,111,11111100,14,25,100,0.0,0,20,20,100798,22.89,3
11715,11.116,2.823,-6.8020000000000005,0.79625,-11.146139999999999,-2.81696,0.010613,-0.026208999999999996,0.872967,7270.0,10380.0,5640.0,46.4,10.07,00000000 00000000,32.826576922,34.956769464000004,24.623,0.02,3.67,0.04,0.09,2.3,-3.97,-0.07,0.34,-2.36,32.825898029,34.956526776,21.116,0.69,33.62,0.21,307720045,2172,111,11111100,14,25,100,0.0,0,45,45,100798,22.89,0
11716,11.149000000000001,2.783,-7.044,2.25835,-5.41401,-1.1109,-0.072076,-0.010133,0.872552,7310.0,10380.0,5590.0,46.4,10.08,00000000 00000000,32.826576359,34.956769085,24.624,0.0,3.67,0.01,0.09,2.29,-3.99,-0.03,0.34,-2.38,32.825898395,34.956527046,21.119,0.95,31.94,0.06,307720070,2172,111,11111100,18,25,100,0.0,0,20,20,100798,22.89,3
11717,11.204,2.687,-6.987,4.56136,9.97144,-4.33749,-0.113023,-0.037262,0.848339,7330.0,10350.0,5550.0,46.4,10.05,00000000 00000000,32.826577186,34.956769077,24.624,-0.05,3.68,-0.02,0.09,2.28,-4.0,0.0,0.35,-2.42,32.825898395,34.956527046,21.119,0.95,31.94,0.06,307720095,2172,111,11111100,18,25,100,0.0,0,45,45,100798,22.89,0
11718,11.293,2.545,-6.648,5.0641,15.315479999999999,-2.8683,-0.074977,-0.100191,0.832775,7310.0,10290.0,5510.0,46.4,10.1,00000000 00000000,32.826576701,34.956768684000004,24.616,-0.1,3.67,-0.06,0.09,2.27,-4.01,0.04,0.34,-2.46,32.825898837,34.956527328,21.105,1.11,28.33,-0.27,307720120,2172,111,11111100,17,25,100,0.0,0,20,20,100798,22.89,3
11719,11.247,2.441,-6.303,3.6825300000000003,11.86735,6.241680000000001,-0.008190000000000001,-0.100661,0.870073,7270.0,10230.0,5500.0,46.4,10.07,00000000 00000000,32.826577526,34.956768651,24.613,-0.13,3.66,-0.1,0.09,2.26,-4.02,0.08,0.32,-2.49,32.825898837,34.956527328,21.105,1.11,28.33,-0.27,307720145,2172,111,11111100,17,25,100,0.0,0,45,45,100798,22.89,0
11720,11.040999999999999,2.366,-6.001,4.0301599999999995,12.59643,7.53149,-0.023372,-0.07223099999999999,0.9308799999999999,7220.0,10190.0,5500.0,46.4,10.08,00000000 00000000,32.826577013000005,34.956768247,24.607,-0.16,3.64,-0.13,0.09,2.25,-4.04,0.1,0.31,-2.51,32.825899246,34.956527617,21.094,1.05,30.75,-0.22,307720170,2172,111,11111100,16,25,100,0.0,0,20,20,100798,22.89,3
11721,10.915,2.258,-5.608,6.07859,19.10387,0.45841000000000004,-0.007835,-0.032902999999999995,0.989482,7160.0,10150.0,5510.0,46.4,10.07,00000000 00000000,32.826577833,34.956768199,24.603,-0.19,3.65,-0.14,0.09,2.25,-4.05,0.12,0.3,-2.53,32.825899246,34.956527617,21.094,1.05,30.75,-0.22,307720195,2172,111,11111100,16,25,100,0.0,0,45,45,100798,22.89,0
11722,10.998,2.053,-5.056,9.25117,24.77964,-8.167,0.057477,-0.028756,1.082848,7090.0,10110.0,5540.0,46.4,10.09,00000000 00000000,32.826577363,34.956767795,24.601,-0.2,3.64,-0.13,0.1,2.24,-4.06,0.11,0.31,-2.54,32.825899699000004,34.956527973,21.089,1.2,33.59,-0.1,307720220,2172,111,11111100,16,25,100,0.0,0,20,20,100800,22.8,3
11723,11.235,1.788,-4.39,9.63375,28.680259999999997,-11.75945,0.079639,-0.055449,1.128835,7000.0,10050.0,5580.0,46.4,10.07,00000000 00000000,32.826578183,34.956767739,24.598,-0.21,3.64,-0.1,0.1,2.23,-4.08,0.08,0.3,-2.54,32.825899699000004,34.956527973,21.089,1.2,33.59,-0.1,307720245,2172,111,11111100,16,25,100,0.0,0,45,45,100798,22.89,0
11724,11.527999999999999,1.561,-3.714,6.14128,24.997020000000003,-13.229560000000001,0.096471,-0.079828,1.126442,6890.0,9980.0,5630.0,46.4,10.08,00000000 00000000,32.826577672,34.956767305999996,24.587,-0.21,3.62,-0.07,0.1,2.22,-4.09,0.05,0.29,-2.53,32.82590011,34.95652817,21.073,0.98,21.98,-0.31,307720270,2172,111,11111100,16,25,100,0.0,0,20,20,100798,22.89,3
11725,11.914000000000001,1.4369999999999998,-3.167,2.12102,18.9847,-19.22492,0.075892,-0.043378,1.115025,6780.0,9910.0,5680.0,46.4,10.08,00000000 00000000,32.826578486,34.95676725,24.586,-0.2,3.61,-0.04,0.1,2.21,-4.1,0.02,0.28,-2.51,32.82590011,34.95652817,21.073,0.98,21.98,-0.31,307720295,2172,111,11111100,16,25,100,0.0,0,45,45,100800,22.8,0
11726,12.475,1.374,-2.8339999999999996,0.5352600000000001,7.875,-24.206429999999997,0.076295,-0.049882,1.077815,6700.0,9850.0,5720.0,46.4,10.08,00000000 00000000,32.826577957,34.956766815,24.584,-0.2,3.6,-0.02,0.1,2.21,-4.12,0.0,0.28,-2.5,32.825900501999996,34.956528346999995,21.072,0.92,20.97,-0.03,307720320,2172,111,11111100,16,25,100,0.0,0,20,20,100800,22.8,3
11727,12.985,1.3559999999999999,-2.8510000000000004,-1.62459,-7.80995,-15.29695,0.09515599999999999,-0.065097,1.0500459999999998,6650.0,9800.0,5740.0,46.4,10.08,00000000 00000000,32.826578765,34.956766761,24.584,-0.19,3.59,0.0,0.1,2.2,-4.13,-0.02,0.27,-2.49,32.825900501999996,34.956528346999995,21.072,0.92,20.97,-0.03,307720345,2172,111,11111100,16,25,100,0.0,0,45,45,100800,22.8,0
11728,13.263,1.423,-3.1180000000000003,-5.1461,-9.97487,-8.22892,0.06358899999999999,-0.053211,1.059123,6640.0,9770.0,5750.0,46.4,10.08,00000000 00000000,32.826578333,34.95676635,24.584,-0.19,3.56,0.0,0.1,2.19,-4.15,-0.03,0.26,-2.47,32.825900976999996,34.956528655999996,21.095,1.2,28.69,0.46,307720370,2172,111,11111100,16,25,100,0.0,0,20,20,100798,22.89,3
11729,13.491,1.57,-3.2510000000000003,-7.19747,0.91509,-10.31558,0.045765,-0.009178,1.028537,6650.0,9770.0,5730.0,46.4,10.05,00000000 00000000,32.826579136,34.956766299,24.584,-0.19,3.56,0.02,0.1,2.18,-4.16,-0.04,0.26,-2.47,32.825900976999996,34.956528655999996,21.095,1.2,28.69,0.46,307720395,2172,111,11111100,16,25,100,0.0,0,45,45,100798,22.89,0
11730,13.788,1.7309999999999999,-3.11,-7.120610000000001,9.41354,-11.85714,0.095984,0.045597000000000006,0.995525,6620.0,9790.0,5740.0,46.4,10.11,00000000 00000000,32.826578577,34.956765876,24.585,-0.18,3.56,0.02,0.1,2.17,-4.17,-0.05,0.27,-2.46,32.825901338,34.956528895,21.112,0.91,29.26,0.34,307720420,2172,111,11111100,16,25,100,0.0,0,20,20,100798,22.89,3
11731,14.015999999999998,1.885,-2.94,-6.10896,2.14695,-4.33442,0.160701,0.031137,0.963916,6590.0,9770.0,5710.0,46.4,10.09,00000000 00000000,32.826579381,34.956765829,24.585,-0.16,3.58,0.02,0.09,2.16,-4.19,-0.04,0.29,-2.43,32.825901338,34.956528895,21.112,0.91,29.26,0.34,307720445,2172,111,11111100,16,25,100,0.0,0,45,45,100800,22.8,0
11732,13.991,2.022,-3.0860000000000003,-4.7698,-13.40184,5.668740000000001,0.182705,0.032859,0.98534,6570.0,9770.0,5710.0,46.4,10.11,00000000 00000000,32.826579011999996,34.956765422,24.575,-0.12,3.57,0.01,0.09,2.16,-4.2,-0.04,0.3,-2.39,32.825901877,34.956529187,21.098,1.31,24.6,-0.28,307720470,2172,111,11111100,16,25,100,0.0,0,20,20,100798,22.89,3
11733,13.785,2.121,-3.556,-1.79195,-23.76884,10.57432,0.183622,0.048749,1.006996,6580.0,9790.0,5680.0,46.4,10.07,00000000 00000000,32.826579816999995,34.956765393000005,24.575,-0.09,3.58,0.01,0.09,2.15,-4.22,-0.04,0.32,-2.35,32.825901877,34.956529187,21.098,1.31,24.6,-0.28,307720495,2172,111,11111100,16,25,100,0.0,0,45,45,100800,22.8,0
11734,13.513,2.13,-4.197,2.07674,-27.13348,10.27955,0.15020799999999998,0.036897000000000006,0.992231,6630.0,9840.0,5650.0,46.4,10.12,00000000 00000000,32.826579396999996,34.956764995,24.575,-0.06,3.59,0.01,0.09,2.14,-4.23,-0.04,0.34,-2.32,32.825902374,34.956529464,21.08,1.21,25.14,-0.36,307720520,2172,111,11111100,16,25,100,0.0,0,20,20,100800,22.72,3
11735,13.269,2.061,-4.865,4.8400099999999995,-26.32793,8.7131,0.095951,0.016041999999999997,0.944739,6730.0,9870.0,5550.0,46.4,10.08,00000000 00000000,32.826580205999996,34.956764981,24.576,-0.04,3.6,0.01,0.09,2.13,-4.25,-0.04,0.35,-2.3,32.825902374,34.956529464,21.08,1.21,25.14,-0.36,307720545,2172,111,11111100,16,25,100,0.0,0,45,45,100800,22.72,0
11736,13.061,1.923,-5.47,7.515610000000001,-22.344479999999997,6.2662,0.044331,0.023078,0.8922680000000001,6810.0,9900.0,5480.0,46.5,10.11,00000000 00000000,32.826579605999996,34.95676459,24.583,-0.04,3.6,0.0,0.09,2.12,-4.26,-0.02,0.36,-2.3,32.825902713000005,34.956529739000004,21.09,0.91,34.44,0.19,307720570,2172,111,11111100,16,25,100,0.0,0,20,20,100798,22.89,3
11737,12.921,1.722,-5.983,9.02171,-19.737070000000003,3.95981,0.030679,0.014819999999999998,0.823974,6880.0,9910.0,5410.0,46.5,10.07,00000000 00000000,32.826580418,34.956764577,24.582,-0.05,3.62,-0.04,0.08,2.12,-4.27,0.0,0.37,-2.3,32.825902713000005,34.956529739000004,21.09,0.91,34.44,0.19,307720595,2172,111,11111100,16,25,100,0.0,0,45,45,100798,22.97,0
11738,12.76,1.5330000000000001,-6.477,6.67985,-20.52433,8.029639999999999,0.031822,-0.009969,0.825091,6930.0,9910.0,5380.0,46.5,10.12,00000000 00000000,32.826579735,34.95676419,24.58,-0.06,3.61,-0.08,0.09,2.11,-4.29,0.05,0.38,-2.31,32.82590298,34.956530056999995,21.127,0.83,45.13,0.74,307720620,2172,111,11111100,16,25,100,0.0,0,20,20,100796,23.05,3
11739,12.49,1.4240000000000002,-6.942,4.71139,-15.0347,11.39732,-0.008047,-0.001471,0.852253,7000.0,9900.0,5330.0,46.5,10.09,00000000 00000000,32.826580548,34.956764170999996,24.578,-0.08,3.62,-0.12,0.09,2.1,-4.3,0.09,0.38,-2.32,32.82590298,34.956530056999995,21.127,0.83,45.13,0.74,307720645,2172,111,11111100,16,25,100,0.0,0,45,45,100796,23.05,0
11740,12.187999999999999,1.355,-7.155,3.16739,-2.5527900000000003,11.17351,-0.047272,-0.004883,0.8506030000000001,7040.0,9920.0,5310.0,46.5,10.12,00000000 00000000,32.826579846,34.956763769,24.574,-0.11,3.62,-0.16,0.09,2.09,-4.32,0.13,0.38,-2.35,32.825903233000005,34.956530323,21.147,0.75,41.68,0.4,307720670,2172,111,11111100,16,25,100,0.0,0,20,20,100798,22.97,3
11741,11.895999999999999,1.3530000000000002,-7.09,-0.471,5.708,13.44219,-0.005743,-0.031577999999999995,0.889488,7060.0,9930.0,5310.0,46.5,10.07,00000000 00000000,32.826580661,34.956763733,24.569,-0.14,3.63,-0.2,0.09,2.08,-4.33,0.16,0.38,-2.37,32.825903233000005,34.956530323,21.147,0.75,41.68,0.4,307720695,2172,111,11111100,16,25,100,0.0,0,45,45,100796,23.05,0
11742,11.442,1.4780000000000002,-6.926,-5.33301,6.96439,23.6413,0.026342,-0.0289,0.9793149999999999,7060.0,9960.0,5330.0,46.5,10.11,00000000 00000000,32.826579944,34.956763310999996,24.569,-0.17,3.61,-0.21,0.1,2.07,-4.35,0.18,0.38,-2.39,32.825903473000004,34.956530537,21.143,0.66,36.96,-0.07,307720720,2172,111,11111100,16,25,100,0.0,0,20,20,100798,22.97,3
11743,10.785,1.7209999999999999,-6.657,-6.69756,13.78304,29.299090000000003,0.054749,0.041213,1.0741290000000001,7040.0,10020.0,5370.0,46.5,10.07,00000000 00000000,32.826580758,34.956763263,24.563,-0.18,3.63,-0.21,0.1,2.07,-4.36,0.18,0.39,-2.4,32.825903473000004,34.956530537,21.143,0.66,36.96,-0.07,307720745,2172,111,11111100,16,25,100,0.0,0,45,45,100798,22.97,0
11744,10.07,1.94,-6.187,-4.21769,20.48268,29.571540000000002,0.0935,0.04582,1.099852,6990.0,10120.0,5460.0,46.5,10.12,00000000 00000000,32.826580259,34.956762844000004,24.558,-0.19,3.64,-0.18,0.1,2.06,-4.38,0.15,0.4,-2.41,32.82590392,34.956530809,21.107,1.11,27.16,-0.72,307720770,2172,111,11111100,15,25,100,0.0,0,20,20,100798,22.97,3
11745,9.294,2.088,-5.667999999999999,-0.97041,17.57416,33.97299,0.109964,0.035981,1.106997,6940.0,10200.0,5500.0,46.5,10.07,00000000 00000000,32.82658108,34.956762790999996,24.554,-0.19,3.66,-0.16,0.11,2.05,-4.4,0.13,0.42,-2.41,32.82590392,34.956530809,21.107,1.11,27.16,-0.72,307720795,2172,111,11111100,15,25,100,0.0,0,45,45,100798,22.97,0
11746,8.385,2.146,-5.2589999999999995,2.93582,13.75426,37.3194,0.081384,0.030558,1.122933,6880.0,10290.0,5530.0,46.4,10.12,00000000 00000000,32.826580578000005,34.956762383000004,24.549,-0.19,3.66,-0.13,0.11,2.04,-4.41,0.1,0.44,-2.4,32.825904374000004,34.956531148,21.083,1.18,32.22,-0.47,307720820,2172,111,11111100,15,25,100,0.0,0,20,20,100798,22.97,3
11747,7.478,2.115,-4.92,5.44899,8.256039999999999,33.86193,0.098912,0.006523999999999999,1.130012,6850.0,10360.0,5520.0,46.4,10.1,00000000 00000000,32.826581405,34.956762331,24.546,-0.19,3.68,-0.1,0.11,2.03,-4.43,0.07,0.45,-2.4,32.825904374000004,34.956531148,21.083,1.18,32.22,-0.47,307720845,2172,111,11111100,15,25,100,0.0,0,45,45,100798,22.89,0
11748,6.651,2.0140000000000002,-4.885,8.68725,-8.36979,32.187059999999995,0.22778600000000002,0.004818,1.195446,6840.0,10420.0,5510.0,46.4,10.12,00000000 00000000,32.826580777,34.956761925,24.542,-0.17,3.68,-0.05,0.11,2.03,-4.44,0.03,0.46,-2.38,32.825904718000004,34.956531494000004,21.077,1.0,40.3,-0.12,307720870,2172,111,11111100,15,25,100,0.0,0,20,20,100798,22.97,3
11749,5.827000000000001,1.811,-5.255,13.48037,-21.03173,30.585720000000002,0.251781,0.050856,1.2005860000000002,6870.0,10460.0,5450.0,46.4,10.08,00000000 00000000,32.826581606,34.956761883,24.541,-0.13,3.69,0.0,0.11,2.02,-4.46,-0.02,0.48,-2.33,32.825904718000004,34.956531494000004,21.077,1.0,40.3,-0.12,307720895,2172,111,11111100,15,25,100,0.0,0,45,45,100798,22.97,0
11750,5.132000000000001,1.4969999999999999,-5.765,14.919770000000002,-20.542170000000002,22.15111,0.12225799999999999,0.024203,1.09132,6930.0,10500.0,5390.0,46.4,10.11,00000000 00000000,32.826580915,34.956761469,24.541,-0.11,3.69,0.03,0.11,2.01,-4.47,-0.06,0.49,-2.3,32.825905014,34.956531731999995,21.056,0.79,34.2,-0.41,307720920,2172,111,11111100,15,25,100,0.0,0,20,20,100798,22.97,3
11751,4.62,1.2429999999999999,-6.215,8.926810000000001,-15.2537,17.10507,0.003091,-0.051224,0.995006,7000.0,10510.0,5310.0,46.4,10.09,00000000 00000000,32.826581747,34.956761437,24.542,-0.12,3.7,0.04,0.11,2.0,-4.49,-0.08,0.5,-2.31,32.825905014,34.956531731999995,21.056,0.79,34.2,-0.41,307720945,2172,111,11111100,15,25,100,0.0,0,45,45,100796,23.05,0
11752,4.204,1.153,-6.496,1.6622599999999998,-8.29983,14.94784,-0.021822,-0.082695,0.987022,7020.0,10540.0,5300.0,46.4,10.12,00000000 00000000,32.826581053000005,34.956761028,24.545,-0.16,3.67,0.04,0.1,1.99,-4.51,-0.07,0.48,-2.33,32.825905301999995,34.956532009,21.061,0.82,38.99,0.08,307720970,2172,111,11111100,15,25,100,0.0,0,20,20,100798,22.89,3
11753,3.858,1.224,-6.642,-3.6652199999999997,-4.78978,13.925379999999999,0.03317,-0.092046,1.016604,7030.0,10560.0,5270.0,46.4,10.08,00000000 00000000,32.826581878,34.956760981,24.546,-0.18,3.66,0.04,0.1,1.99,-4.52,-0.07,0.47,-2.35,32.825905301999995,34.956532009,21.061,0.82,38.99,0.08,307720995,2172,111,11111100,15,25,100,0.0,0,45,45,100800,22.8,8
11754,3.495,1.4,-6.735,-6.922680000000001,-2.79113,16.07774,0.106959,-0.063919,1.047667,7010.0,10620.0,5300.0,46.4,10.1,00000000 00000000,32.826581327,34.956760591,24.554,-0.2,3.63,0.05,0.1,1.98,-4.54,-0.08,0.45,-2.36,32.825905712,34.956532449,21.073,1.22,42.21,0.24,307721020,2172,111,11111100,15,25,100,0.0,0,20,20,100800,22.8,3
11755,3.138,1.629,-6.737,-7.50617,2.56865,12.89692,0.135456,-0.028129,1.019108,7030.0,10660.0,5260.0,46.4,10.09,00000000 00000000,32.826582145,34.956760538000005,24.555,-0.19,3.63,0.06,0.1,1.97,-4.55,-0.09,0.44,-2.35,32.825905712,34.956532449,21.073,1.22,42.21,0.24,307721045,2172,111,11111100,15,25,100,0.0,0,45,45,100798,22.89,0
11756,2.9389999999999996,1.8159999999999998,-6.622000000000001,-5.52583,4.5208900000000005,4.1944099999999995,0.152153,-0.005422,0.944693,7020.0,10710.0,5240.0,46.4,10.08,00000000 00000000,32.826581615,34.956760121,24.548,-0.19,3.62,0.06,0.09,1.96,-4.57,-0.09,0.45,-2.34,32.825906141,34.956532741,21.065,1.09,29.88,-0.16,307721070,2172,111,11111100,18,25,100,0.0,0,20,20,100800,22.8,3
11757,2.948,1.925,-6.569,-3.5553800000000004,-0.58125,-3.36279,0.11269000000000001,-0.032438999999999996,0.8762340000000001,6990.0,10750.0,5240.0,46.4,10.07,00000000 00000000,32.826582431,34.956760072,24.55,-0.18,3.63,0.04,0.09,1.95,-4.59,-0.07,0.45,-2.32,32.825906141,34.956532741,21.065,1.09,29.88,-0.16,307721095,2172,111,11111100,18,25,100,0.0,0,45,45,100800,22.8,0
11758,3.0860000000000003,1.992,-6.65,-3.6564699999999997,-4.8904,-6.94027,0.018067,-0.059512,0.82215,6960.0,10760.0,5240.0,46.4,10.11,00000000 00000000,32.826581739,34.956759654,24.547,-0.18,3.61,0.0,0.09,1.95,-4.6,-0.04,0.44,-2.32,32.825906423,34.956533011,21.062,0.8,38.93,-0.06,307721120,2172,111,11111100,18,25,100,0.0,0,20,20,100800,22.8,3
11759,3.306,2.061,-6.795,-3.7413199999999995,-4.84985,-9.787889999999999,-0.064384,-0.055251999999999996,0.811932,6960.0,10760.0,5210.0,46.4,10.08,00000000 00000000,32.826582551,34.9567596,24.546,-0.21,3.6,-0.04,0.09,1.94,-4.62,0.0,0.43,-2.34,32.825906423,34.956533011,21.062,0.8,38.93,-0.06,307721145,2172,111,11111100,18,25,100,0.0,0,45,45,100800,22.8,0
11760,3.585,2.123,-6.837000000000001,-4.7738,3.58678,-11.50458,-0.09477200000000001,-0.052904999999999994,0.839353,6930.0,10760.0,5220.0,46.4,10.1,00000000 00000000,32.826581861,34.956759186999996,24.545,-0.26,3.59,-0.08,0.09,1.93,-4.64,0.05,0.43,-2.38,32.825906704,34.956533352,21.083,0.89,45.77,0.43,307721170,2172,111,11111100,17,25,100,0.0,0,20,20,100800,22.8,3
11761,3.892,2.256,-6.603,-8.83054,15.966820000000002,-11.68591,-0.09102400000000001,-0.050391000000000005,0.854463,6900.0,10730.0,5200.0,46.4,10.05,00000000 00000000,32.826582669000004,34.95675911,24.542,-0.3,3.59,-0.12,0.09,1.92,-4.65,0.09,0.42,-2.42,32.825906704,34.956533352,21.083,0.89,45.77,0.43,307721195,2172,111,11111100,17,25,100,0.0,0,45,45,100800,22.8,0
11762,4.224,2.476,-6.1129999999999995,-11.25296,23.351770000000002,-13.650070000000001,-0.063252,-0.02723,0.879028,6830.0,10700.0,5210.0,46.4,10.1,00000000 00000000,32.826582139,34.956758683000004,24.537,-0.35,3.58,-0.16,0.09,1.91,-4.67,0.12,0.42,-2.45,32.825907125,34.956533705,21.074,1.14,35.27,-0.17,307721220,2172,111,11111100,17,25,100,0.0,0,20,20,100800,22.8,3
11763,4.649,2.6919999999999997,-5.522,-8.57361,24.4339,-18.04825,-0.016686000000000003,-0.008548,0.930205,6740.0,10680.0,5220.0,46.4,10.05,00000000 00000000,32.826582945,34.956758585,24.533,-0.38,3.59,-0.19,0.09,1.91,-4.69,0.15,0.42,-2.48,32.825907125,34.956533705,21.074,1.14,35.27,-0.17,307721245,2172,111,11111100,17,25,100,0.0,0,45,45,100800,22.8,0
11764,5.1370000000000005,2.798,-4.971,-3.80807,21.29831,-19.76233,0.030792,-0.012041,1.010481,6630.0,10640.0,5270.0,46.4,10.1,00000000 00000000,32.826582475,34.956758152,24.527,-0.39,3.59,-0.2,0.1,1.9,-4.7,0.16,0.43,-2.49,32.825907605,34.956534088000005,21.086,1.28,33.97,0.24,307721270,2172,111,11111100,16,25,100,0.0,0,20,20,100800,22.8,3
11765,5.649,2.784,-4.4830000000000005,2.31432,21.16554,-22.31588,0.034464999999999996,0.00486,1.112135,6520.0,10590.0,5300.0,46.4,10.08,00000000 00000000,32.826583284,34.956758044000004,24.523,-0.4,3.6,-0.18,0.1,1.89,-4.72,0.15,0.44,-2.49,32.825907605,34.956534088000005,21.086,1.28,33.97,0.24,307721295,2172,111,11111100,16,25,100,0.0,0,45,45,100800,22.72,0
11766,6.311,2.553,-3.895,11.9481,28.035320000000002,-31.883540000000004,0.000949,-0.006019,1.122782,6400.0,10520.0,5320.0,46.4,10.1,00000000 00000000,32.826582626,34.956757588,24.528,-0.42,3.6,-0.15,0.1,1.88,-4.74,0.12,0.45,-2.5,32.825907924,34.956534366999996,21.092,0.87,36.42,0.12,307721320,2172,111,11111100,15,25,100,0.0,0,20,20,100802,22.64,3
11767,7.11,2.119,-3.2289999999999996,17.50082,26.3424,-32.12052,0.004721,-0.035979000000000004,1.072392,6270.0,10410.0,5360.0,46.4,10.09,00000000 00000000,32.826583439000004,34.956757473,24.525,-0.43,3.61,-0.13,0.11,1.87,-4.76,0.09,0.46,-2.51,32.825907924,34.956534366999996,21.092,0.87,36.42,0.12,307721345,2172,111,11111100,15,25,100,0.0,0,45,45,100800,22.72,0
11768,7.792000000000001,1.63,-2.667,18.1037,19.9131,-23.49355,-0.008581,-0.067199,1.075165,6130.0,10290.0,5410.0,46.4,10.08,00000000 00000000,32.826582915,34.956757014000004,24.51,-0.45,3.6,-0.11,0.11,1.87,-4.77,0.07,0.45,-2.51,32.825908362,34.956534648,21.072,1.1,28.38,-0.41,307721370,2172,111,11111100,15,25,100,0.0,0,20,20,100800,22.72,3
11769,8.227,1.1520000000000001,-2.2840000000000003,18.94189,12.00152,-13.274939999999999,-0.018764,-0.026412,1.0576809999999999,6020.0,10170.0,5420.0,46.4,10.07,00000000 00000000,32.826583724,34.956756891,24.508,-0.46,3.59,-0.09,0.11,1.86,-4.79,0.06,0.44,-2.52,32.825908362,34.956534648,21.072,1.1,28.38,-0.41,307721395,2172,111,11111100,15,25,100,0.0,0,45,45,100800,22.72,0
11770,8.453,0.648,-2.083,19.84747,3.22286,-7.754630000000001,0.00607,0.027612,1.043037,5940.0,10080.0,5430.0,46.4,10.1,00000000 00000000,32.826583299,34.956756448,24.505,-0.47,3.59,-0.08,0.11,1.85,-4.81,0.04,0.44,-2.53,32.825908888,34.956535046,21.066,1.38,32.58,-0.1,307721420,2172,111,11111100,15,25,100,0.0,0,20,20,100800,22.8,3
11771,8.617,0.14400000000000002,-2.137,20.13922,-6.5633,-6.624860000000001,0.098855,0.005331,1.126695,5910.0,10000.0,5410.0,46.4,10.09,00000000 00000000,32.826584108,34.956756321,24.503,-0.47,3.6,-0.06,0.11,1.84,-4.83,0.02,0.45,-2.52,32.825908888,34.956535046,21.066,1.38,32.58,-0.1,307721445,2172,111,11111100,15,25,100,0.0,0,45,45,100800,22.72,0
11772,8.728,0.33399999999999996,-2.426,16.90718,-17.34347,-3.3823,0.220246,-0.013966999999999999,1.135046,5900.0,9930.0,5380.0,46.4,10.12,00000000 00000000,32.826583644,34.956755859,24.5,-0.44,3.58,-0.02,0.11,1.84,-4.84,0.0,0.45,-2.49,32.825909379,34.956535333000005,21.063,1.21,26.25,-0.06,307721470,2172,111,11111100,15,25,100,0.0,0,20,20,100800,22.8,3
11773,8.701,0.7040000000000001,-3.015,12.70243,-28.685579999999998,4.78123,0.199614,-0.019835,1.0684420000000001,5920.0,9890.0,5360.0,46.4,10.07,00000000 00000000,32.826584448,34.956755746,24.5,-0.4,3.57,0.0,0.11,1.83,-4.86,-0.03,0.44,-2.44,32.825909379,34.956535333000005,21.063,1.21,26.25,-0.06,307721495,2172,111,11111100,15,25,100,0.0,0,45,45,100798,22.89,0
11774,8.487,0.953,-3.759,7.708239999999999,-28.41589,9.03658,0.12158,0.017044999999999998,0.9807620000000001,5970.0,9890.0,5340.0,46.4,10.12,00000000 00000000,32.826583969,34.956755283,24.498,-0.37,3.55,0.0,0.11,1.82,-4.88,-0.04,0.43,-2.4,32.82590985,34.956535544,21.061,1.11,20.73,-0.04,307721520,2172,111,11111100,14,25,100,0.0,0,20,20,100798,22.97,3
11775,8.317,1.056,-4.378,1.19135,-20.71582,2.94272,0.084007,0.023881,0.9367409999999999,6060.0,9890.0,5250.0,46.4,10.1,00000000 00000000,32.826584768000004,34.956755184,24.498,-0.36,3.55,0.0,0.1,1.81,-4.9,-0.03,0.43,-2.39,32.82590985,34.956535544,21.061,1.11,20.73,-0.04,307721545,2172,111,11111100,14,25,100,0.0,0,45,45,100798,22.97,0
11776,8.331,0.993,-4.853,-7.34362,-19.12485,-3.1348700000000003,0.098065,-0.014327000000000001,0.89028,6110.0,9930.0,5210.0,46.4,10.08,00000000 00000000,32.82658429,34.956754724,24.506,-0.36,3.53,-0.02,0.1,1.81,-4.91,-0.01,0.43,-2.38,32.825910321,34.956535754,21.072,1.11,20.61,0.22,307721570,2172,111,11111100,14,25,100,0.0,0,20,20,100796,23.05,3
11777,8.458,0.685,-5.395,-17.82152,-24.30635,-3.79105,0.116594,-0.023843,0.911435,6140.0,9970.0,5190.0,46.4,10.08,00000000 00000000,32.826585085,34.956754628,24.505,-0.35,3.52,-0.04,0.1,1.8,-4.93,0.0,0.42,-2.36,32.825910321,34.956535754,21.072,1.11,20.61,0.22,307721595,2172,111,11111100,14,25,100,0.0,0,45,45,100796,23.05,0
11778,8.577,0.163,-6.032,-24.25613,-25.78479,-2.0119599999999997,0.116549,-0.011031000000000001,0.950735,6190.0,10010.0,5160.0,46.4,10.12,00000000 00000000,32.826584573000005,34.956754191,24.513,-0.35,3.51,-0.06,0.1,1.79,-4.95,0.02,0.41,-2.35,32.825910756,34.956536074,21.082,1.13,31.9,0.19,307721620,2172,111,11111100,14,25,100,0.0,0,20,20,100796,23.05,3
11779,8.717,0.45899999999999996,-6.645,-25.88462,-22.61474,-4.54575,0.105234,0.006157,0.9571700000000001,6240.0,10100.0,5130.0,46.4,10.08,00000000 00000000,32.826585361999996,34.956754098000005,24.511,-0.34,3.51,-0.06,0.1,1.78,-4.97,0.02,0.41,-2.34,32.825910756,34.956536074,21.082,1.13,31.9,0.19,307721645,2172,111,11111100,14,25,100,0.0,0,45,45,100798,22.97,0
11780,8.99,1.054,-7.167000000000001,-23.65265,-19.00331,-12.39945,0.085004,0.02409,0.940946,6270.0,10250.0,5110.0,46.4,10.11,00000000 00000000,32.826584761999996,34.956753681,24.519,-0.35,3.5,-0.07,0.1,1.78,-4.99,0.03,0.41,-2.34,32.825911114,34.956536495,21.091,1.11,44.78,0.18,307721670,2172,111,11111100,14,25,100,0.0,0,20,20,100796,23.05,3
11781,9.474,1.5290000000000001,-7.646,-18.63978,-19.72931,-20.303079999999998,0.051766999999999994,0.030754000000000004,0.899539,6300.0,10390.0,5090.0,46.4,10.1,00000000 00000000,32.826585552,34.956753586,24.517,-0.36,3.52,-0.09,0.1,1.77,-5.0,0.05,0.42,-2.34,32.825911114,34.956536495,21.091,1.11,44.78,0.18,307721695,2172,111,11111100,14,25,100,0.0,0,45,45,100798,22.97,0
11782,10.09,1.844,-8.205,-13.663089999999999,-23.105539999999998,-24.6848,-0.0015,0.027083999999999997,0.868865,6330.0,10480.0,5100.0,46.4,10.11,00000000 00000000,32.826584969,34.956753143,24.502,-0.38,3.52,-0.12,0.1,1.76,-5.02,0.08,0.44,-2.36,32.825911495,34.956536786,21.07,1.0,32.85,-0.43,307721720,2172,111,11111100,14,25,100,0.0,0,20,20,100798,22.89,3
11783,10.738,2.051,-8.811,-10.784939999999999,-22.5498,-23.00254,-0.018611000000000003,-0.006456999999999999,0.8832459999999999,6400.0,10500.0,5090.0,46.4,10.09,00000000 00000000,32.826585764,34.956753037,24.498,-0.41,3.54,-0.16,0.11,1.75,-5.04,0.11,0.44,-2.38,32.825911495,34.956536786,21.07,1.0,32.85,-0.43,307721745,2172,111,11111100,14,25,100,0.0,0,45,45,100798,22.89,0
11784,11.295,2.209,-9.306000000000001,-8.49774,-14.486320000000001,-19.23552,-0.011003,-0.009119,0.9263950000000001,6460.0,10500.0,5100.0,46.4,10.1,00000000 00000000,32.826585298000005,34.95675259,24.493,-0.44,3.54,-0.18,0.11,1.75,-5.06,0.14,0.45,-2.41,32.825911983000005,34.956537104,21.059,1.23,28.79,-0.2,307721770,2172,111,11111100,14,25,100,0.0,0,20,20,100800,22.8,3
11785,11.764000000000001,2.2840000000000003,-9.548,-3.57913,-3.73314,-16.620829999999998,-0.027524,0.005692,0.9363040000000001,6510.0,10480.0,5070.0,46.4,10.07,00000000 00000000,32.826586096999996,34.956752464000004,24.488,-0.48,3.56,-0.2,0.11,1.74,-5.08,0.16,0.45,-2.45,32.825911983000005,34.956537104,21.059,1.23,28.79,-0.2,307721795,2172,111,11111100,14,25,100,0.0,0,45,45,100800,22.72,0
11786,12.118,2.2680000000000002,-9.562000000000001,-1.24593,3.2801400000000003,-11.40667,-0.042453,0.002999,0.9310299999999999,6540.0,10430.0,5060.0,46.4,10.12,00000000 00000000,32.826585582,34.956752028000004,24.493,-0.52,3.57,-0.22,0.11,1.73,-5.1,0.18,0.46,-2.49,32.825912438,34.956537549000004,21.062,1.3,39.54,0.06,307721820,2172,111,11111100,14,25,100,0.0,0,20,20,100800,22.8,3
11787,12.324000000000002,2.306,-9.397,-5.16489,10.35497,-3.47784,0.000736,-0.032303,0.979024,6530.0,10360.0,5040.0,46.4,10.09,00000000 00000000,32.826586387,34.956751881,24.487,-0.57,3.58,-0.24,0.12,1.72,-5.12,0.2,0.47,-2.52,32.825912438,34.956537549000004,21.062,1.3,39.54,0.06,307721845,2172,111,11111100,14,25,100,0.0,0,45,45,100800,22.8,0
11788,12.292,2.492,-9.113999999999999,-8.5216,11.10631,7.32407,0.121125,-0.010619,1.076387,6500.0,10300.0,5040.0,46.4,10.12,00000000 00000000,32.826585864,34.956751401999995,24.481,-0.59,3.58,-0.23,0.12,1.72,-5.14,0.19,0.47,-2.55,32.82591289,34.956537833,21.051,1.13,27.97,-0.22,307721870,2172,111,11111100,14,25,100,0.0,0,20,20,100800,22.72,3
11789,12.052,2.7310000000000003,-8.862,-6.68235,8.45578,14.10101,0.205418,0.019292,1.134664,6450.0,10270.0,5060.0,46.4,10.09,00000000 00000000,32.826586671,34.956751241999996,24.475,-0.59,3.59,-0.2,0.13,1.71,-5.15,0.16,0.48,-2.54,32.82591289,34.956537833,21.051,1.13,27.97,-0.22,307721895,2172,111,11111100,14,25,100,0.0,0,45,45,100800,22.72,0
11790,11.668,2.92,-8.603,-4.29036,12.55899,17.20673,0.179161,0.011373000000000001,1.1582709999999998,6420.0,10280.0,5120.0,46.4,10.1,00000000 00000000,32.826586090999996,34.956750766,24.472,-0.58,3.6,-0.16,0.13,1.7,-5.17,0.12,0.5,-2.53,32.825913299,34.95653813,21.045,1.06,31.53,-0.11,307721920,2172,111,11111100,14,25,100,0.0,0,20,20,100800,22.72,3
11791,11.298,3.072,-8.2,-3.5638900000000002,15.362570000000002,13.766670000000001,0.16209500000000002,-0.038395,1.169551,6400.0,10350.0,5170.0,46.4,10.09,00000000 00000000,32.826586903,34.95675061,24.469,-0.58,3.61,-0.12,0.13,1.69,-5.19,0.08,0.51,-2.52,32.825913299,34.95653813,21.045,1.06,31.53,-0.11,307721945,2172,111,11111100,14,25,100,0.0,0,45,45,100800,22.8,0
11792,10.966,3.181,-7.928,-0.99119,3.5301199999999997,15.179520000000002,0.212993,-0.057543,1.212887,6380.0,10450.0,5210.0,46.4,10.07,00000000 00000000,32.826586357,34.956750172,24.473,-0.57,3.6,-0.07,0.13,1.69,-5.21,0.03,0.51,-2.51,32.825913741,34.956538623,21.05,1.34,43.25,0.1,307721970,2172,111,11111100,14,25,100,0.0,0,20,20,100800,22.8,3
11793,10.459000000000001,3.201,-8.001,5.12216,-9.59347,25.16868,0.279235,-0.027285000000000004,1.2230379999999998,6400.0,10610.0,5210.0,46.4,10.07,00000000 00000000,32.826587168,34.956750021,24.472,-0.55,3.61,-0.01,0.13,1.68,-5.23,-0.02,0.52,-2.48,32.825913741,34.956538623,21.05,1.34,43.25,0.1,307721995,2172,111,11111100,14,25,100,0.0,0,45,45,100800,22.8,8
11794,9.772,3.112,-8.175,8.55819,-5.1451199999999995,25.776670000000003,0.21263400000000002,-0.036382,1.157124,6460.0,10790.0,5180.0,46.4,10.08,00000000 00000000,32.82658653,34.956749577,24.468,-0.53,3.6,0.04,0.13,1.67,-5.25,-0.08,0.53,-2.45,32.825914105,34.956539045999996,21.047,1.13,44.48,-0.05,307722020,2172,111,11111100,14,25,100,0.0,0,20,20,100798,22.89,3
11795,9.17,2.977,-8.175,8.75561,1.6654,20.69727,0.137473,-0.085365,1.045928,6490.0,10890.0,5110.0,46.4,10.08,00000000 00000000,32.826587341,34.956749435999996,24.47,-0.52,3.6,0.06,0.13,1.66,-5.27,-0.11,0.52,-2.44,32.825914105,34.956539045999996,21.047,1.13,44.48,-0.05,307722045,2172,111,11111100,14,25,100,0.0,0,45,45,100800,22.8,0
11796,8.622,2.835,-8.104,8.24981,0.57867,22.37811,0.1244,-0.104581,0.9954729999999999,6480.0,10850.0,4980.0,46.4,10.12,00000000 00000000,32.826586733,34.956748972,24.483,-0.53,3.58,0.07,0.12,1.66,-5.29,-0.11,0.51,-2.44,32.82591449,34.956539348,21.067,1.02,33.49,0.38,307722070,2172,111,11111100,17,25,100,0.0,0,20,20,100800,22.8,3
11797,7.978,2.714,-8.117,9.18101,-3.33245,26.202779999999997,0.156954,-0.084901,1.024222,6440.0,10780.0,4880.0,46.4,10.09,00000000 00000000,32.826587536999995,34.95674883,24.485,-0.53,3.57,0.08,0.12,1.65,-5.31,-0.12,0.5,-2.43,32.82591449,34.956539348,21.067,1.02,33.49,0.38,307722095,2172,111,11111100,17,25,100,0.0,0,45,45,100800,22.8,0
11798,7.311,2.526,-8.199,13.00738,-6.28054,23.37213,0.18249100000000001,-0.040507,0.9783629999999999,6410.0,10720.0,4780.0,46.4,10.11,00000000 00000000,32.82658704,34.956748345,24.497,-0.52,3.55,0.09,0.12,1.64,-5.33,-0.13,0.49,-2.42,32.825914966999996,34.95653954,21.085,1.11,18.73,0.35,307722120,2172,111,11111100,16,25,100,0.0,0,20,20,100800,22.8,3
11799,6.77,2.239,-8.406,15.52904,-12.12829,15.4172,0.19256900000000002,0.001073,0.920285,6450.0,10720.0,4670.0,46.4,10.08,00000000 00000000,32.82658784,34.956748206,24.499,-0.51,3.55,0.08,0.11,1.64,-5.35,-0.12,0.49,-2.4,32.825914966999996,34.95653954,21.085,1.11,18.73,0.35,307722145,2172,111,11111100,16,25,100,0.0,0,45,45,100798,22.89,0
11800,6.445,1.8769999999999998,-8.771,16.45944,-17.7725,5.72879,0.168415,0.020216,0.859562,6500.0,10740.0,4590.0,46.4,10.09,00000000 00000000,32.826587199,34.956747739,24.501,-0.49,3.55,0.05,0.11,1.63,-5.37,-0.1,0.5,-2.38,32.82591532,34.9565398,21.106,0.92,31.88,0.42,307722170,2172,111,11111100,16,25,100,0.0,0,20,20,100800,22.8,3
11801,6.337999999999999,1.483,-9.253,15.7459,-20.164920000000002,-1.29424,0.075266,-0.009172,0.807864,6550.0,10710.0,4520.0,46.4,10.08,00000000 00000000,32.826587999000004,34.956747607,24.502,-0.49,3.56,0.02,0.11,1.62,-5.39,-0.06,0.51,-2.37,32.82591532,34.9565398,21.106,0.92,31.88,0.42,307722195,2172,111,11111100,16,25,100,0.0,0,45,45,100800,22.8,0
11802,6.359,1.102,-9.724,13.472710000000001,-15.973120000000002,-5.63729,-0.014941,0.003193,0.7660819999999999,6620.0,10670.0,4430.0,46.4,10.1,00000000 00000000,32.826587421,34.95674714,24.509,-0.52,3.55,-0.03,0.1,1.61,-5.41,-0.01,0.51,-2.39,32.82591573,34.956540059,21.114,1.02,28.07,0.16,307722220,2172,111,11111100,16,25,100,0.0,0,20,20,100800,22.8,3
11803,6.507999999999999,0.775,10.008,9.84661,-6.173430000000001,-10.27186,-0.054973,-0.018337,0.782877,6700.0,10620.0,4300.0,46.4,10.07,00000000 00000000,32.826588222,34.956746996,24.507,-0.56,3.56,-0.09,0.1,1.61,-5.43,0.04,0.51,-2.42,32.82591573,34.956540059,21.114,1.02,28.07,0.16,307722245,2172,111,11111100,16,25,100,0.0,0,45,45,100800,22.8,0
11804,6.757999999999999,0.547,10.02,4.01155,5.82639,-12.50705,-0.055262,-0.029077,0.846888,6730.0,10580.0,4180.0,46.4,10.09,00000000 00000000,32.82658782,34.956746531,24.503,-0.6,3.55,-0.14,0.1,1.6,-5.45,0.09,0.51,-2.46,32.825916294,34.956540385,21.056,1.39,26.06,-1.17,307722270,2172,111,11111100,15,25,100,0.0,0,20,20,100800,22.8,3
11805,7.086,0.47200000000000003,-9.722999999999999,-2.78874,17.82028,-14.11409,-0.013861000000000002,-0.036461,0.917243,6740.0,10510.0,4070.0,46.4,10.09,00000000 00000000,32.826588621,34.956746362,24.499,-0.65,3.55,-0.17,0.11,1.59,-5.47,0.13,0.5,-2.5,32.825916294,34.956540385,21.056,1.39,26.06,-1.17,307722295,2172,111,11111100,15,25,100,0.0,0,45,45,100800,22.8,0
11806,7.479,0.5579999999999999,-9.144,-9.03759,28.86453,-16.34918,0.053565999999999996,-0.03578,0.985302,6710.0,10460.0,4000.0,46.4,10.12,00000000 00000000,32.826588056999995,34.956745905,24.489,-0.68,3.54,-0.19,0.11,1.59,-5.49,0.15,0.49,-2.53,32.825916716,34.956540822,21.039,1.24,41.11,-0.32,307722320,2172,111,11111100,15,25,100,0.0,0,20,20,100800,22.8,3
11807,7.928999999999999,0.753,-8.402999999999999,-11.408619999999999,28.765590000000003,-16.15832,0.14214100000000002,-0.031289,0.9962049999999999,6660.0,10410.0,3970.0,46.4,10.05,00000000 00000000,32.826588854,34.956745719000004,24.484,-0.69,3.54,-0.19,0.11,1.58,-5.51,0.15,0.48,-2.53,32.825916716,34.956540822,21.039,1.24,41.11,-0.32,307722345,2172,111,11111100,15,25,100,0.0,0,45,45,100798,22.89,0
11808,8.411,0.966,-7.684,-10.46706,29.77249,-20.97002,0.14113599999999998,-0.004232,1.057553,6580.0,10370.0,4000.0,46.4,10.09,00000000 00000000,32.826588242,34.956745242,24.479,-0.69,3.53,-0.18,0.12,1.57,-5.53,0.14,0.48,-2.52,32.825917094,34.95654117,21.059,1.06,37.93,0.39,307722370,2172,111,11111100,15,25,100,0.0,0,20,20,100798,22.89,3
11809,9.066,1.089,-6.9270000000000005,-5.78251,31.0863,-29.3791,0.16861099999999998,0.004261,1.124268,6500.0,10340.0,4040.0,46.4,10.07,00000000 00000000,32.826589036,34.956745057,24.475,-0.68,3.53,-0.16,0.12,1.57,-5.55,0.12,0.49,-2.51,32.825917094,34.95654117,21.059,1.06,37.93,0.39,307722395,2172,111,11111100,15,25,100,0.0,0,45,45,100800,22.8,0
11810,9.855,1.05,-6.223,1.35029,25.17266,-32.80445,0.21301399999999998,-0.012228,1.1657620000000002,6420.0,10310.0,4070.0,46.4,10.1,00000000 00000000,32.826588464000004,34.956744589,24.471,-0.67,3.52,-0.12,0.12,1.56,-5.57,0.08,0.49,-2.49,32.825917505999996,34.956541557,21.094,1.16,38.31,0.69,307722420,2172,111,11111100,15,25,100,0.0,0,20,20,100800,22.8,3
11811,10.654000000000002,0.856,-5.709,7.085369999999999,17.7266,-32.174440000000004,0.180288,-0.029901,1.1509559999999999,6380.0,10230.0,4070.0,46.4,10.08,00000000 00000000,32.826589256,34.956744412,24.469,-0.64,3.52,-0.07,0.12,1.55,-5.59,0.03,0.49,-2.46,32.825917505999996,34.956541557,21.094,1.16,38.31,0.69,307722445,2172,111,11111100,15,25,100,0.0,0,45,45,100800,22.8,0
11812,11.445,0.5529999999999999,-5.346,10.04491,11.42562,-34.203759999999996,0.105842,0.013625,1.07618,6360.0,10150.0,4090.0,46.4,10.11,00000000 00000000,32.826588731,34.95674396,24.466,-0.64,3.51,-0.04,0.12,1.55,-5.61,0.0,0.49,-2.44,32.825917958000005,34.956541984,21.039,1.28,38.59,-1.09,307722470,2172,111,11111100,15,25,100,0.0,0,20,20,100800,22.8,3
11813,12.290999999999999,0.22399999999999998,-5.257000000000001,9.525730000000001,-5.80441,-33.52895,0.152624,-0.02625,1.056841,6350.0,10070.0,4090.0,46.4,10.08,00000000 00000000,32.826589521,34.956743789,24.465,-0.63,3.51,-0.03,0.12,1.54,-5.63,-0.01,0.49,-2.43,32.825917958000005,34.956541984,21.039,1.28,38.59,-1.09,307722495,2172,111,11111100,15,25,100,0.0,0,45,45,100800,22.8,0
11814,12.99,0.06,-5.672999999999999,7.249960000000001,-25.72247,-24.65034,0.241213,-0.040136,1.074108,6370.0,10010.0,4120.0,46.4,10.1,00000000 00000000,32.826589163,34.956743306999996,24.459,-0.6,3.48,-0.01,0.12,1.53,-5.65,-0.03,0.48,-2.4,32.825918549,34.956542242,21.031,1.39,20.21,-0.15,307722520,2172,111,11111100,15,25,100,0.0,0,20,20,100800,22.8,3
11815,13.49,0.255,-6.4270000000000005,4.40024,-32.99649,-16.674979999999998,0.207446,-0.043889,1.065338,6460.0,9960.0,4100.0,46.4,10.1,00000000 00000000,32.826589946,34.956743148,24.459,-0.58,3.47,0.01,0.12,1.53,-5.67,-0.05,0.46,-2.36,32.825918549,34.956542242,21.031,1.39,20.21,-0.15,307722545,2172,111,11111100,15,25,100,0.0,0,45,45,100802,22.64,0
11816,13.81,0.397,-7.252999999999999,3.58757,-32.2038,-10.832989999999999,0.131511,0.031819,1.0043739999999999,6560.0,9960.0,4100.0,46.4,10.11,00000000 00000000,32.82658939,34.956742696,24.468,-0.57,3.45,0.02,0.11,1.52,-5.69,-0.06,0.46,-2.34,32.825918961999996,34.956542602,21.044,1.13,36.4,0.24,307722570,2172,111,11111100,15,25,100,0.0,0,20,20,100802,22.64,3
11817,14.040999999999999,0.501,-7.974,1.97111,-24.61778,-9.5293,0.077427,0.050828,0.961917,6680.0,10000.0,4070.0,46.4,10.08,00000000 00000000,32.826590167,34.956742542,24.468,-0.57,3.46,0.02,0.11,1.51,-5.71,-0.06,0.46,-2.34,32.825918961999996,34.956542602,21.044,1.13,36.4,0.24,307722595,2172,111,11111100,15,25,100,0.0,0,45,45,100800,22.8,0
