,Heading,Pitch,Roll,Gyro_X,Gyro_Y,Gyro_Z,Acc_X,Acc_Y,Acc_Z,Magn_X,Magn_Y,Magn_Z,Temperature,Vdd,USW (L/H),Latitude,Longitude,Altitude,V_East,V_North,V_Up,Heave,Surge,Sway,V_Heave,V_Surge,V_Sway,Lat_GNSS,Long_GNSS,Height_GNSS,Hor_spd,Trk_gnd,Ver_spd,ms_gps,GPS_Week,GNSS_info_1,GNSS_info_2,#solnSVs,V_latency,anglesPosType,Heading_GNSS,Latency_ms_head,Latency_ms_pos,Latency_ms_vel,P_Bar,H_Bar,New_GPS
4118,48.224,0.621,-2.073,-0.92814,0.93217,-1.24584,0.03105,-0.007605,0.996324,4050.0,4730.0,2650.0,47.4,10.08,00000000 00000000,32.825664784000004,34.956113839000004,23.023,0.04,0.02,0.0,0.27,5.1,2.81,-0.02,0.52,-0.09,32.825664719,34.95611368,23.022,0.01,347.34,-0.01,307453370,2172,1000,11111100,33,25,100,0.0,0,20,20,100824,20.8,3
4119,48.25899999999999,0.643,-2.052,-0.80813,0.84155,-1.5093299999999998,0.031163999999999997,-0.008656,0.99482,4050.0,4730.0,2640.0,47.4,10.08,00000000 00000000,32.825664791,34.95611385,23.023,0.04,0.02,0.0,0.27,5.11,2.8,-0.02,0.52,-0.09,32.825664719,34.95611368,23.022,0.01,347.34,-0.01,307453395,2172,1000,11111100,33,25,100,0.0,0,45,45,100824,20.8,0
4120,48.291000000000004,0.657,-2.033,-0.61675,0.55482,-1.01995,0.032241000000000006,-0.00689,0.9915709999999999,4060.0,4720.0,2630.0,47.4,10.1,00000000 00000000,32.825664788000005,34.956113847,23.023,0.04,0.02,0.0,0.27,5.13,2.8,-0.02,0.52,-0.09,32.825664719,34.956113695,23.023,0.02,90.83,0.03,307453420,2172,1000,11111100,33,25,100,0.0,0,20,20,100824,20.8,3
4121,48.306999999999995,0.667,-2.025,-0.32400999999999996,0.11080999999999999,-0.2529,0.034094,-0.009461,0.994885,4060.0,4710.0,2610.0,47.4,10.09,00000000 00000000,32.825664794,34.956113859,23.023,0.04,0.02,-0.01,0.27,5.14,2.8,-0.01,0.52,-0.09,32.825664719,34.956113695,23.023,0.02,90.83,0.03,307453445,2172,1000,11111100,33,25,100,0.0,0,45,45,100824,20.8,0
4122,48.31,0.664,-2.023,0.22541,0.39521,-0.2775,0.032708,-0.007107,1.002378,4060.0,4710.0,2620.0,47.4,10.11,00000000 00000000,32.825664791,34.95611385,23.022,0.04,0.02,-0.01,0.27,5.16,2.8,-0.01,0.52,-0.09,32.825664716999995,34.956113688,23.021,0.02,254.72,-0.01,307453470,2172,1000,11111100,33,25,100,0.0,0,20,20,100822,20.88,3
4123,48.321999999999996,0.652,-2.009,0.62441,0.7678699999999999,-0.76476,0.032679,-0.006057,1.003577,4050.0,4710.0,2620.0,47.4,10.07,00000000 00000000,32.825664796999995,34.956113861999995,23.022,0.04,0.02,0.0,0.26,5.17,2.8,-0.02,0.52,-0.09,32.825664716999995,34.956113688,23.021,0.02,254.72,-0.01,307453495,2172,1000,11111100,33,25,100,0.0,0,45,45,100822,20.88,0
4124,48.347,0.63,-1.9869999999999999,0.66852,1.10501,-1.3345799999999999,0.032872000000000005,-0.009593,1.006428,4040.0,4720.0,2640.0,47.4,10.12,00000000 00000000,32.825664795,34.956113855,23.022,0.04,0.02,0.0,0.26,5.19,2.79,-0.02,0.52,-0.09,32.825664721,34.956113687,23.021,0.0,351.11,-0.01,307453520,2172,1000,11111100,33,25,100,0.0,0,20,20,100822,20.88,3
4125,48.38399999999999,0.613,-1.9569999999999999,0.5444899999999999,1.1450200000000001,-1.5949200000000001,0.034285,-0.007894,1.0064819999999999,4050.0,4700.0,2610.0,47.4,10.08,00000000 00000000,32.825664801,34.956113868,23.022,0.04,0.02,0.0,0.26,5.2,2.79,-0.02,0.52,-0.09,32.825664721,34.956113687,23.021,0.0,351.11,-0.01,307453545,2172,1000,11111100,33,25,100,0.0,0,45,45,100822,20.88,0
4126,48.422,0.593,-1.9409999999999998,0.60723,0.10474000000000001,-1.70763,0.032044,-0.0017670000000000001,1.003176,4030.0,4700.0,2620.0,47.4,10.12,00000000 00000000,32.825664796999995,34.956113861,23.022,0.04,0.02,0.0,0.26,5.22,2.79,-0.02,0.52,-0.09,32.82566472,34.956113689,23.019,0.0,246.95,0.0,307453570,2172,1000,11111100,33,25,100,0.0,0,20,20,100822,20.96,3
4127,48.473,0.57,-1.9509999999999998,1.12056,-0.82157,-2.39322,0.018986000000000003,0.003909,0.993765,4030.0,4700.0,2620.0,47.4,10.08,00000000 00000000,32.825664803,34.956113875,23.021,0.05,0.02,0.0,0.26,5.23,2.79,-0.02,0.52,-0.09,32.82566472,34.956113689,23.019,0.0,246.95,0.0,307453595,2172,1000,11111100,33,25,100,0.0,0,45,45,100820,21.05,0
4128,48.531000000000006,0.537,-1.9869999999999999,1.01377,-2.23906,-1.96459,0.008029999999999999,-0.003954,0.981067,4020.0,4710.0,2620.0,47.4,10.13,00000000 00000000,32.825664803,34.956113873,23.021,0.05,0.03,0.0,0.26,5.25,2.79,-0.02,0.52,-0.1,32.825664729,34.956113703,23.019,0.03,53.65,0.0,307453620,2172,1000,11111100,33,25,100,0.0,0,20,20,100820,21.05,3
4129,48.565,0.512,-2.073,1.0759100000000001,-4.55011,-0.8417,0.005612,-0.004438,1.00203,4030.0,4700.0,2590.0,47.3,10.08,00000000 00000000,32.825664810999996,34.956113886,23.021,0.04,0.03,-0.01,0.26,5.27,2.79,-0.02,0.52,-0.1,32.825664729,34.956113703,23.019,0.03,53.65,0.0,307453645,2172,1000,11111100,33,25,100,0.0,0,45,45,100820,21.05,0
4130,48.58,0.457,-2.204,3.18408,-5.52102,-1.04938,-0.002487,-0.002038,1.0271430000000001,4030.0,4710.0,2590.0,47.3,10.1,00000000 00000000,32.825664809,34.95611388,23.021,0.04,0.04,0.0,0.26,5.28,2.78,-0.02,0.52,-0.11,32.825664729,34.956113712,23.017,0.0,116.36,-0.01,307453670,2172,1000,11111100,33,25,100,0.0,0,20,20,100820,21.05,3
4131,48.607,0.34600000000000003,-2.339,5.5888599999999995,-5.03923,-1.4724,-0.005009,-0.005609,1.039992,4040.0,4710.0,2570.0,47.3,10.08,00000000 00000000,32.825664819,34.956113891,23.021,0.03,0.05,0.0,0.26,5.3,2.78,-0.03,0.52,-0.12,32.825664729,34.956113712,23.017,0.0,116.36,-0.01,307453695,2172,1000,11111100,33,25,100,0.0,0,45,45,100820,21.13,0
4132,48.623999999999995,0.183,-2.455,6.69272,-4.0649,-0.7875,0.002168,-0.01524,1.043372,4030.0,4710.0,2550.0,47.3,10.12,00000000 00000000,32.825664818,34.956113885,23.021,0.03,0.05,0.01,0.26,5.31,2.78,-0.04,0.51,-0.13,32.825664728,34.956113719,23.017,0.01,93.35,0.0,307453720,2172,1000,11111100,33,25,100,0.0,0,20,20,100820,21.13,3
4133,48.63,0.021,-2.505,6.11621,0.9043399999999999,-0.0998,-0.01381,-0.028433999999999997,1.037867,4040.0,4700.0,2500.0,47.3,10.09,00000000 00000000,32.825664831,34.956113892,23.021,0.02,0.05,0.02,0.26,5.32,2.78,-0.05,0.51,-0.15,32.825664728,34.956113719,23.017,0.01,93.35,0.0,307453745,2172,1000,11111100,33,25,100,0.0,0,45,45,100820,21.05,0
4134,48.589,0.114,-2.41,4.46141,5.7959,3.0012,-0.026493,-0.0182,0.9994200000000001,4020.0,4730.0,2510.0,47.3,10.09,00000000 00000000,32.825664836,34.956113886,23.021,0.0,0.06,0.02,0.26,5.34,2.78,-0.05,0.5,-0.16,32.825664748,34.956113736999995,23.015,0.04,27.65,-0.02,307453770,2172,1000,11111100,33,25,100,0.0,0,20,20,100820,21.05,3
4135,48.46,0.193,-2.249,2.3938900000000003,6.48741,7.05595,-0.016619,-0.01355,0.984267,4010.0,4760.0,2500.0,47.3,10.08,00000000 00000000,32.825664851999996,34.956113886,23.022,0.0,0.07,0.02,0.26,5.35,2.77,-0.05,0.49,-0.18,32.825664748,34.956113736999995,23.015,0.04,27.65,-0.02,307453795,2172,1000,11111100,33,25,100,0.0,0,45,45,100820,21.05,0
4136,48.246,0.24,-2.092,2.1631,6.650860000000001,9.02546,-0.014899,0.001191,0.996556,4030.0,4770.0,2470.0,47.3,10.1,00000000 00000000,32.82566486,34.956113877,23.022,-0.01,0.07,0.02,0.26,5.37,2.77,-0.05,0.49,-0.19,32.825664771999996,34.956113751,23.018,0.05,26.06,0.06,307453820,2172,1000,11111100,33,25,100,0.0,0,20,20,100820,21.05,3
4137,48.023,0.293,-1.9140000000000001,2.61468,7.45825,8.42716,-0.019806,0.008302,0.99036,4050.0,4790.0,2430.0,47.3,10.09,00000000 00000000,32.825664879,34.956113871999996,23.023,-0.02,0.08,0.02,0.26,5.38,2.77,-0.05,0.49,-0.2,32.825664771999996,34.956113751,23.018,0.05,26.06,0.06,307453845,2172,1000,11111100,33,25,100,0.0,0,45,45,100822,20.88,0
4138,47.81,0.348,-1.736,1.84788,6.31693,8.62461,-0.019486,-0.003599,0.9796600000000001,4060.0,4830.0,2430.0,47.3,10.1,00000000 00000000,32.825664886,34.956113869,23.023,-0.02,0.09,0.01,0.26,5.4,2.77,-0.04,0.49,-0.21,32.825664787,34.956113788,23.02,0.06,62.07,0.06,307453870,2172,1000,11111100,33,25,100,0.0,0,20,20,100822,20.88,3
4139,47.57,0.36700000000000005,-1.605,0.23523000000000002,4.40019,10.56351,-0.032442,-0.013674,0.9694229999999999,4090.0,4860.0,2410.0,47.3,10.08,00000000 00000000,32.825664908,34.95611386,23.024,-0.03,0.1,0.01,0.26,5.41,2.76,-0.04,0.48,-0.22,32.825664787,34.956113788,23.02,0.06,62.07,0.06,307453895,2172,1000,11111100,33,25,100,0.0,0,45,45,100822,20.88,0
4140,47.262,0.354,-1.535,-0.83655,0.23801,12.89592,-0.057284,-0.022618,0.952408,4120.0,4910.0,2400.0,47.3,10.12,00000000 00000000,32.825664911,34.956113853000005,23.024,-0.05,0.1,0.0,0.26,5.43,2.76,-0.03,0.47,-0.24,32.825664788000005,34.956113805,23.02,0.03,85.24,0.0,307453920,2172,1000,11111100,33,25,100,0.0,0,20,20,100822,20.88,3
4141,46.902,0.308,-1.61,-1.9998599999999997,-6.0306,16.16115,-0.074021,-0.036743,0.956535,4180.0,4940.0,2360.0,47.3,10.1,00000000 00000000,32.825664937,34.956113836,23.024,-0.07,0.11,-0.01,0.26,5.44,2.76,-0.02,0.47,-0.26,32.825664788000005,34.956113805,23.02,0.03,85.24,0.0,307453945,2172,1000,11111100,33,25,100,0.0,0,45,45,100822,20.96,0
4142,46.438,0.24,-1.82,-2.14419,-10.40822,20.33135,-0.070213,-0.037577,0.988376,4250.0,5000.0,2340.0,47.3,10.11,00000000 00000000,32.825664945999996,34.956113826999996,23.023,-0.09,0.12,-0.01,0.26,5.46,2.76,-0.01,0.45,-0.29,32.825664809,34.956113829,23.016,0.05,36.87,-0.05,307453970,2172,1000,11111100,33,25,100,0.0,0,20,20,100824,20.8,3
4143,45.891999999999996,0.17600000000000002,-2.1069999999999998,-1.31261,-12.0333,23.10002,-0.045696,-0.029925,1.020867,4320.0,5040.0,2340.0,47.3,10.07,00000000 00000000,32.825664975,34.956113799,23.022,-0.11,0.13,-0.01,0.26,5.47,2.76,-0.01,0.44,-0.31,32.825664809,34.956113829,23.016,0.05,36.87,-0.05,307453995,2172,1000,11111100,33,25,100,0.0,0,45,45,100824,20.8,8
4144,45.308,0.136,-2.41,0.20801,-12.085989999999999,22.8034,-0.022269999999999998,-0.018199,1.035161,4380.0,5090.0,2360.0,47.3,10.12,00000000 00000000,32.825664996,34.956113776,23.022,-0.13,0.14,-0.01,0.25,5.49,2.75,-0.01,0.43,-0.33,32.825664845,34.956113916999996,23.017,0.05,36.87,-0.05,307454020,2172,1000,11111100,33,25,100,0.0,0,20,70,100824,20.8,1
4145,44.766000000000005,0.14800000000000002,-2.702,2.15993,-11.01638,17.95242,-0.025171000000000002,-0.017131999999999998,1.0148270000000001,4470.0,5110.0,2330.0,47.3,10.1,00000000 00000000,32.825665021,34.95611374,23.022,-0.14,0.14,0.0,0.25,5.5,2.75,-0.02,0.43,-0.34,32.825664845,34.956113916999996,23.017,0.18,64.25,0.05,307454045,2172,1000,11111100,33,25,100,0.0,0,45,45,100824,20.8,2
4146,44.381,0.183,-2.9560000000000004,1.7582200000000001,-9.86646,12.90565,-0.048289,-0.033667,0.9673870000000001,4550.0,5130.0,2300.0,47.3,10.11,00000000 00000000,32.825665045,34.956113721,23.021,-0.15,0.15,0.0,0.25,5.51,2.75,-0.02,0.42,-0.36,32.825664907,34.956114017,23.018,0.22,52.06,0.0,307454070,2172,1000,11111100,33,25,100,0.0,0,20,20,100824,20.8,3
4147,44.07,0.17800000000000002,-3.22,-1.14444,-11.64904,12.65349,-0.07585499999999999,-0.049924,0.9192959999999999,4620.0,5140.0,2280.0,47.3,10.08,00000000 00000000,32.825665081,34.956113675,23.021,-0.18,0.16,-0.02,0.25,5.53,2.75,-0.01,0.41,-0.39,32.825664907,34.956114017,23.018,0.22,52.06,0.0,307454095,2172,1000,11111100,33,25,100,0.0,0,45,45,100824,20.8,0
4148,43.726000000000006,0.08199999999999999,-3.536,-4.58106,-13.021,14.192039999999999,-0.108418,-0.045339,0.917746,4700.0,5170.0,2260.0,47.3,10.12,00000000 00000000,32.825665108,34.956113655,23.02,-0.21,0.18,-0.04,0.25,5.54,2.74,0.01,0.39,-0.42,32.825664974,34.956114112,23.017,0.23,50.63,-0.01,307454120,2172,1000,11111100,33,25,100,0.0,0,20,20,100824,20.8,3
4149,43.383,0.077,-3.824,-6.01525,-9.51253,13.97841,-0.130607,-0.038443,0.921285,4770.0,5200.0,2240.0,47.3,10.09,00000000 00000000,32.825665151,34.956113593000005,23.019,-0.25,0.2,-0.06,0.25,5.56,2.74,0.03,0.38,-0.46,32.825664974,34.956114112,23.017,0.23,50.63,-0.01,307454145,2172,1000,11111100,33,25,100,0.0,0,45,45,100824,20.8,0
4150,43.023999999999994,0.25,-3.997,-5.54732,-5.21879,13.458929999999999,-0.125166,-0.039017,0.925298,4820.0,5240.0,2270.0,47.3,10.07,00000000 00000000,32.825665184,34.956113573,23.017,-0.28,0.22,-0.08,0.25,5.57,2.74,0.05,0.37,-0.51,32.825665047,34.956114281,23.024,0.34,62.19,0.15,307454170,2172,1000,11111100,33,25,100,0.0,0,20,20,100822,20.88,3
4151,42.718,0.392,-4.087,-3.93839,-2.12486,11.4879,-0.081523,-0.030383999999999998,0.95957,4860.0,5280.0,2310.0,47.3,10.09,00000000 00000000,32.825665236999995,34.956113490999996,23.015,-0.32,0.24,-0.1,0.25,5.58,2.74,0.07,0.36,-0.55,32.825665047,34.956114281,23.024,0.34,62.19,0.15,307454195,2172,1000,11111100,33,25,100,0.0,0,45,45,100824,20.8,0
4152,42.458999999999996,0.488,-4.101,-1.7061400000000002,-0.0272,9.58435,-0.044405,-0.028664,0.991894,4900.0,5290.0,2310.0,47.3,10.12,00000000 00000000,32.825665283,34.956113475,23.013,-0.34,0.26,-0.11,0.25,5.6,2.73,0.07,0.36,-0.58,32.825665146,34.956114449,23.022,0.38,55.15,-0.03,307454220,2172,1000,11111100,33,25,100,0.0,0,20,20,100824,20.8,3
4153,42.247,0.511,-4.069,1.15559,2.5401,7.423210000000001,-0.030862,-0.036426,1.019398,4940.0,5290.0,2300.0,47.3,10.08,00000000 00000000,32.825665344,34.95611338,23.01,-0.36,0.27,-0.11,0.25,5.61,2.73,0.07,0.35,-0.61,32.825665146,34.956114449,23.022,0.38,55.15,-0.03,307454245,2172,1000,11111100,33,25,100,0.0,0,45,45,100824,20.8,0
4154,42.153,0.46299999999999997,-3.969,4.20719,4.51689,4.69186,-0.029989,-0.030118000000000002,1.03882,4960.0,5290.0,2320.0,47.3,10.12,00000000 00000000,32.825665404,34.956113378000005,23.007,-0.37,0.28,-0.1,0.25,5.63,2.73,0.07,0.34,-0.63,32.825665285999996,34.956114658000004,23.01,0.49,50.99,-0.22,307454270,2172,1000,11111100,32,25,100,0.0,0,20,20,100824,20.8,3
4155,42.077,0.321,-3.827,7.48083,6.87799,0.24413,-0.028516000000000003,-0.012165,1.059796,4970.0,5280.0,2320.0,47.3,10.1,00000000 00000000,32.825665471,34.956113274,23.004,-0.39,0.3,-0.09,0.25,5.64,2.72,0.06,0.34,-0.65,32.825665285999996,34.956114658000004,23.01,0.49,50.99,-0.22,307454295,2172,1000,11111100,32,25,100,0.0,0,45,45,100822,20.88,0
4156,42.218,0.113,-3.61,9.36411,9.46771,-3.66545,-0.045619,-0.020484,1.048062,4970.0,5270.0,2330.0,47.3,10.1,00000000 00000000,32.825665543,34.956113285,23.001,-0.4,0.31,-0.08,0.25,5.65,2.72,0.04,0.34,-0.67,32.825665447,34.956114871,22.997,0.53,48.16,-0.26,307454320,2172,1000,11111100,32,25,100,0.0,0,20,20,100822,20.88,3
4157,42.291000000000004,0.115,-3.365,7.78061,9.8694,-2.4157900000000003,-0.062242,-0.034087,1.021966,4970.0,5240.0,2320.0,47.3,10.07,00000000 00000000,32.825665616,34.956113173,22.999,-0.43,0.33,-0.07,0.25,5.67,2.72,0.03,0.33,-0.7,32.825665447,34.956114871,22.997,0.53,48.16,-0.26,307454345,2172,1000,11111100,32,25,100,0.0,0,45,45,100822,20.88,0
4158,42.353,0.25,-3.116,2.9614700000000003,10.461219999999999,2.41221,-0.078915,-0.024593,1.018397,4950.0,5230.0,2340.0,47.3,10.11,00000000 00000000,32.825665699,34.956113062,22.998,-0.45,0.34,-0.07,0.25,5.68,2.72,0.03,0.32,-0.73,32.825665631999996,34.956115115,22.997,0.6,47.38,0.03,307454370,2172,1000,11111100,32,25,100,0.0,0,20,20,100822,20.88,3
4159,42.251000000000005,0.265,-2.7969999999999997,-1.0753,16.113670000000003,5.06846,-0.106368,-0.002133,1.015118,4960.0,5220.0,2340.0,47.3,10.07,00000000 00000000,32.825665779,34.956112935,22.996,-0.48,0.36,-0.06,0.25,5.69,2.71,0.03,0.31,-0.76,32.825665631999996,34.956115115,22.997,0.6,47.38,0.03,307454395,2172,1000,11111100,32,25,100,0.0,0,45,45,100822,20.88,0
4160,42.119,0.201,-2.276,-3.47579,24.90367,5.038,-0.125351,0.016393,0.9938879999999999,4940.0,5230.0,2370.0,47.3,10.12,00000000 00000000,32.82566586,34.956112811,22.995,-0.51,0.39,-0.06,0.25,5.71,2.71,0.03,0.31,-0.8,32.825665799,34.95611538,22.999,0.61,53.33,0.03,307454420,2172,1000,11111100,32,25,100,0.0,0,20,20,100822,20.88,3
4161,41.961999999999996,0.094,-1.67,-4.16907,20.24994,8.76057,-0.08128200000000001,0.029768,1.030202,4920.0,5220.0,2390.0,47.3,10.1,00000000 00000000,32.825665952,34.956112671,22.993,-0.53,0.42,-0.06,0.25,5.72,2.71,0.03,0.32,-0.83,32.825665799,34.95611538,22.999,0.61,53.33,0.03,307454445,2172,1000,11111100,32,25,100,0.0,0,45,45,100822,20.88,0
4162,41.684,0.011000000000000001,-1.33,-3.75339,7.4137,9.69316,-0.004158,0.038932999999999995,1.112941,4900.0,5230.0,2430.0,47.3,10.13,00000000 00000000,32.825666041,34.956112539,22.992,-0.53,0.43,-0.04,0.25,5.73,2.7,0.01,0.32,-0.85,32.825665974,34.956115674,22.995,0.66,54.36,-0.05,307454470,2172,1000,11111100,32,25,100,0.0,0,20,20,100820,21.05,3
4163,41.512,0.11,-1.212,-3.96179,3.6213900000000003,3.86027,0.067876,0.029312,1.129593,4890.0,5220.0,2460.0,47.3,10.09,00000000 00000000,32.82566614,34.956112395,22.991,-0.52,0.44,-0.01,0.25,5.75,2.7,-0.01,0.33,-0.85,32.825665974,34.956115674,22.995,0.66,54.36,-0.05,307454495,2172,1000,11111100,32,25,100,0.0,0,45,45,100820,21.05,0
4164,41.501999999999995,0.214,-1.1,-4.08413,5.11802,-1.08838,0.08519700000000001,0.018962,1.049008,4850.0,5220.0,2520.0,47.3,10.12,00000000 00000000,32.825666235,34.956112272,22.991,-0.51,0.43,0.0,0.24,5.76,2.7,-0.04,0.34,-0.83,32.825666169,34.956116024,22.999,0.78,56.65,0.07,307454520,2172,1000,11111100,31,25,100,0.0,0,20,20,100820,21.05,3
4165,41.518,0.31,-1.0,-3.68632,2.05998,0.92863,0.033031,0.033221,0.961202,4840.0,5190.0,2520.0,47.3,10.08,00000000 00000000,32.825666333,34.956112138,22.992,-0.49,0.43,0.0,0.24,5.77,2.69,-0.04,0.34,-0.81,32.825666169,34.956116024,22.999,0.78,56.65,0.07,307454545,2172,1000,11111100,31,25,100,0.0,0,45,45,100820,21.05,0
4166,41.521,0.415,-1.0,-4.73071,-1.83175,3.40729,-0.026697000000000002,0.045061000000000004,0.9418350000000001,4800.0,5210.0,2560.0,47.3,10.1,00000000 00000000,32.825666436999995,34.956112026,22.991,-0.48,0.44,0.0,0.24,5.78,2.69,-0.03,0.35,-0.81,32.825666388,34.956116255,22.982,0.64,40.92,-0.3,307454570,2172,1000,11111100,31,25,100,0.0,0,20,20,100820,21.05,3
4167,41.418,0.556,-1.08,-6.47666,-4.29517,4.95901,-0.054848,0.054048,0.9363100000000001,4790.0,5220.0,2590.0,47.3,10.07,00000000 00000000,32.825666539000004,34.956111895,22.991,-0.48,0.46,-0.02,0.24,5.8,2.69,-0.01,0.36,-0.83,32.825666388,34.956116255,22.982,0.64,40.92,-0.3,307454595,2172,1000,11111100,31,25,100,0.0,0,45,45,100820,21.05,0
4168,41.202,0.716,-1.197,-5.3656,-5.2721,3.77106,-0.008317,0.09444,0.9865959999999999,4800.0,5230.0,2600.0,47.4,10.11,00000000 00000000,32.825666623000004,34.956111785,22.991,-0.48,0.48,-0.03,0.24,5.81,2.68,0.0,0.38,-0.84,32.825666535,34.95611668,23.013,0.86,67.74,0.61,307454620,2172,1000,11111100,30,25,100,0.0,0,20,20,100822,20.96,3
4169,41.176,0.7879999999999999,-1.34,-0.08002000000000001,-6.32123,-1.9461700000000002,0.08115900000000001,0.075999,1.055756,4810.0,5220.0,2580.0,47.4,10.08,00000000 00000000,32.825666734,34.956111658000005,22.991,-0.46,0.5,-0.02,0.24,5.82,2.68,0.0,0.41,-0.83,32.825666535,34.95611668,23.013,0.86,67.74,0.61,307454645,2172,1000,11111100,30,25,100,0.0,0,45,45,100820,21.13,0
4170,41.242,0.726,-1.525,4.41021,-9.36352,-6.1405199999999995,0.13156099999999998,0.027322000000000003,1.079664,4800.0,5220.0,2620.0,47.4,10.09,00000000 00000000,32.82566683,34.956111565,22.992,-0.43,0.49,0.0,0.24,5.84,2.68,-0.02,0.42,-0.81,32.825666712,34.956117064000004,23.017,0.8,61.14,0.1,307454670,2172,1000,11111100,30,25,100,0.0,0,20,20,100818,21.21,3
4171,41.363,0.584,-1.824,6.43957,-14.360779999999998,-3.3548,0.10663800000000001,0.037913999999999996,1.032931,4790.0,5190.0,2610.0,47.4,10.07,00000000 00000000,32.82566694,34.956111451999995,22.992,-0.4,0.48,0.0,0.24,5.85,2.67,-0.04,0.43,-0.79,32.825666712,34.956117064000004,23.017,0.8,61.14,0.1,307454695,2172,1000,11111100,30,25,100,0.0,0,45,45,100818,21.3,0
4172,41.327,0.40399999999999997,-2.244,7.77988,-19.620060000000002,-0.16479000000000002,0.032291,0.05926,0.971426,4790.0,5160.0,2600.0,47.4,10.1,00000000 00000000,32.825667023,34.956111375999996,22.994,-0.38,0.48,0.01,0.24,5.86,2.67,-0.04,0.44,-0.77,32.825666861,34.956117467,23.026,0.82,66.4,0.17,307454720,2172,1000,11111100,30,25,100,0.0,0,20,20,100820,21.13,3
4173,41.33,0.203,-2.773,8.00508,-21.39844,-1.82107,-0.028805,0.059226999999999995,0.921697,4830.0,5130.0,2560.0,47.4,10.08,00000000 00000000,32.825667135,34.956111273000005,22.994,-0.38,0.5,0.0,0.24,5.87,2.67,-0.03,0.46,-0.78,32.825666861,34.956117467,23.026,0.82,66.4,0.17,307454745,2172,1000,11111100,30,25,100,0.0,0,45,45,100818,21.21,0
4174,41.445,0.015,-3.234,6.563789999999999,-14.739270000000001,-7.62455,-0.080171,0.043397000000000005,0.8816700000000001,4860.0,5120.0,2540.0,47.4,10.13,00000000 00000000,32.825667238,34.956111205999996,22.994,-0.39,0.53,-0.02,0.24,5.89,2.66,-0.01,0.47,-0.8,32.825667074,34.956117692,22.998,0.62,41.05,-0.53,307454770,2172,1000,11111100,29,25,100,0.0,0,20,20,100818,21.21,3
4175,41.666000000000004,0.133,-3.4819999999999998,4.28715,-4.9096,-10.221810000000001,-0.089784,0.041412,0.8454450000000001,4890.0,5090.0,2500.0,47.4,10.08,00000000 00000000,32.825667361,34.956111099,22.993,-0.4,0.55,-0.06,0.24,5.9,2.66,0.02,0.48,-0.83,32.825667074,34.956117692,22.998,0.62,41.05,-0.53,307454795,2172,1000,11111100,29,25,100,0.0,0,45,45,100818,21.21,0
4176,41.945,0.217,-3.498,1.30072,1.98521,-8.82651,-0.08748600000000001,0.032512,0.8220930000000001,4880.0,5080.0,2500.0,47.4,10.11,00000000 00000000,32.825667475,34.956111034,22.992,-0.42,0.58,-0.1,0.24,5.91,2.65,0.06,0.48,-0.86,32.825667195,34.956118236,23.029,1.05,75.3,0.61,307454820,2172,1000,11111100,29,25,100,0.0,0,20,20,100820,21.05,3
4177,42.111999999999995,0.228,-3.415,-0.81465,4.18478,-4.65676,-0.063411,0.041573,0.855432,4880.0,5070.0,2480.0,47.4,10.07,00000000 00000000,32.82566761,34.956110918,22.989,-0.44,0.61,-0.14,0.24,5.92,2.65,0.1,0.49,-0.89,32.825667195,34.956118236,23.029,1.05,75.3,0.61,307454845,2172,1000,11111100,29,25,100,0.0,0,45,45,100820,21.13,0
4178,42.218,0.20800000000000002,-3.299,-0.6568,4.37179,-1.82523,-0.031099,0.063858,0.9102379999999999,4860.0,5070.0,2480.0,47.3,10.11,00000000 00000000,32.825667729,34.956110849,22.985,-0.44,0.63,-0.17,0.24,5.93,2.65,0.13,0.5,-0.91,32.825667315,34.956118522,23.003,0.58,63.25,-0.48,307454870,2172,1000,11111100,29,25,100,0.0,0,20,20,100820,21.13,3
4179,42.239,0.19899999999999998,-3.1710000000000003,-0.12107000000000001,6.5138,0.4624,-0.032174,0.039545,0.9692790000000001,4860.0,5060.0,2490.0,47.3,10.09,00000000 00000000,32.825667875,34.95611073,22.981,-0.44,0.65,-0.19,0.24,5.95,2.64,0.15,0.51,-0.93,32.825667315,34.956118522,23.003,0.58,63.25,-0.48,307454895,2172,1000,11111100,29,25,100,0.0,0,45,45,100820,21.13,0
4180,42.17,0.214,-2.967,2.2709599999999996,9.05185,6.667839999999999,-0.011826999999999999,0.026536,1.025727,4840.0,5060.0,2520.0,47.3,10.12,00000000 00000000,32.825667993,34.956110666,22.976,-0.45,0.67,-0.19,0.24,5.96,2.64,0.15,0.52,-0.95,32.825667456,34.956118864000004,22.978,0.71,64.03,-0.5,307454920,2172,1000,11111100,29,25,100,0.0,0,20,20,100820,21.05,3
4181,41.897,0.304,-2.725,6.25033,10.194230000000001,14.93568,0.008679000000000001,0.032639,1.061999,4840.0,5050.0,2540.0,47.3,10.07,00000000 00000000,32.825668146,34.956110544,22.971,-0.45,0.68,-0.18,0.24,5.97,2.63,0.14,0.52,-0.96,32.825667456,34.956118864000004,22.978,0.71,64.03,-0.5,307454945,2172,1000,11111100,29,25,100,0.0,0,45,45,100820,21.13,0
4182,41.433,0.495,-2.447,10.6932,10.88453,22.34631,0.007814,0.032219,1.063588,4840.0,5050.0,2600.0,47.3,10.09,00000000 00000000,32.825668261,34.956110487,22.966,-0.45,0.69,-0.16,0.23,5.98,2.63,0.12,0.53,-0.97,32.825667631,34.956119257,22.956,0.82,61.93,-0.41,307454970,2172,1000,11111100,29,25,100,0.0,0,20,20,100820,21.13,3
4183,40.754,0.775,-2.274,13.61155,2.27617,30.52627,0.003392,0.019382,1.076901,4870.0,5070.0,2650.0,47.3,10.08,00000000 00000000,32.825668416999996,34.956110365,22.962,-0.45,0.7,-0.14,0.23,5.99,2.62,0.11,0.53,-0.97,32.825667631,34.956119257,22.956,0.82,61.93,-0.41,307454995,2172,1000,11111100,29,25,100,0.0,0,45,45,100820,21.13,8
4184,39.836999999999996,1.109,-2.366,15.57825,-8.2018,32.605909999999994,0.05845,0.007325,1.142401,4920.0,5090.0,2690.0,47.3,10.07,00000000 00000000,32.825668522,34.956110239000004,22.959,-0.46,0.69,-0.12,0.23,6.01,2.62,0.08,0.53,-0.97,32.825667761,34.956119711999996,22.96,0.9,71.3,0.08,307455020,2172,1000,11111100,29,25,100,0.0,0,20,20,100820,21.13,3
4185,39.022,1.49,-2.612,17.27773,-7.76549,30.91337,0.06538200000000001,0.018867,1.142431,5010.0,5100.0,2710.0,47.3,10.05,00000000 00000000,32.825668678,34.956110116,22.956,-0.45,0.69,-0.08,0.23,6.02,2.61,0.04,0.52,-0.97,32.825667761,34.956119711999996,22.96,0.9,71.3,0.08,307455045,2172,1000,11111100,29,25,100,0.0,0,45,45,100820,21.13,0
4186,38.125,1.8630000000000002,-2.742,14.45483,-1.79603,31.25263,0.043114,-0.0017010000000000003,1.0512920000000001,5110.0,5080.0,2700.0,47.3,10.11,00000000 00000000,32.825668775,34.956109989,22.955,-0.45,0.68,-0.05,0.23,6.03,2.61,0.01,0.51,-0.96,32.825667921,34.956120123000005,22.958,0.83,65.02,-0.03,307455070,2172,1000,11111100,30,25,100,0.0,0,20,20,100820,21.13,3
4187,37.271,2.1069999999999998,-2.824,8.18886,-3.05685,36.027570000000004,0.014386000000000001,-0.025757,1.0012729999999999,5180.0,5060.0,2690.0,47.4,10.07,00000000 00000000,32.825668926999995,34.956109865,22.954,-0.46,0.67,-0.05,0.23,6.04,2.6,0.01,0.5,-0.96,32.825667921,34.956120123000005,22.958,0.83,65.02,-0.03,307455095,2172,1000,11111100,30,25,100,0.0,0,45,45,100820,21.13,0
4188,36.179,2.198,-2.992,2.72801,-8.30242,40.25574,-0.009028,-0.023583,0.9808629999999999,5270.0,5080.0,2680.0,47.4,10.1,00000000 00000000,32.825669013,34.956109731,22.952,-0.48,0.66,-0.05,0.23,6.05,2.6,0.01,0.48,-0.97,32.825668076,34.956120525,22.955,0.82,65.42,-0.04,307455120,2172,1000,11111100,30,25,100,0.0,0,20,20,100820,21.13,3
4189,35.149,2.149,-3.315,-1.82663,-14.32189,41.798159999999996,-0.008133,-0.005292,0.98821,5390.0,5130.0,2650.0,47.4,10.08,00000000 00000000,32.825669162,34.956109598000005,22.951,-0.5,0.66,-0.06,0.23,6.06,2.59,0.02,0.47,-0.98,32.825668076,34.956120525,22.955,0.82,65.42,-0.04,307455145,2172,1000,11111100,30,25,100,0.0,0,45,45,100820,21.13,0
4190,33.963,2.021,-3.767,-2.69961,-18.37444,40.84486,0.050230000000000004,0.007719,1.055648,5510.0,5210.0,2640.0,47.4,10.1,00000000 00000000,32.825669238,34.956109452,22.95,-0.51,0.65,-0.05,0.23,6.07,2.59,0.01,0.46,-0.99,32.825668205,34.956120929,22.955,0.79,69.18,0.01,307455170,2172,1000,11111100,30,25,100,0.0,0,20,20,100820,21.13,3
4191,33.018,1.936,-4.226,1.54833,-14.325529999999999,34.397859999999994,0.082648,0.015881,1.0740319999999999,5640.0,5290.0,2630.0,47.4,10.08,00000000 00000000,32.825669384,34.956109313,22.949,-0.52,0.64,-0.03,0.23,6.09,2.58,0.0,0.45,-0.99,32.825668205,34.956120929,22.955,0.79,69.18,0.01,307455195,2172,1000,11111100,30,25,100,0.0,0,45,45,100820,21.13,0
4192,32.069,1.97,-4.524,5.12193,-8.3714,28.610120000000002,0.065131,0.022791,0.9958370000000001,5760.0,5370.0,2590.0,47.4,10.11,00000000 00000000,32.82566945,34.956109163,22.947,-0.52,0.63,-0.02,0.23,6.1,2.58,-0.01,0.45,-0.99,32.825668335,34.956121329,22.949,0.8,68.88,-0.11,307455220,2172,1000,11111100,30,25,100,0.0,0,20,20,100818,21.21,3
4193,31.39,2.072,-4.7139999999999995,7.31775,-5.03186,24.43785,0.027077999999999998,0.058947,0.918148,5870.0,5420.0,2540.0,47.4,10.08,00000000 00000000,32.825669594000004,34.956109022,22.947,-0.52,0.64,-0.03,0.23,6.11,2.57,0.0,0.44,-0.99,32.825668335,34.956121329,22.949,0.8,68.88,-0.11,307455245,2172,1000,11111100,30,25,100,0.0,0,45,45,100818,21.21,0
4194,30.558000000000003,2.252,-4.823,9.69272,-3.17116,17.60173,-0.006336,0.070224,0.8614450000000001,5940.0,5470.0,2510.0,47.4,10.13,00000000 00000000,32.825669637,34.956108858,22.945,-0.53,0.64,-0.06,0.23,6.12,2.57,0.02,0.45,-1.01,32.825668538,34.956121756,22.94,0.9,60.46,-0.15,307455270,2172,1000,11111100,31,25,100,0.0,0,20,20,100818,21.21,3
4195,30.179000000000002,2.459,-4.942,8.74112,-6.07982,11.88422,-0.013878999999999999,0.053569000000000006,0.816117,5990.0,5500.0,2460.0,47.4,10.08,00000000 00000000,32.825669784,34.956108711999995,22.943,-0.55,0.66,-0.1,0.23,6.13,2.56,0.06,0.46,-1.02,32.825668538,34.956121756,22.94,0.9,60.46,-0.15,307455295,2172,1000,11111100,31,25,100,0.0,0,45,45,100820,21.13,0
4196,29.726999999999997,2.617,-5.188,5.09582,-12.46195,9.764439999999999,-0.0013599999999999999,0.036226,0.8374459999999999,6030.0,5530.0,2420.0,47.4,10.12,00000000 00000000,32.825669855,34.956108551,22.939,-0.56,0.66,-0.15,0.23,6.14,2.56,0.1,0.46,-1.04,32.825668725,34.956122133,22.931,0.81,59.59,-0.17,307455320,2172,1000,11111100,30,25,100,0.0,0,20,20,100820,21.13,3
4197,29.54,2.6919999999999997,-5.484,2.64765,-8.455210000000001,4.243930000000001,-0.030188,-0.003914,0.8928309999999999,6080.0,5550.0,2380.0,47.3,10.08,00000000 00000000,32.825670005999996,34.956108397,22.935,-0.58,0.67,-0.18,0.23,6.15,2.55,0.13,0.45,-1.06,32.825668725,34.956122133,22.931,0.81,59.59,-0.17,307455345,2172,1000,11111100,30,25,100,0.0,0,45,45,100820,21.13,0
4198,29.331999999999997,2.758,-5.532,2.70824,5.72692,-2.93,-0.07864199999999999,0.001983,0.92848,6090.0,5580.0,2380.0,47.3,10.1,00000000 00000000,32.825670073000005,34.956108223,22.93,-0.62,0.67,-0.2,0.23,6.16,2.54,0.16,0.44,-1.09,32.825668913,34.956122672,22.941,1.08,67.5,0.22,307455370,2172,1000,11111100,29,25,100,0.0,0,20,20,100820,21.05,3
4199,29.535,2.852,-5.154,2.91895,23.04102,-14.25871,-0.061923,0.056023,0.981449,6070.0,5590.0,2360.0,47.3,10.07,00000000 00000000,32.825670226,34.956108051,22.925,-0.65,0.68,-0.22,0.23,6.17,2.54,0.17,0.43,-1.13,32.825668913,34.956122672,22.941,1.08,67.5,0.22,307455395,2172,1000,11111100,29,25,100,0.0,0,45,45,100822,20.96,0
4200,29.851999999999997,2.957,-4.387,1.50405,34.596740000000004,-25.37388,0.014003999999999999,0.079898,1.053086,5990.0,5590.0,2400.0,47.3,10.09,00000000 00000000,32.825670299,34.956107858,22.919,-0.68,0.69,-0.21,0.23,6.18,2.53,0.17,0.43,-1.15,32.825669129,34.956123121,22.91,0.96,60.25,-0.61,307455420,2172,1000,11111100,29,25,100,0.0,0,20,20,100822,20.96,3
4201,30.588,3.0380000000000003,-3.429,1.10717,37.90667,-33.19937,0.109704,0.087012,1.126631,5880.0,5530.0,2420.0,47.3,10.1,00000000 00000000,32.825670458000005,34.956107675,22.914,-0.67,0.7,-0.19,0.23,6.19,2.52,0.15,0.44,-1.15,32.825669129,34.956123121,22.91,0.96,60.25,-0.61,307455445,2172,1000,11111100,29,25,100,0.0,0,45,45,100820,21.13,0
4202,31.188000000000002,3.1180000000000003,-2.427,0.94124,37.28367,-37.4722,0.148696,0.064748,1.14154,5720.0,5470.0,2460.0,47.3,10.13,00000000 00000000,32.825670511999995,34.95610747,22.909,-0.66,0.68,-0.15,0.22,6.2,2.52,0.11,0.44,-1.13,32.825669369,34.95612368,22.898,1.16,62.86,-0.23,307455470,2172,1000,11111100,29,25,100,0.0,0,20,20,100820,21.13,3
4203,32.135,3.1630000000000003,-1.5090000000000001,0.09452999999999999,29.649,-36.72661,0.142645,0.08963600000000001,1.102372,5550.0,5390.0,2520.0,47.3,10.08,00000000 00000000,32.825670666,34.956107296,22.905,-0.63,0.67,-0.12,0.22,6.22,2.51,0.08,0.44,-1.1,32.825669369,34.95612368,22.898,1.16,62.86,-0.23,307455495,2172,1000,11111100,29,25,100,0.0,0,45,45,100822,20.96,0
4204,32.696999999999996,3.195,-0.937,0.61324,11.073739999999999,-31.83393,0.127723,0.12675799999999998,1.091281,5370.0,5330.0,2610.0,47.3,10.12,00000000 00000000,32.825670711,34.956107102,22.903,-0.6,0.66,-0.1,0.22,6.23,2.51,0.05,0.45,-1.07,32.825669579,34.956124251,22.901,1.16,66.5,0.06,307455520,2172,1000,11111100,29,25,100,0.0,0,20,20,100822,20.96,3
4205,33.465,3.241,-0.8109999999999999,2.22741,-1.3114299999999999,-30.262690000000003,0.111015,0.113034,1.103891,5270.0,5240.0,2610.0,47.3,10.09,00000000 00000000,32.82567086,34.956106944,22.9,-0.57,0.66,-0.07,0.22,6.24,2.5,0.03,0.47,-1.04,32.825669579,34.956124251,22.901,1.16,66.5,0.06,307455545,2172,1000,11111100,29,25,100,0.0,0,45,45,100822,20.96,0
4206,34.064,3.32,-0.746,2.94956,3.88005,-30.555120000000002,0.06665,0.078487,1.048877,5170.0,5180.0,2650.0,47.3,10.13,00000000 00000000,32.825670926,34.956106778,22.898,-0.55,0.65,-0.05,0.22,6.25,2.49,0.0,0.47,-1.02,32.825669775,34.956124793,22.893,1.09,66.68,-0.14,307455570,2172,1000,11111100,29,25,100,0.0,0,20,20,100820,21.05,3
4207,34.744,3.4210000000000003,-0.5539999999999999,4.54488,6.85922,-22.59919,0.053114,0.101357,0.9868549999999999,5080.0,5100.0,2650.0,47.3,10.08,00000000 00000000,32.825671072,34.956106632,22.897,-0.53,0.64,-0.04,0.22,6.26,2.48,0.0,0.48,-1.0,32.825669775,34.956124793,22.893,1.09,66.68,-0.14,307455595,2172,1000,11111100,29,25,100,0.0,0,45,45,100820,21.05,0
4208,34.977,3.5580000000000003,-0.38799999999999996,5.1681099999999995,3.0898,-13.42208,0.034187,0.12086,1.005498,4990.0,5050.0,2690.0,47.3,10.1,00000000 00000000,32.825671125999996,34.956106469,22.896,-0.52,0.64,-0.05,0.22,6.27,2.48,0.0,0.49,-0.99,32.825670014,34.956125371999995,22.902,1.2,63.92,0.17,307455620,2172,1000,11111100,29,25,100,0.0,0,20,20,100822,20.96,3
4209,35.228,3.6660000000000004,-0.386,2.5838200000000002,-4.94549,-7.067419999999999,0.054920000000000004,0.10943299999999999,1.037622,4950.0,5000.0,2680.0,47.3,10.08,00000000 00000000,32.825671272,34.956106331,22.895,-0.5,0.65,-0.04,0.22,6.28,2.47,0.0,0.5,-0.98,32.825670014,34.956125371999995,22.902,1.2,63.92,0.17,307455645,2172,1000,11111100,29,25,100,0.0,0,45,45,100820,21.05,0
4210,35.179,3.665,-0.629,-3.5392300000000003,-14.634260000000001,-2.97083,0.084423,0.057613,1.076367,4910.0,4960.0,2690.0,47.3,10.12,00000000 00000000,32.825671336999996,34.95610618,22.895,-0.49,0.63,-0.02,0.22,6.29,2.46,-0.01,0.51,-0.96,32.825670187,34.956125807,22.906,0.89,64.67,0.08,307455670,2172,1000,11111100,29,25,100,0.0,0,20,20,100822,20.96,3
4211,35.243,3.512,-1.035,-8.16155,-17.55465,-1.86401,0.094824,0.023684999999999998,1.064655,4910.0,4930.0,2700.0,47.3,10.09,00000000 00000000,32.825671478000004,34.95610605,22.894,-0.47,0.62,0.0,0.22,6.3,2.46,-0.03,0.5,-0.94,32.825670187,34.956125807,22.906,0.89,64.67,0.08,307455695,2172,1000,11111100,29,25,100,0.0,0,45,45,100820,21.05,0
4212,35.111,3.2960000000000003,-1.479,-9.22935,-18.535510000000002,-0.64455,0.071176,0.021493,1.000284,4900.0,4920.0,2740.0,47.3,10.13,00000000 00000000,32.825671533000005,34.956105905,22.894,-0.47,0.59,0.0,0.22,6.31,2.45,-0.04,0.49,-0.92,32.82567036,34.956126287,22.902,0.97,66.88,-0.07,307455720,2172,1000,11111100,29,25,100,0.0,0,20,20,100820,21.05,3
4213,35.165,3.0789999999999997,-1.932,-7.70942,-17.53109,-4.246180000000001,0.036622,0.045827,0.938825,4920.0,4930.0,2770.0,47.3,10.07,00000000 00000000,32.825671666,34.956105779,22.894,-0.47,0.58,0.0,0.22,6.31,2.44,-0.04,0.48,-0.91,32.82567036,34.956126287,22.902,0.97,66.88,-0.07,307455745,2172,1000,11111100,29,25,100,0.0,0,45,45,100820,21.13,0
4214,35.14,2.9389999999999996,-2.351,-4.57369,-17.6767,-10.39476,0.017103999999999998,0.06054,0.8906040000000001,4910.0,4940.0,2830.0,47.3,10.12,00000000 00000000,32.825671695,34.956105629,22.894,-0.47,0.58,-0.02,0.22,6.32,2.43,-0.02,0.48,-0.91,32.825670534000004,34.956126837,22.911,1.09,69.37,0.2,307455770,2172,1000,11111100,29,25,100,0.0,0,20,20,100820,21.13,3
4215,35.486999999999995,2.8819999999999997,-2.779,-1.29377,-17.796870000000002,-17.17456,-0.003804,0.08626,0.8649290000000001,4920.0,4930.0,2830.0,47.3,10.08,00000000 00000000,32.825671827,34.956105503,22.893,-0.47,0.59,-0.05,0.22,6.33,2.42,0.0,0.48,-0.91,32.825670534000004,34.956126837,22.911,1.09,69.37,0.2,307455795,2172,1000,11111100,29,25,100,0.0,0,45,45,100820,21.13,0
4216,35.838,2.9019999999999997,-3.165,-0.27608,-15.481079999999999,-22.664839999999998,-0.037848,0.055934000000000005,0.8390770000000001,4910.0,4910.0,2860.0,47.4,10.07,00000000 00000000,32.825671879,34.956105359,22.893,-0.47,0.6,-0.09,0.22,6.34,2.42,0.04,0.49,-0.93,32.825670691999996,34.956127273,22.914,0.88,66.76,0.05,307455820,2172,1000,11111100,29,25,100,0.0,0,20,20,100822,20.96,3
4217,36.404,2.9010000000000002,-3.484,-2.55865,-11.84286,-21.00371,-0.074911,0.043104,0.8354799999999999,4920.0,4870.0,2830.0,47.4,10.09,00000000 00000000,32.825672016,34.956105229,22.89,-0.49,0.61,-0.13,0.22,6.35,2.41,0.08,0.49,-0.95,32.825670691999996,34.956127273,22.914,0.88,66.76,0.05,307455845,2172,1000,11111100,29,25,100,0.0,0,45,45,100820,21.05,0
4218,36.702,2.8560000000000003,-3.6639999999999997,-3.3824099999999997,-3.68851,-14.75336,-0.09560700000000001,0.063762,0.871099,4920.0,4830.0,2800.0,47.4,10.12,00000000 00000000,32.825672074,34.956105076,22.886,-0.52,0.63,-0.17,0.22,6.36,2.4,0.12,0.49,-0.98,32.825670871999996,34.956127747,22.899,0.96,65.65,-0.27,307455870,2172,1000,11111100,29,25,100,0.0,0,20,20,100822,20.88,3
4219,37.014,2.799,-3.5980000000000003,-2.3361400000000003,7.9370899999999995,-10.04385,-0.081605,0.08629400000000001,0.9145040000000001,4920.0,4800.0,2790.0,47.4,10.08,00000000 00000000,32.825672219,34.956104933,22.881,-0.54,0.66,-0.19,0.22,6.37,2.39,0.14,0.5,-1.01,32.825670871999996,34.956127747,22.899,0.96,65.65,-0.27,307455895,2172,1000,11111100,29,25,100,0.0,0,45,45,100822,20.88,0
4220,37.018,2.7769999999999997,-3.237,-1.3982299999999999,19.39648,-5.1132800000000005,-0.053222000000000005,0.062025,1.00631,4900.0,4790.0,2790.0,47.4,10.11,00000000 00000000,32.825672273,34.95610476,22.876,-0.56,0.67,-0.2,0.22,6.38,2.38,0.16,0.5,-1.04,32.825671105,34.956128163,22.863,0.93,56.47,-0.72,307455920,2172,1000,11111100,29,25,100,0.0,0,20,20,100822,20.88,3
4221,37.04,2.734,-2.645,-2.21801,26.739990000000002,4.30699,0.033418,0.037412,1.090538,4870.0,4780.0,2800.0,47.4,10.1,00000000 00000000,32.825672426,34.956104606,22.87,-0.57,0.68,-0.19,0.22,6.39,2.38,0.15,0.5,-1.06,32.825671105,34.956128163,22.863,0.93,56.47,-0.72,307455945,2172,1000,11111100,29,25,100,0.0,0,45,45,100822,20.88,0
4222,36.665,2.674,-1.943,-2.1294299999999997,29.20519,13.35471,0.075521,0.043324,1.126344,4820.0,4790.0,2840.0,47.4,10.1,00000000 00000000,32.825672494,34.956104437,22.867,-0.57,0.67,-0.16,0.22,6.4,2.37,0.12,0.5,-1.05,32.825671241,34.956128811,22.885,1.24,75.99,0.45,307455970,2172,1000,11111100,29,25,100,0.0,0,20,20,100822,20.88,3
4223,36.282,2.622,-1.214,-1.36227,30.17666,16.95293,0.04046,0.038517,1.077936,4780.0,4810.0,2900.0,47.4,10.08,00000000 00000000,32.825672644,34.956104284,22.863,-0.56,0.66,-0.14,0.22,6.41,2.36,0.09,0.49,-1.04,32.825671241,34.956128811,22.885,1.24,75.99,0.45,307455995,2172,1000,11111100,29,25,100,0.0,0,45,45,100822,20.88,8
4224,35.609,2.591,-0.551,-0.96888,20.475839999999998,24.30511,-0.014185,-0.006854000000000001,1.038643,4740.0,4860.0,3000.0,47.4,10.08,00000000 00000000,32.825672698000005,34.9561041,22.86,-0.57,0.65,-0.12,0.22,6.42,2.35,0.07,0.48,-1.03,32.825671383,34.956129268000005,22.865,1.24,75.99,0.45,307456020,2172,1000,11111100,29,25,100,0.0,0,20,70,100822,20.88,1
4225,34.927,2.557,-0.314,-1.48863,1.94281,29.016709999999996,0.000572,0.015588999999999999,1.101546,4750.0,4910.0,3040.0,47.4,10.09,00000000 00000000,32.825672844,34.956103956,22.856,-0.58,0.64,-0.11,0.21,6.42,2.34,0.06,0.47,-1.04,32.825671383,34.956129268000005,22.865,0.91,69.75,-0.39,307456045,2172,1000,11111100,29,25,100,0.0,0,45,45,100822,20.96,2
4226,34.102,2.51,-0.371,-3.02862,-0.6674,22.53293,0.04828,0.030836000000000002,1.14533,4810.0,4960.0,3070.0,47.3,10.1,00000000 00000000,32.825672893000004,34.95610378,22.854,-0.58,0.63,-0.08,0.21,6.43,2.33,0.03,0.46,-1.03,32.825671506,34.956129706,22.856,0.85,71.49,-0.17,307456070,2172,1000,11111100,32,25,100,0.0,0,20,20,100820,21.05,3
4227,33.626,2.38,-0.312,-7.6236,5.5557,17.88907,0.082652,-0.022386,1.06677,4840.0,5000.0,3130.0,47.3,10.09,00000000 00000000,32.825673033,34.956103625,22.852,-0.57,0.61,-0.05,0.21,6.44,2.32,0.0,0.45,-1.01,32.825671506,34.956129706,22.856,0.85,71.49,-0.17,307456095,2172,1000,11111100,32,25,100,0.0,0,45,45,100822,20.96,0
4228,32.929,2.121,-0.24,-12.991489999999999,-0.14007999999999998,26.25232,0.074671,-0.060204999999999995,1.001995,4850.0,5020.0,3210.0,47.3,10.11,00000000 00000000,32.825673069000004,34.956103452,22.851,-0.56,0.57,-0.04,0.21,6.45,2.31,0.0,0.43,-0.99,32.825671649,34.956130226,22.859,1.02,72.04,0.05,307456120,2172,1000,11111100,32,25,100,0.0,0,20,20,100822,20.88,3
4229,32.155,1.7590000000000001,-0.377,-14.85834,-8.333860000000001,35.246520000000004,0.040021,-0.050222,1.00255,4880.0,5060.0,3250.0,47.3,10.08,00000000 00000000,32.825673196,34.9561033,22.85,-0.56,0.55,-0.04,0.21,6.46,2.3,0.0,0.41,-0.97,32.825671649,34.956130226,22.859,1.02,72.04,0.05,307456145,2172,1000,11111100,32,25,100,0.0,0,45,45,100822,20.96,0
4230,31.037,1.409,-0.67,-12.82879,-13.22396,38.47508,0.019441,-0.012041,1.017332,4970.0,5140.0,3280.0,47.3,10.11,00000000 00000000,32.825673207,34.956103123000005,22.85,-0.57,0.52,-0.04,0.21,6.47,2.29,0.0,0.39,-0.96,32.825671824000004,34.956130739,22.865,1.03,67.94,0.15,307456170,2172,1000,11111100,32,25,100,0.0,0,20,20,100822,20.96,3
4231,30.121,1.128,-1.042,-8.05538,-14.2267,33.5428,0.041141000000000004,0.023421,1.060547,5090.0,5230.0,3300.0,47.3,10.07,00000000 00000000,32.825673325,34.956102971,22.849,-0.56,0.52,-0.03,0.21,6.48,2.28,-0.01,0.39,-0.96,32.825671824000004,34.956130739,22.865,1.03,67.94,0.15,307456195,2172,1000,11111100,32,25,100,0.0,0,45,45,100822,20.88,0
4232,29.254,1.01,-1.3869999999999998,-0.56707,-12.567789999999999,23.8016,0.08733099999999999,0.014424000000000001,1.086409,5200.0,5320.0,3310.0,47.3,10.1,00000000 00000000,32.825673345,34.956102799,22.85,-0.55,0.5,-0.01,0.21,6.48,2.27,-0.03,0.38,-0.95,32.825672026999996,34.956131158000005,22.87,0.9,60.02,0.09,307456220,2172,1000,11111100,32,25,100,0.0,0,20,20,100822,20.88,3
4233,28.776,1.071,-1.665,6.11975,-9.17614,14.860929999999998,0.09876499999999999,-0.0039369999999999995,1.039454,5290.0,5370.0,3310.0,47.3,10.09,00000000 00000000,32.825673458000004,34.956102652,22.85,-0.54,0.49,0.0,0.21,6.49,2.26,-0.05,0.38,-0.93,32.825672026999996,34.956131158000005,22.87,0.9,60.02,0.09,307456245,2172,1000,11111100,32,25,100,0.0,0,45,45,100824,20.8,0
4234,28.316999999999997,1.278,-1.885,10.06033,-8.815,11.01362,0.066196,0.004079,0.9561040000000001,5370.0,5380.0,3260.0,47.3,10.11,00000000 00000000,32.825673475,34.95610249,22.85,-0.53,0.47,0.0,0.21,6.5,2.25,-0.05,0.37,-0.91,32.82567221,34.956131579,22.866,0.88,62.63,-0.06,307456270,2172,1000,11111100,32,25,100,0.0,0,20,20,100824,20.8,3
4235,28.063000000000002,1.5430000000000001,-2.099,11.345089999999999,-7.333310000000001,8.52184,-0.006903,0.02399,0.890648,5420.0,5380.0,3210.0,47.3,10.08,00000000 00000000,32.825673582,34.956102348,22.85,-0.53,0.47,-0.01,0.21,6.51,2.24,-0.03,0.37,-0.91,32.82567221,34.956131579,22.866,0.88,62.63,-0.06,307456295,2172,1000,11111100,32,25,100,0.0,0,45,45,100824,20.8,0
4236,27.754,1.827,-2.239,11.13136,-3.5314099999999997,5.15123,-0.058866999999999996,0.048404,0.836306,5460.0,5390.0,3180.0,47.3,10.12,00000000 00000000,32.825673601,34.95610219,22.85,-0.54,0.48,-0.05,0.21,6.52,2.23,0.0,0.37,-0.92,32.825672393000005,34.956132059,22.872,0.98,65.73,0.12,307456320,2172,1000,11111100,31,25,100,0.0,0,20,20,100822,20.88,3
4237,27.675,2.093,-2.249,10.189010000000001,3.38095,0.23628000000000002,-0.08518400000000001,0.059512999999999996,0.8107489999999999,5490.0,5390.0,3120.0,47.3,10.08,00000000 00000000,32.825673711,34.956102042,22.849,-0.56,0.49,-0.09,0.21,6.52,2.22,0.03,0.37,-0.94,32.825672393000005,34.956132059,22.872,0.98,65.73,0.12,307456345,2172,1000,11111100,31,25,100,0.0,0,45,45,100822,20.88,0
4238,27.628,2.342,-2.069,8.69673,10.20208,-6.83304,-0.061773,0.070461,0.8270069999999999,5480.0,5390.0,3110.0,47.3,10.12,00000000 00000000,32.82567374,34.956101876,22.847,-0.58,0.51,-0.14,0.21,6.53,2.21,0.08,0.38,-0.96,32.825672585,34.956132508,22.87,0.93,63.03,-0.02,307456370,2172,1000,11111100,31,25,100,0.0,0,20,20,100822,20.88,3
4239,27.893,2.53,-1.7109999999999999,5.31824,16.50473,-13.8749,-0.03513,0.061901,0.8762989999999999,5450.0,5370.0,3080.0,47.3,10.07,00000000 00000000,32.825673857,34.956101719,22.843,-0.59,0.52,-0.17,0.21,6.54,2.2,0.12,0.39,-0.98,32.825672585,34.956132508,22.87,0.93,63.03,-0.02,307456395,2172,1000,11111100,31,25,100,0.0,0,45,45,100822,20.88,0
4240,28.182,2.6430000000000002,-1.2819999999999998,2.81137,15.56277,-16.31147,0.014041,0.088676,0.9644520000000001,5390.0,5350.0,3090.0,47.3,10.09,00000000 00000000,32.825673906,34.956101554,22.84,-0.59,0.53,-0.19,0.21,6.55,2.19,0.14,0.4,-0.99,32.825672824,34.956133007,22.867,1.07,60.38,-0.04,307456420,2172,1000,11111100,31,25,100,0.0,0,20,20,100822,20.96,3
4241,28.660999999999998,2.734,-0.861,4.4117,17.11613,-23.3252,0.024508000000000002,0.10819000000000001,1.0709520000000001,5320.0,5320.0,3070.0,47.3,10.1,00000000 00000000,32.825674026,34.956101396,22.835,-0.58,0.54,-0.18,0.21,6.56,2.18,0.13,0.41,-0.98,32.825672824,34.956133007,22.867,1.07,60.38,-0.04,307456445,2172,1000,11111100,31,25,100,0.0,0,45,45,100820,21.05,0
4242,29.291999999999998,2.8939999999999997,-0.342,7.02692,20.96438,-34.18295,0.013609,0.076415,1.0770629999999999,5230.0,5280.0,3080.0,47.3,10.12,00000000 00000000,32.825674076999995,34.956101234,22.83,-0.57,0.54,-0.16,0.21,6.56,2.17,0.11,0.42,-0.98,32.825673045,34.956133445999996,22.833,0.95,59.11,-0.67,307456470,2172,1000,11111100,31,25,100,0.0,0,20,20,100820,21.05,3
4243,30.230999999999998,3.0639999999999996,0.24,5.92666,20.88959,-39.68799,-0.0048460000000000005,0.03731,1.062885,5100.0,5200.0,3080.0,47.3,10.08,00000000 00000000,32.825674199,34.95610108,22.826,-0.57,0.54,-0.15,0.21,6.57,2.16,0.1,0.42,-0.97,32.825673045,34.956133445999996,22.833,0.95,59.11,-0.67,307456495,2172,1000,11111100,31,25,100,0.0,0,45,45,100822,20.88,0
4244,31.065,3.195,0.629,5.05943,2.2076599999999997,-31.439429999999998,-0.001891,0.033554,1.0765149999999999,4950.0,5140.0,3130.0,47.3,10.11,00000000 00000000,32.825674251,34.956100923,22.822,-0.57,0.53,-0.13,0.21,6.58,2.15,0.08,0.41,-0.97,32.825673259,34.956133959,22.822,1.07,63.71,-0.22,307456520,2172,1000,11111100,31,25,100,0.0,0,20,20,100822,20.88,3
4245,31.811,3.307,0.498,4.406969999999999,-12.363660000000001,-30.70259,0.048733,0.081548,1.173938,4860.0,5050.0,3100.0,47.3,10.08,00000000 00000000,32.82567437,34.95610077,22.819,-0.56,0.52,-0.1,0.21,6.59,2.14,0.05,0.41,-0.96,32.825673259,34.956133959,22.822,1.07,63.71,-0.22,307456545,2172,1000,11111100,31,25,100,0.0,0,45,45,100822,20.96,0
4246,32.623000000000005,3.3939999999999997,0.315,2.6541799999999998,-3.3693699999999995,-39.87895,0.08491900000000001,0.027906999999999998,1.167094,4780.0,4980.0,3110.0,47.4,10.12,00000000 00000000,32.825674425,34.95610062,22.817,-0.55,0.51,-0.05,0.21,6.59,2.12,0.0,0.4,-0.94,32.825673481,34.95613447,22.812,1.07,62.7,-0.18,307456570,2172,1000,11111100,31,25,100,0.0,0,20,20,100822,20.88,3
4247,33.638000000000005,3.458,0.408,3.5958900000000003,3.51977,-38.66774,0.108179,0.013925,1.0606229999999999,4690.0,4890.0,3080.0,47.4,10.1,00000000 00000000,32.825674537,34.956100475,22.816,-0.53,0.48,-0.03,0.21,6.6,2.11,-0.02,0.39,-0.91,32.825673481,34.95613447,22.812,1.07,62.7,-0.18,307456595,2172,1000,11111100,31,25,100,0.0,0,45,45,100822,20.88,0
4248,34.438,3.553,0.484,3.65803,-3.2185799999999998,-29.70022,0.071744,0.045764,1.009586,4570.0,4830.0,3110.0,47.4,10.11,00000000 00000000,32.825674594,34.956100338,22.816,-0.51,0.45,-0.02,0.21,6.61,2.1,-0.03,0.38,-0.88,32.825673716,34.956135034,22.817,1.17,63.7,0.08,307456620,2172,1000,11111100,31,25,100,0.0,0,20,20,100822,20.88,3
4249,35.083,3.612,0.306,0.80686,-14.526129999999998,-21.96234,0.025200999999999998,0.058595,0.994491,4480.0,4780.0,3120.0,47.4,10.1,00000000 00000000,32.825674696,34.956100201999995,22.815,-0.5,0.44,-0.02,0.21,6.61,2.09,-0.03,0.38,-0.86,32.825673716,34.956135034,22.817,1.17,63.7,0.08,307456645,2172,1000,11111100,31,25,100,0.0,0,45,45,100822,20.88,0
4250,35.528,3.5439999999999996,-0.121,-6.56875,-20.94681,-18.25273,-0.030016,0.049007,1.005263,4440.0,4730.0,3090.0,47.4,10.12,00000000 00000000,32.825674746,34.956100071,22.814,-0.5,0.44,-0.02,0.21,6.62,2.08,-0.03,0.37,-0.86,32.825673923000004,34.95613552,22.809,1.01,63.07,-0.14,307456670,2172,1000,11111100,31,25,100,0.0,0,20,20,100822,20.88,3
4251,35.957,3.3169999999999997,-0.62,-10.74195,-20.56169,-15.639170000000002,0.011253,0.031731999999999996,0.993669,4430.0,4690.0,3070.0,47.4,10.08,00000000 00000000,32.825674846,34.956099935,22.813,-0.51,0.44,-0.02,0.21,6.63,2.07,-0.03,0.37,-0.87,32.825673923000004,34.95613552,22.809,1.01,63.07,-0.14,307456695,2172,1000,11111100,31,25,100,0.0,0,45,45,100822,20.88,0
4252,36.271,3.068,-1.1,-9.2251,-19.60405,-12.758,0.044888,0.030575,0.9877049999999999,4420.0,4670.0,3090.0,47.4,10.13,00000000 00000000,32.825674898,34.956099805,22.813,-0.5,0.43,-0.02,0.21,6.63,2.05,-0.03,0.36,-0.86,32.825674124,34.956136036,22.825,1.06,65.27,0.32,307456720,2172,1000,11111100,31,25,100,0.0,0,20,20,100822,20.88,3
4253,36.580999999999996,2.8689999999999998,-1.579,-7.63822,-21.49312,-11.404810000000001,0.081352,0.03907,0.971542,4420.0,4650.0,3120.0,47.4,10.08,00000000 00000000,32.825674994,34.956099669000004,22.812,-0.5,0.42,-0.02,0.21,6.64,2.04,-0.02,0.35,-0.85,32.825674124,34.956136036,22.825,1.06,65.27,0.32,307456745,2172,1000,11111100,31,25,100,0.0,0,45,45,100822,20.88,0
4254,36.834,2.693,-2.175,-7.3269899999999994,-27.6146,-12.04796,0.087007,0.048817,0.938421,4420.0,4650.0,3160.0,47.4,10.12,00000000 00000000,32.82567505,34.956099543,22.813,-0.49,0.41,-0.03,0.21,6.65,2.03,-0.01,0.35,-0.83,32.825674336,34.956136517,22.832,1.01,62.39,0.14,307456770,2172,1000,11111100,31,25,100,0.0,0,20,20,100820,21.05,3
4255,37.158,2.511,-2.883,-8.461960000000001,-28.40547,-12.71952,0.010447,0.015144999999999999,0.929494,4440.0,4620.0,3160.0,47.3,10.09,00000000 00000000,32.825675142,34.956099412,22.812,-0.48,0.4,-0.05,0.21,6.65,2.02,0.0,0.35,-0.83,32.825674336,34.956136517,22.832,1.01,62.39,0.14,307456795,2172,1000,11111100,31,25,100,0.0,0,45,45,100822,20.88,0
4256,37.431,2.32,-3.445,-8.11122,-15.97371,-10.2095,-0.085638,0.004036,0.920068,4470.0,4610.0,3170.0,47.3,10.13,00000000 00000000,32.825675196999995,34.956099288000004,22.81,-0.51,0.41,-0.06,0.2,6.66,2.01,0.01,0.34,-0.85,32.825674534,34.956136987,22.823,0.98,63.42,-0.17,307456820,2172,1000,11111100,31,25,100,0.0,0,20,20,100822,20.96,3
4257,37.653,2.144,-3.633,-6.91148,0.33693,-7.4149899999999995,-0.111479,0.039522,0.8995200000000001,4500.0,4600.0,3160.0,47.3,10.09,00000000 00000000,32.825675292,34.956099146999996,22.808,-0.54,0.43,-0.09,0.2,6.67,1.99,0.03,0.33,-0.88,32.825674534,34.956136987,22.823,0.98,63.42,-0.17,307456845,2172,1000,11111100,31,25,100,0.0,0,45,45,100822,20.96,0
4258,37.815,2.015,-3.443,-3.8917900000000003,13.20925,-6.783360000000001,-0.09096900000000001,0.09942999999999999,0.9205200000000001,4490.0,4610.0,3180.0,47.3,10.12,00000000 00000000,32.825675356,34.956099013,22.806,-0.56,0.46,-0.11,0.2,6.67,1.98,0.06,0.34,-0.92,32.825674742,34.956137504000004,22.818,1.06,64.46,-0.09,307456870,2172,1000,11111100,31,25,100,0.0,0,20,20,100822,20.96,3
4259,37.982,1.993,-3.005,1.19759,20.26701,-5.85088,-0.062273,0.102487,0.942766,4460.0,4620.0,3190.0,47.3,10.09,00000000 00000000,32.825675464,34.95609886,22.803,-0.57,0.49,-0.13,0.2,6.68,1.97,0.07,0.36,-0.95,32.825674742,34.956137504000004,22.818,1.06,64.46,-0.09,307456895,2172,1000,11111100,31,25,100,0.0,0,45,45,100822,20.96,0
4260,38.055,2.084,-2.441,5.6165400000000005,24.20319,-0.8232299999999999,-0.042805,0.073627,0.986092,4400.0,4630.0,3200.0,47.3,10.12,00000000 00000000,32.825675542,34.95609872,22.801,-0.58,0.51,-0.14,0.2,6.69,1.95,0.08,0.37,-0.97,32.825674965,34.956137968,22.818,1.0,60.27,0.0,307456920,2172,1000,11111100,31,25,100,0.0,0,20,20,100822,20.88,3
4261,37.96,2.283,-1.81,10.495239999999999,26.50367,7.662610000000001,-0.009244,0.06765399999999999,1.023598,4350.0,4630.0,3190.0,47.3,10.08,00000000 00000000,32.82567566,34.956098563000005,22.797,-0.59,0.53,-0.14,0.2,6.69,1.94,0.08,0.38,-0.98,32.825674965,34.956137968,22.818,1.0,60.27,0.0,307456945,2172,1000,11111100,31,25,100,0.0,0,45,45,100822,20.88,0
4262,37.673,2.592,-1.087,14.27051,33.29233,12.728589999999999,0.012515,0.066589,1.074442,4290.0,4650.0,3190.0,47.3,10.12,00000000 00000000,32.825675741,34.956098423,22.794,-0.58,0.53,-0.12,0.2,6.7,1.93,0.07,0.38,-0.99,32.825675176,34.956138487,22.809,1.07,64.27,-0.16,307456970,2172,1000,11111100,30,25,100,0.0,0,20,20,100822,20.88,3
4263,37.311,2.95,-0.122,14.10092,45.637240000000006,16.59235,-0.010092,0.021753,1.045268,4260.0,4630.0,3150.0,47.3,10.08,00000000 00000000,32.825675862,34.956098265,22.791,-0.59,0.53,-0.1,0.2,6.7,1.92,0.05,0.38,-0.98,32.825675176,34.956138487,22.809,1.07,64.27,-0.16,307456995,2172,1000,11111100,30,25,100,0.0,0,45,45,100822,20.88,8
4264,36.747,3.2760000000000002,1.0759999999999998,11.276530000000001,48.22143,28.19793,-0.031399,0.007232,0.9713709999999999,4180.0,4640.0,3180.0,47.3,10.1,00000000 00000000,32.825675944000004,34.956098099,22.788,-0.59,0.52,-0.1,0.2,6.71,1.9,0.05,0.37,-0.98,32.825675355,34.956138974,22.791,1.07,64.27,-0.16,307457020,2172,1000,11111100,30,25,100,0.0,0,20,70,100824,20.8,1
4265,35.838,3.577,1.95,10.19387,23.75144,43.84434,-0.015324,0.047069,1.05423,4160.0,4630.0,3170.0,47.3,10.07,00000000 00000000,32.825676051,34.956097964,22.786,-0.6,0.51,-0.1,0.2,6.72,1.89,0.05,0.36,-0.98,32.825675355,34.956138974,22.791,0.99,66.38,-0.36,307457045,2172,1000,11111100,30,25,100,0.0,0,45,45,100824,20.8,2
4266,34.784,3.841,2.227,7.294410000000001,5.85198,37.42237,0.094809,0.091549,1.160094,4180.0,4670.0,3190.0,47.3,10.1,00000000 00000000,32.825676118000004,34.956097822,22.784,-0.58,0.5,-0.08,0.2,6.72,1.88,0.02,0.36,-0.96,32.825675517,34.956139384000004,22.789,0.84,64.86,-0.03,307457070,2172,1000,11111100,33,25,100,0.0,0,20,20,100822,20.88,3
4267,34.007,4.013,2.244,3.73406,-0.34233,26.68763,0.151672,-0.010863,1.161646,4250.0,4690.0,3180.0,47.3,10.09,00000000 00000000,32.825676228,34.956097671,22.782,-0.55,0.47,-0.03,0.2,6.73,1.86,-0.01,0.35,-0.92,32.825675517,34.956139384000004,22.789,0.84,64.86,-0.03,307457095,2172,1000,11111100,33,25,100,0.0,0,45,45,100822,20.88,0
4268,33.325,4.09,2.042,0.04015,-13.623029999999998,28.637620000000002,0.154685,-0.08609800000000001,1.100611,4330.0,4680.0,3150.0,47.3,10.11,00000000 00000000,32.825676295,34.956097544,22.781,-0.52,0.41,-0.01,0.2,6.73,1.85,-0.04,0.32,-0.87,32.825675712,34.956139839,22.78,0.95,63.11,-0.17,307457120,2172,1000,11111100,33,25,100,0.0,0,20,20,100822,20.88,3
4269,32.513000000000005,4.065,1.4169999999999998,-3.8853199999999997,-31.378829999999997,35.799890000000005,0.103,-0.10483699999999999,1.062292,4430.0,4700.0,3140.0,47.3,10.09,00000000 00000000,32.825676382,34.956097405,22.781,-0.51,0.35,0.0,0.2,6.74,1.84,-0.06,0.27,-0.83,32.825675712,34.956139839,22.78,0.95,63.11,-0.17,307457145,2172,1000,11111100,33,25,100,0.0,0,45,45,100822,20.88,0
4270,31.531,3.952,0.423,-6.1329199999999995,-40.76597,38.4391,0.015721000000000002,-0.096164,1.0506879999999998,4590.0,4750.0,3110.0,47.3,10.12,00000000 00000000,32.825676439,34.956097281,22.781,-0.51,0.31,0.01,0.2,6.74,1.82,-0.07,0.23,-0.8,32.825675921999995,34.956140313,22.78,0.99,62.2,0.0,307457170,2172,1000,11111100,32,25,100,0.0,0,20,20,100822,20.88,3
4271,30.659000000000002,3.782,-0.628,-6.70477,-37.18651,29.13342,0.0032770000000000004,-0.007184,1.050584,4790.0,4820.0,3070.0,47.3,10.07,00000000 00000000,32.825676505,34.95609714,22.782,-0.53,0.28,0.02,0.2,6.75,1.81,-0.08,0.2,-0.8,32.825675921999995,34.956140313,22.78,0.99,62.2,0.0,307457195,2172,1000,11111100,32,25,100,0.0,0,45,45,100822,20.88,0
4272,30.141,3.642,-1.494,-3.5366400000000002,-28.71926,10.719,0.015036,0.032966,0.9946139999999999,4970.0,4890.0,3050.0,47.3,10.12,00000000 00000000,32.825676544000004,34.956097016,22.783,-0.53,0.27,0.03,0.2,6.76,1.79,-0.09,0.18,-0.8,32.82567614,34.956140736,22.787,0.92,58.64,0.13,307457220,2172,1000,11111100,32,25,100,0.0,0,20,20,100822,20.88,3
4273,30.103,3.585,-2.117,-1.36479,-21.43818,-6.2865,0.003878,0.036369,0.894675,5090.0,4920.0,3010.0,47.3,10.08,00000000 00000000,32.825676605,34.956096871,22.784,-0.54,0.26,0.02,0.2,6.76,1.78,-0.08,0.18,-0.8,32.82567614,34.956140736,22.787,0.92,58.64,0.13,307457245,2172,1000,11111100,32,25,100,0.0,0,45,45,100822,20.88,0
4274,30.381,3.56,-2.551,-1.9334200000000001,-15.671879999999998,-13.27144,-0.024376,0.048936,0.824649,5140.0,4930.0,2980.0,47.3,10.07,00000000 00000000,32.825676653,34.956096747,22.784,-0.55,0.27,-0.01,0.2,6.77,1.77,-0.04,0.17,-0.81,32.825676408,34.956141153000004,22.789,0.97,52.58,0.05,307457270,2172,1000,11111100,33,25,100,0.0,0,20,20,100822,20.88,3
4275,30.679000000000002,3.5069999999999997,-2.887,-3.37899,-12.81442,-9.38402,-0.051149,0.06933500000000001,0.785267,5160.0,4930.0,2970.0,47.3,10.08,00000000 00000000,32.825676715,34.956096597,22.783,-0.56,0.28,-0.06,0.2,6.77,1.75,0.0,0.17,-0.83,32.825676408,34.956141153000004,22.789,0.97,52.58,0.05,307457295,2172,1000,11111100,33,25,100,0.0,0,45,45,100822,20.88,0
4276,30.839000000000002,3.423,-3.161,-3.61061,-9.733839999999999,-2.58367,-0.06875,0.103617,0.818766,5170.0,4940.0,2960.0,47.3,10.13,00000000 00000000,32.825676777,34.956096469,22.781,-0.58,0.3,-0.11,0.2,6.78,1.74,0.04,0.18,-0.85,32.825676679000004,34.956141574,22.784,0.99,52.68,-0.09,307457320,2172,1000,11111100,33,25,100,0.0,0,20,20,100822,20.88,3
4277,30.873,3.361,-3.302,-1.3022200000000002,-0.64459,-0.84424,-0.06438300000000001,0.141343,0.899666,5180.0,4950.0,2940.0,47.3,10.08,00000000 00000000,32.825676848,34.956096312,22.778,-0.59,0.33,-0.14,0.2,6.78,1.72,0.08,0.2,-0.87,32.825676679000004,34.956141574,22.784,0.99,52.68,-0.09,307457345,2172,1000,11111100,33,25,100,0.0,0,45,45,100820,21.05,0
4278,30.926,3.364,-3.167,1.6553200000000001,11.60857,-3.08122,-0.037849,0.136169,0.9623209999999999,5170.0,4970.0,2960.0,47.3,10.13,00000000 00000000,32.825676932,34.956096181,22.775,-0.6,0.36,-0.16,0.2,6.79,1.71,0.1,0.22,-0.9,32.825676965,34.956142049,22.784,1.08,54.4,0.0,307457370,2172,1000,11111100,33,25,100,0.0,0,20,20,100820,21.05,3
4279,31.031999999999996,3.475,-2.71,7.28135,23.94679,-5.7442,0.000466,0.118948,1.009095,5150.0,4960.0,2950.0,47.3,10.08,00000000 00000000,32.825677017,34.956096019,22.771,-0.6,0.38,-0.16,0.2,6.79,1.69,0.1,0.24,-0.91,32.825676965,34.956142049,22.784,1.08,54.4,0.0,307457395,2172,1000,11111100,33,25,100,0.0,0,45,45,100820,21.05,0
4280,31.175,3.73,-2.0069999999999997,12.81231,30.69997,-6.3783199999999995,0.013722999999999999,0.101888,1.049509,5090.0,4950.0,2960.0,47.3,10.1,00000000 00000000,32.825677131999996,34.956095883,22.767,-0.6,0.4,-0.15,0.2,6.8,1.68,0.09,0.25,-0.92,32.825677233,34.956142519000004,22.771,1.06,55.95,-0.26,307457420,2172,1000,11111100,33,25,100,0.0,0,20,20,100822,20.96,3
4281,31.342,4.111000000000001,-1.169,16.99419,34.883379999999995,-8.2433,0.031848,0.113853,1.08628,5010.0,4900.0,2950.0,47.3,10.08,00000000 00000000,32.825677224,34.956095722,22.763,-0.6,0.41,-0.13,0.2,6.8,1.66,0.07,0.26,-0.92,32.825677233,34.956142519000004,22.771,1.06,55.95,-0.26,307457445,2172,1000,11111100,33,25,100,0.0,0,45,45,100824,20.8,0
4282,31.605999999999998,4.569,-0.273,19.0915,34.304109999999994,-13.41085,0.050164,0.091921,1.118396,4890.0,4860.0,2970.0,47.3,10.1,00000000 00000000,32.82567733,34.956095594000004,22.76,-0.58,0.41,-0.1,0.2,6.8,1.65,0.05,0.26,-0.91,32.825677438,34.956143019,22.758,1.03,64.06,-0.23,307457470,2172,1000,11111100,33,25,100,0.0,0,20,20,100822,20.88,3
4283,32.047,5.026,0.579,16.92492,31.291109999999996,-22.57171,0.064636,0.053673,1.120934,4770.0,4800.0,2980.0,47.3,10.1,00000000 00000000,32.825677422,34.956095438,22.757,-0.57,0.4,-0.07,0.2,6.81,1.64,0.02,0.26,-0.89,32.825677438,34.956143019,22.758,1.03,64.06,-0.23,307457495,2172,1000,11111100,33,25,100,0.0,0,45,45,100822,20.88,0
4284,32.701,5.398,1.327,14.70701,20.35277,-26.858009999999997,0.04725,0.060697,1.096078,4640.0,4730.0,2960.0,47.2,10.12,00000000 00000000,32.82567753,34.956095311999995,22.755,-0.56,0.38,-0.05,0.2,6.81,1.62,0.0,0.24,-0.87,32.825677655999996,34.95614346,22.752,0.95,59.66,-0.12,307457520,2172,1000,11111100,33,25,100,0.0,0,20,20,100822,20.88,3
4285,33.361999999999995,5.7620000000000005,1.646,15.82455,1.44771,-25.934260000000002,0.003109,0.07381900000000001,1.104069,4540.0,4620.0,2890.0,47.2,10.08,00000000 00000000,32.825677614,34.956095162,22.754,-0.55,0.36,-0.02,0.2,6.82,1.61,-0.02,0.23,-0.85,32.825677655999996,34.95614346,22.752,0.95,59.66,-0.12,307457545,2172,1000,11111100,33,25,100,0.0,0,45,45,100822,20.96,0
4286,34.119,6.125,1.6869999999999998,14.321639999999999,-1.13335,-34.04954,-0.005753,0.055822000000000004,1.100814,4440.0,4550.0,2860.0,47.2,10.13,00000000 00000000,32.825677711,34.956095045,22.753,-0.55,0.35,0.0,0.2,6.82,1.59,-0.05,0.22,-0.84,32.825677922,34.956143909,22.747,1.02,54.84,-0.09,307457570,2172,1000,11111100,33,25,100,0.0,0,20,20,100820,21.05,3
