,Heading,Pitch,Roll,Gyro_X,Gyro_Y,Gyro_Z,Acc_X,Acc_Y,Acc_Z,Magn_X,Magn_Y,Magn_Z,Temperature,Vdd,USW (L/H),Latitude,Longitude,Altitude,V_East,V_North,V_Up,Heave,Surge,Sway,V_Heave,V_Surge,V_Sway,Lat_GNSS,Long_GNSS,Height_GNSS,Hor_spd,Trk_gnd,Ver_spd,ms_gps,GPS_Week,GNSS_info_1,GNSS_info_2,#solnSVs,V_latency,anglesPosType,Heading_GNSS,Latency_ms_head,Latency_ms_pos,Latency_ms_vel,P_Bar,H_Bar,New_GPS
8473,201.979,5.215,10.16,2.40656,3.9275900000000004,-0.57708,0.13911700000000002,0.084237,0.9616610000000001,-880.0,13870.0,4460.0,46.8,10.12,00000000 00000000,32.826409926,34.956557539,24.046,-0.32,-0.13,0.05,0.0,-1.97,3.88,-0.02,-0.83,0.48,32.825991753000004,34.956579963,25.5,0.03,123.6,0.03,307606370,2172,111,11111100,20,25,100,0.0,0,20,20,100794,23.31,3
8474,201.976,5.261,10.047,1.1975200000000001,4.64149,0.23306999999999997,0.156192,0.083307,0.9601940000000001,-880.0,13860.0,4440.0,46.8,10.07,00000000 00000000,32.826409895,34.956557453,24.048,-0.31,-0.13,0.04,0.0,-1.95,3.87,-0.02,-0.83,0.47,32.825991753000004,34.956579963,25.5,0.03,123.6,0.03,307606395,2172,111,11111100,20,25,100,0.0,0,45,45,100794,23.22,0
8475,201.959,5.282,-9.951,0.60978,3.66824,0.84086,0.161735,0.081013,0.9825370000000001,-900.0,13860.0,4440.0,46.8,10.11,00000000 00000000,32.826410383,34.956558603000005,24.045,-0.3,-0.12,0.04,0.0,-1.94,3.87,-0.01,-0.83,0.47,32.825991757,34.956579963,25.498,0.0,359.15,-0.02,307606420,2172,111,11111100,20,25,100,0.0,0,20,20,100794,23.22,3
8476,201.94799999999998,5.29,-9.838,0.04517,6.05949,-0.20062,0.151789,0.074434,0.999101,-910.0,13840.0,4430.0,46.8,10.08,00000000 00000000,32.826410354000004,34.956558521999995,24.046,-0.3,-0.12,0.04,0.0,-1.92,3.86,-0.02,-0.83,0.47,32.825991757,34.956579963,25.498,0.0,359.15,-0.02,307606445,2172,111,11111100,20,25,100,0.0,0,45,45,100796,23.14,0
8477,201.96599999999998,5.28,-9.651,-1.17687,8.40727,-0.41538,0.15624200000000002,0.077973,1.001041,-940.0,13840.0,4420.0,46.8,10.11,00000000 00000000,32.826410666,34.956559509,24.047,-0.28,-0.12,0.05,0.0,-1.91,3.86,-0.02,-0.83,0.46,32.825991746999996,34.956579948000005,25.5,0.03,230.22,0.03,307606470,2172,111,11111100,20,25,100,0.0,0,20,20,100796,23.14,3
8478,201.96900000000002,5.239,-9.453,-1.9947,6.96765,0.63974,0.152277,0.087402,1.003602,-960.0,13850.0,4400.0,46.9,10.08,00000000 00000000,32.826410639,34.956559434,24.049,-0.28,-0.11,0.05,0.0,-1.89,3.85,-0.02,-0.84,0.46,32.825991746999996,34.956579948000005,25.5,0.03,230.22,0.03,307606495,2172,111,11111100,20,25,100,0.0,0,45,45,100796,23.05,0
8479,201.967,5.187,-9.311,-2.22665,4.7262699999999995,0.28381999999999996,0.145319,0.10276500000000001,1.002016,-990.0,13860.0,4400.0,46.9,10.1,00000000 00000000,32.826410805,34.956560356,24.048,-0.26,-0.11,0.06,0.0,-1.88,3.85,-0.03,-0.83,0.45,32.82599172,34.956579939,25.501,0.06,194.85,0.0,307606520,2172,111,11111100,20,25,100,0.0,0,20,20,100796,23.05,3
8480,201.99099999999999,5.131,-9.215,-2.4182,2.8733299999999997,-1.7440900000000001,0.14171199999999998,0.10744100000000001,0.9995069999999999,1000.0,13860.0,4370.0,46.9,10.1,00000000 00000000,32.826410778,34.956560284,24.049,-0.26,-0.12,0.06,0.0,-1.86,3.84,-0.03,-0.83,0.44,32.82599172,34.956579939,25.501,0.06,194.85,0.0,307606545,2172,111,11111100,20,25,100,0.0,0,45,45,100796,23.05,0
8481,202.06900000000002,5.093,-9.172,-1.3755899999999999,0.11425999999999999,-3.49378,0.130017,0.103171,1.003196,1040.0,13880.0,4390.0,46.9,10.1,00000000 00000000,32.826411261,34.95656121,24.042,-0.25,-0.12,0.06,0.0,-1.85,3.84,-0.04,-0.82,0.44,32.825991736,34.956579956999995,25.497,0.04,42.19,-0.06,307606570,2172,111,11111100,20,25,100,0.0,0,20,20,100796,23.05,3
8482,202.18900000000002,5.106,-9.187999999999999,0.8998700000000001,-1.9814,-6.30246,0.11551800000000001,0.11264400000000001,1.005482,1050.0,13890.0,4400.0,46.9,10.08,00000000 00000000,32.826411232,34.956561143,24.044,-0.24,-0.13,0.07,0.0,-1.83,3.83,-0.04,-0.81,0.43,32.825991736,34.956579956999995,25.497,0.04,42.19,-0.06,307606595,2172,111,11111100,20,25,100,0.0,0,45,45,100796,23.14,0
8483,202.37599999999998,5.178999999999999,-9.237,2.05745,-2.8707700000000003,-8.45507,0.10201,0.105199,1.0165790000000001,1040.0,13890.0,4370.0,46.9,10.12,00000000 00000000,32.826411311,34.956561885,24.052,-0.23,-0.13,0.07,0.0,-1.82,3.83,-0.05,-0.81,0.41,32.825991691999995,34.956579942,25.504,0.1,195.14,0.13,307606620,2172,111,11111100,20,25,100,0.0,0,20,20,100794,23.22,3
8484,202.55599999999998,5.26,-9.307,2.06238,-3.40346,-6.4737599999999995,0.079856,0.078779,1.035498,1020.0,13870.0,4340.0,46.9,10.1,00000000 00000000,32.826411279,34.956561825,24.054,-0.21,-0.14,0.08,0.0,-1.8,3.83,-0.05,-0.8,0.39,32.825991691999995,34.956579942,25.504,0.1,195.14,0.13,307606645,2172,111,11111100,20,25,100,0.0,0,45,45,100796,23.14,0
8485,202.68599999999998,5.3420000000000005,-9.341000000000001,2.58034,-0.18698,-5.10842,0.044618,0.061771000000000006,1.027059,1020.0,13860.0,4330.0,46.9,10.09,00000000 00000000,32.826411502,34.956562428000005,24.053,-0.18,-0.14,0.09,0.0,-1.79,3.82,-0.06,-0.81,0.37,32.825991664,34.956579914,25.505,0.07,220.82,0.02,307606670,2172,111,11111100,19,25,100,0.0,0,20,20,100796,23.14,3
8486,202.82299999999998,5.4239999999999995,-9.345,1.8063900000000002,-2.42768,-7.9118,0.03754,0.068834,1.024836,1020.0,13840.0,4300.0,46.9,10.08,00000000 00000000,32.826411469,34.956562383000005,24.055,-0.15,-0.15,0.09,0.0,-1.77,3.82,-0.07,-0.81,0.33,32.825991664,34.956579914,25.505,0.07,220.82,0.02,307606695,2172,111,11111100,19,25,100,0.0,0,45,45,100794,23.22,0
8487,203.079,5.472,-9.441,-1.96175,-6.346369999999999,-11.186910000000001,0.062812,0.015177000000000001,1.065827,1020.0,13840.0,4300.0,46.9,10.12,00000000 00000000,32.826411575,34.956562888,24.052,-0.11,-0.15,0.1,0.0,-1.76,3.81,-0.08,-0.82,0.3,32.825991618,34.956579892,25.506,0.11,202.08,0.01,307606720,2172,111,11111100,19,25,100,0.0,0,20,20,100794,23.22,3
8488,203.312,5.39,-9.567,-7.620839999999999,-4.19707,-5.371919999999999,0.041108,-0.034231,1.074922,1000.0,13840.0,4280.0,46.9,10.08,00000000 00000000,32.826411543,34.956562861,24.055,-0.08,-0.13,0.12,0.0,-1.74,3.81,-0.09,-0.85,0.27,32.825991618,34.956579892,25.506,0.11,202.08,0.01,307606745,2172,111,11111100,19,25,100,0.0,0,45,45,100794,23.22,0
8489,203.407,5.127999999999999,-9.585,-14.37354,2.4257,0.29873,-0.009986,0.002995,1.0255,1010.0,13870.0,4270.0,46.9,10.12,00000000 00000000,32.826411423,34.956563091,24.051,-0.03,-0.12,0.13,0.0,-1.73,3.8,-0.1,-0.87,0.23,32.825991548000005,34.956579812,25.507,0.21,223.92,0.02,307606770,2172,111,11111100,19,25,100,0.0,0,20,20,100794,23.22,3
8490,203.488,4.718,-9.424,-18.06361,9.54519,-2.71318,-0.003929,0.049949,0.98754,1020.0,13900.0,4230.0,46.9,10.07,00000000 00000000,32.826411394000004,34.956563088,24.055,0.0,-0.13,0.13,0.0,-1.71,3.8,-0.1,-0.88,0.19,32.825991548000005,34.956579812,25.507,0.21,223.92,0.02,307606795,2172,111,11111100,19,25,100,0.0,0,45,45,100794,23.22,0
8491,203.702,4.294,-9.113,-17.83765,13.654060000000001,-7.5450800000000005,0.060384,0.03365,0.99115,1060.0,13950.0,4200.0,46.9,10.11,00000000 00000000,32.826410965,34.956563125,24.067,0.03,-0.14,0.12,0.0,-1.7,3.79,-0.09,-0.89,0.15,32.825991422,34.956579694,25.518,0.35,218.22,0.22,307606820,2172,111,11111100,19,25,100,0.0,0,20,20,100794,23.22,3
8492,203.953,3.862,-8.697000000000001,-20.02321,18.6577,-6.06076,0.12725999999999998,0.003111,1.017153,1100.0,14000.0,4130.0,46.9,10.08,00000000 00000000,32.826410934,34.956563138,24.07,0.05,-0.13,0.12,0.0,-1.68,3.79,-0.09,-0.9,0.14,32.825991422,34.956579694,25.518,0.35,218.22,0.22,307606845,2172,111,11111100,19,25,100,0.0,0,45,45,100796,23.14,0
8493,204.141,3.333,-8.13,-23.53373,25.79456,-2.73055,0.147648,0.037052999999999996,0.984758,1170.0,14070.0,4070.0,46.9,10.11,00000000 00000000,32.82641041,34.956563161999995,24.088,0.05,-0.13,0.13,0.0,-1.67,3.79,-0.1,-0.91,0.13,32.825991281,34.95657958,25.534,0.37,214.37,0.31,307606870,2172,111,11111100,19,25,100,0.0,0,20,20,100794,23.22,3
8494,204.301,2.76,-7.4,-22.71865,30.874209999999998,-4.71879,0.127142,0.070161,0.9432459999999999,1250.0,14140.0,3990.0,46.9,10.08,00000000 00000000,32.826410381,34.956563177,24.091,0.05,-0.13,0.12,0.0,-1.65,3.78,-0.09,-0.9,0.13,32.825991281,34.95657958,25.534,0.37,214.37,0.31,307606895,2172,111,11111100,19,25,100,0.0,0,45,45,100794,23.22,0
8495,204.545,2.267,-6.66,-18.21332,25.20158,-9.37658,0.11806900000000001,0.06497,0.8914129999999999,1340.0,14210.0,3900.0,46.9,10.12,00000000 00000000,32.826409841,34.956563163,24.104,0.04,-0.14,0.1,0.0,-1.64,3.78,-0.08,-0.89,0.14,32.82599113,34.956579445,25.545,0.42,217.15,0.22,307606920,2172,111,11111100,19,25,100,0.0,0,20,20,100794,23.22,3
8496,204.83599999999998,1.9080000000000001,-6.195,-12.72068,10.54017,-9.24773,0.136597,0.043838,0.8681639999999999,1410.0,14280.0,3820.0,46.9,10.08,00000000 00000000,32.826409808,34.956563173,24.106,0.03,-0.14,0.08,0.0,-1.63,3.77,-0.05,-0.89,0.14,32.82599113,34.956579445,25.545,0.42,217.15,0.22,307606945,2172,111,11111100,19,25,100,0.0,0,45,45,100794,23.22,0
8497,205.025,1.679,-6.117000000000001,-6.7476899999999995,-4.54175,-3.1322900000000002,0.130241,0.039133999999999995,0.867451,1460.0,14340.0,3780.0,46.9,10.08,00000000 00000000,32.826409329,34.95656321,24.118,0.01,-0.14,0.05,0.0,-1.61,3.77,-0.02,-0.88,0.15,32.825990983000004,34.956579319,25.553,0.4,215.86,0.16,307606970,2172,111,11111100,18,25,100,0.0,0,20,20,100794,23.22,3
8498,205.046,1.58,-6.379,-1.58335,-16.0746,2.06623,0.10288399999999999,0.031669,0.874431,1480.0,14380.0,3790.0,46.9,10.07,00000000 00000000,32.826409295,34.956563213,24.119,0.0,-0.14,0.02,0.0,-1.6,3.77,0.0,-0.87,0.16,32.825990983000004,34.956579319,25.553,0.4,215.86,0.16,307606995,2172,111,11111100,18,25,100,0.0,0,45,45,100794,23.22,8
8499,204.935,1.575,-6.9239999999999995,2.236,-27.33033,6.95173,0.078694,0.021557,0.881259,1450.0,14400.0,3830.0,46.9,10.12,00000000 00000000,32.826408857,34.956563281,24.118,0.0,-0.15,0.0,0.0,-1.58,3.76,0.03,-0.87,0.16,32.825990839,34.956579203000004,25.551,0.38,214.04,-0.03,307607020,2172,111,11111100,18,25,100,0.0,0,20,20,100794,23.22,3
8500,204.687,1.641,-7.724,5.69945,-34.65961,11.93967,0.0484,0.021934,0.901402,1380.0,14370.0,3840.0,46.9,10.09,00000000 00000000,32.826408821,34.956563283,24.117,0.01,-0.15,-0.03,0.0,-1.57,3.76,0.05,-0.87,0.14,32.825990839,34.956579203000004,25.551,0.38,214.04,-0.03,307607045,2172,111,11111100,18,25,100,0.0,0,45,45,100796,23.14,0
8501,204.31799999999998,1.7819999999999998,-8.596,10.048969999999999,-32.97061,15.90771,0.018791,0.018335,0.9169139999999999,1300.0,14320.0,3890.0,46.9,10.12,00000000 00000000,32.826408261,34.956563298,24.129,0.03,-0.17,-0.05,0.0,-1.55,3.75,0.08,-0.87,0.12,32.825990661999995,34.956579074000004,25.556,0.46,211.7,0.09,307607070,2172,111,11111100,18,25,100,0.0,0,20,20,100796,23.14,3
8502,203.83,2.009,-9.346,13.76135,-25.216829999999998,19.5318,-0.010903,0.031222000000000003,0.9094270000000001,1220.0,14260.0,3950.0,46.9,10.07,00000000 00000000,32.826408221,34.95656331,24.127,0.06,-0.18,-0.07,0.0,-1.54,3.75,0.1,-0.87,0.09,32.825990661999995,34.956579074000004,25.556,0.46,211.7,0.09,307607095,2172,111,11111100,18,25,100,0.0,0,45,45,100796,23.05,0
8503,203.28599999999997,2.2969999999999997,-9.901,16.43424,-17.94408,18.723110000000002,-0.018894,0.039454,0.933757,1170.0,14190.0,4030.0,46.9,10.11,00000000 00000000,32.826407802,34.956563344,24.13,0.09,-0.2,-0.1,0.0,-1.52,3.75,0.12,-0.86,0.04,32.825990495999996,34.956578978,25.554,0.4,205.99,-0.04,307607120,2172,111,11111100,18,25,100,0.0,0,20,20,100798,22.97,3
8504,202.795,2.665,10.283,19.30987,-10.887410000000001,14.6925,-0.013651,0.037134,0.969308,1130.0,14100.0,4080.0,46.9,10.09,00000000 00000000,32.826407753000005,34.956563375,24.128,0.13,-0.22,-0.11,0.0,-1.51,3.74,0.14,-0.86,0.0,32.825990495999996,34.956578978,25.554,0.4,205.99,-0.04,307607145,2172,111,11111100,18,25,100,0.0,0,45,45,100794,23.22,0
8505,202.373,3.093,10.504000000000001,20.40541,-5.419580000000001,13.30865,0.0070480000000000004,0.041203,0.9853149999999999,1130.0,14010.0,4150.0,46.9,10.11,00000000 00000000,32.826407356,34.956563484,24.123,0.17,-0.24,-0.12,0.0,-1.5,3.74,0.15,-0.86,-0.04,32.825990319,34.956578951,25.546,0.39,187.41,-0.16,307607170,2172,111,11111100,18,25,100,0.0,0,20,20,100796,23.14,3
8506,201.96099999999998,3.525,10.610999999999999,19.15677,-1.84313,12.5198,0.031477,0.048039,1.016054,1120.0,13920.0,4190.0,46.9,10.07,00000000 00000000,32.8264073,34.956563535,24.12,0.2,-0.25,-0.12,0.0,-1.48,3.73,0.15,-0.86,-0.08,32.825990319,34.956578951,25.546,0.39,187.41,-0.16,307607195,2172,111,11111100,18,25,100,0.0,0,45,45,100796,23.05,0
8507,201.588,3.905,10.687999999999999,15.97582,-3.1305400000000003,11.54597,0.023822,0.03781,1.0561450000000001,1130.0,13830.0,4240.0,46.9,10.1,00000000 00000000,32.826407226,34.956563885,24.098,0.24,-0.26,-0.12,0.0,-1.47,3.73,0.15,-0.86,-0.11,32.825990026999996,34.956578897,25.526,0.65,188.82,-0.39,307607220,2172,111,11111100,17,25,100,0.0,0,20,20,100798,22.97,3
8508,201.206,4.197,10.835999999999999,12.5105,-6.12692,14.59045,-0.022844999999999997,0.030726,1.096069,1130.0,13750.0,4260.0,46.9,10.1,00000000 00000000,32.826407165,34.956563958000004,24.095,0.29,-0.27,-0.1,0.0,-1.45,3.73,0.13,-0.87,-0.16,32.825990026999996,34.956578897,25.526,0.65,188.82,-0.39,307607245,2172,111,11111100,17,25,100,0.0,0,45,45,100798,22.97,0
8509,200.75799999999998,4.372,11.0,7.59085,-2.41898,16.983539999999998,-0.08301599999999999,0.04682,1.133877,1130.0,13670.0,4290.0,46.9,10.11,00000000 00000000,32.826407088,34.956564311,24.106,0.35,-0.28,-0.08,0.0,-1.44,3.72,0.11,-0.88,-0.22,32.825989719,34.95657861,25.529,0.86,218.3,0.06,307607270,2172,111,11111100,16,25,100,0.0,0,20,20,100798,22.97,3
8510,200.33599999999998,4.399,10.956,0.93158,9.71921,15.15424,-0.111069,0.07280299999999999,1.15334,1130.0,13620.0,4310.0,46.9,10.09,00000000 00000000,32.82640702,34.956564416999996,24.104,0.43,-0.31,-0.06,0.0,-1.42,3.72,0.09,-0.88,-0.3,32.825989719,34.95657861,25.529,0.86,218.3,0.06,307607295,2172,111,11111100,16,25,100,0.0,0,45,45,100796,23.05,0
8511,200.03099999999998,4.2860000000000005,10.525,-4.6795,26.98685,12.11837,-0.079234,0.048944,1.165514,1180.0,13590.0,4320.0,46.9,10.1,00000000 00000000,32.826406497,34.956564793000005,24.091,0.5,-0.34,-0.03,0.0,-1.41,3.71,0.06,-0.88,-0.38,32.825989479,34.956578389,25.518,0.67,217.84,-0.21,307607320,2172,111,11111100,15,25,100,0.0,0,20,20,100796,23.05,3
8512,199.71599999999998,4.06,-9.642000000000001,-8.432780000000001,45.09486,17.562079999999998,-0.023267,0.004031,1.169768,1270.0,13580.0,4280.0,46.9,10.07,00000000 00000000,32.826406419,34.956564936999996,24.091,0.56,-0.34,0.0,0.0,-1.4,3.71,0.02,-0.9,-0.44,32.825989479,34.956578389,25.518,0.67,217.84,-0.21,307607345,2172,111,11111100,15,25,100,0.0,0,45,45,100796,23.05,0
8513,199.215,3.783,-8.394,-5.10003,55.207609999999995,25.56867,0.015381,0.11565399999999999,1.145627,1440.0,13580.0,4240.0,46.9,10.1,00000000 00000000,32.82640578,34.956565323,24.093,0.61,-0.36,0.03,0.0,-1.38,3.71,-0.01,-0.9,-0.48,32.825989207,34.956578041,25.536,0.89,227.14,0.34,307607370,2172,111,11111100,16,25,100,0.0,0,20,20,100796,23.05,3
8514,198.622,3.7310000000000003,-7.029,8.69137,57.79351,19.05639,0.051634000000000006,0.23575300000000002,1.158023,1640.0,13570.0,4180.0,46.9,10.07,00000000 00000000,32.826405696,34.95656549,24.094,0.63,-0.39,0.07,0.0,-1.37,3.7,-0.04,-0.88,-0.51,32.825989207,34.956578041,25.536,0.89,227.14,0.34,307607395,2172,111,11111100,16,25,100,0.0,0,45,45,100796,23.05,0
8515,198.29,4.111000000000001,-5.598,23.35941,55.61991,4.15461,0.124083,0.212804,1.1175469999999998,1840.0,13520.0,4130.0,46.9,10.13,00000000 00000000,32.826405586,34.95656588,24.098,0.62,-0.43,0.11,0.0,-1.35,3.7,-0.08,-0.83,-0.52,32.825988773,34.956578042,25.523,0.96,179.86,-0.26,307607420,2172,111,11111100,15,25,100,0.0,0,20,20,100800,22.8,3
8516,198.19799999999998,4.779,-4.439,28.50115,35.58174,1.22855,0.218111,0.09172899999999999,1.067072,2000.0,13410.0,4020.0,46.9,10.09,00000000 00000000,32.826405486,34.956566045,24.101,0.6,-0.44,0.14,0.0,-1.34,3.69,-0.11,-0.81,-0.5,32.825988773,34.956578042,25.523,0.96,179.86,-0.26,307607445,2172,111,11111100,15,25,100,0.0,0,45,45,100798,22.89,0
8517,198.021,5.415,-3.918,22.45704,6.74965,11.477210000000001,0.242948,0.07420299999999999,1.0112940000000001,2120.0,13310.0,3980.0,46.8,10.11,00000000 00000000,32.826404933,34.956566404,24.1,0.56,-0.43,0.15,0.0,-1.33,3.69,-0.13,-0.81,-0.46,32.82598848,34.956577886999995,25.526,0.71,204.08,0.06,307607470,2172,111,11111100,15,25,100,0.0,0,20,20,100798,22.89,3
8518,197.53400000000002,5.837999999999999,-4.1339999999999995,14.10375,-18.09819,24.61165,0.133536,0.084659,0.9923,2160.0,13200.0,3990.0,46.8,10.08,00000000 00000000,32.826404837,34.95656655,24.104,0.53,-0.42,0.16,0.0,-1.31,3.69,-0.13,-0.82,-0.43,32.82598848,34.956577886999995,25.526,0.71,204.08,0.06,307607495,2172,111,11111100,15,25,100,0.0,0,45,45,100798,22.89,0
8519,196.85,6.039,-4.766,6.05337,-23.940720000000002,27.217190000000002,-0.002779,0.035276,0.971666,2150.0,13100.0,4060.0,46.8,10.11,00000000 00000000,32.826404608000004,34.956566871,24.11,0.53,-0.41,0.15,0.0,-1.3,3.68,-0.13,-0.82,-0.43,32.825988261999996,34.956577401,25.551,1.02,242.09,0.49,307607520,2172,111,11111100,14,25,100,0.0,0,20,20,100798,22.89,3
8520,196.18,6.02,-5.391,-2.64455,-19.90831,26.30909,-0.05796900000000001,-0.017661000000000003,0.934425,2110.0,13010.0,4090.0,46.8,10.08,00000000 00000000,32.826404515,34.956567019,24.114,0.57,-0.4,0.14,0.01,-1.28,3.68,-0.11,-0.84,-0.45,32.825988261999996,34.956577401,25.551,1.02,242.09,0.49,307607545,2172,111,11111100,14,25,100,0.0,0,45,45,100800,22.8,0
8521,195.488,5.792999999999999,-5.942,-9.17929,-19.8869,32.10044,-0.035536,-0.025206,0.937076,2080.0,12960.0,4140.0,46.8,10.12,00000000 00000000,32.826404411999995,34.956567355,24.118,0.61,-0.38,0.12,0.01,-1.27,3.67,-0.09,-0.87,-0.49,32.825987827,34.956577412,25.519,0.96,178.71,-0.63,307607570,2172,111,11111100,15,25,100,0.0,0,20,20,100800,22.8,3
8522,194.605,5.437,-6.572,-10.79904,-23.381970000000003,39.51229,0.027524,0.037752999999999995,0.9680290000000001,2050.0,12920.0,4150.0,46.8,10.08,00000000 00000000,32.826404327,34.956567523000004,24.121,0.64,-0.37,0.1,0.01,-1.26,3.67,-0.08,-0.89,-0.52,32.825987827,34.956577412,25.519,0.96,178.71,-0.63,307607595,2172,111,11111100,15,25,100,0.0,0,45,45,100798,22.89,0
8523,193.707,5.062,-7.242000000000001,-10.56225,-21.76752,31.790809999999997,0.105625,0.108695,0.9844069999999999,2010.0,12890.0,4190.0,46.8,10.12,00000000 00000000,32.826404233000005,34.956567854,24.129,0.65,-0.37,0.1,0.01,-1.24,3.66,-0.07,-0.89,-0.53,32.825987476,34.956577171,25.527,0.9,210.14,0.15,307607620,2172,111,11111100,15,25,100,0.0,0,20,20,100798,22.89,3
8524,193.185,4.698,-7.732,-13.364889999999999,-13.87185,13.87921,0.168665,0.09442,0.9660540000000001,1970.0,12850.0,4190.0,46.8,10.07,00000000 00000000,32.826404149,34.956568029,24.131,0.65,-0.37,0.1,0.01,-1.23,3.66,-0.07,-0.88,-0.53,32.825987476,34.956577171,25.527,0.9,210.14,0.15,307607645,2172,111,11111100,15,25,100,0.0,0,45,45,100796,23.05,0
8525,193.06400000000002,4.297,-8.05,-16.502570000000002,-12.1298,1.04853,0.181522,0.095326,0.941105,1940.0,12860.0,4210.0,46.8,10.12,00000000 00000000,32.826404055,34.956568339,24.135,0.63,-0.37,0.09,0.01,-1.22,3.66,-0.07,-0.87,-0.51,32.825987145,34.956576804,25.51,1.0,223.11,-0.33,307607670,2172,111,11111100,15,25,100,0.0,0,20,20,100796,23.05,3
8526,193.19,3.911,-8.389,-14.992020000000002,-16.17802,-5.40265,0.144311,0.061752,0.914008,1900.0,12890.0,4200.0,46.8,10.08,00000000 00000000,32.82640397,34.956568508000004,24.137,0.62,-0.37,0.08,0.01,-1.2,3.65,-0.05,-0.87,-0.5,32.825987145,34.956576804,25.51,1.0,223.11,-0.33,307607695,2172,111,11111100,15,25,100,0.0,0,45,45,100796,23.14,0
8527,193.41400000000002,3.602,-8.804,-12.02683,-16.44121,-8.79042,0.060723,0.038189999999999995,0.880517,1850.0,12940.0,4210.0,46.8,10.11,00000000 00000000,32.826403872,34.9565688,24.154,0.63,-0.37,0.06,0.01,-1.19,3.65,-0.03,-0.87,-0.51,32.82598672,34.956576496,25.523,1.1,211.45,0.25,307607720,2172,111,11111100,15,25,100,0.0,0,20,20,100796,23.14,3
8528,193.733,3.4,-9.085,-7.81686,-6.1618900000000005,-13.522479999999998,0.007063,0.039347,0.846117,1800.0,12990.0,4210.0,46.8,10.09,00000000 00000000,32.826403786,34.956568972,24.155,0.65,-0.38,0.02,0.01,-1.17,3.64,0.0,-0.87,-0.53,32.82598672,34.956576496,25.523,1.1,211.45,0.25,307607745,2172,111,11111100,15,25,100,0.0,0,45,45,100798,22.97,0
8529,194.11599999999999,3.32,-9.012,-3.3082800000000003,10.56799,-14.91165,-0.011615,0.030853,0.858915,1780.0,13040.0,4210.0,46.8,10.12,00000000 00000000,32.826403688,34.95656926,24.153,0.69,-0.38,-0.01,0.01,-1.16,3.64,0.03,-0.87,-0.56,32.825986322,34.956576158000004,25.52,1.08,215.59,-0.06,307607770,2172,111,11111100,15,25,100,0.0,0,20,20,100796,23.05,3
8530,194.459,3.3339999999999996,-8.552,0.00448,23.33911,-11.45958,0.024378,0.009238,0.8925049999999999,1810.0,13080.0,4170.0,46.8,10.07,00000000 00000000,32.826403602,34.956569449,24.152,0.72,-0.38,-0.04,0.01,-1.15,3.63,0.06,-0.87,-0.59,32.825986322,34.956576158000004,25.52,1.08,215.59,-0.06,307607795,2172,111,11111100,15,25,100,0.0,0,45,45,100796,23.05,0
8531,194.671,3.407,-7.888999999999999,3.62506,27.73985,-6.40315,0.07496599999999999,0.043262,0.93778,1880.0,13120.0,4150.0,46.8,10.1,00000000 00000000,32.826403502,34.956569736999995,24.174,0.74,-0.38,-0.06,0.01,-1.13,3.63,0.09,-0.88,-0.61,32.825985886,34.956575797,25.532,1.18,215.03,0.24,307607820,2172,111,11111100,15,25,100,0.0,0,20,20,100796,23.05,3
8532,194.774,3.56,-7.167999999999999,7.201969999999999,29.66248,-3.78605,0.09725,0.054903,0.987527,1940.0,13110.0,4060.0,46.8,10.08,00000000 00000000,32.826403415,34.956569936,24.173,0.74,-0.38,-0.07,0.01,-1.12,3.62,0.1,-0.88,-0.62,32.825985886,34.956575797,25.532,1.18,215.03,0.24,307607845,2172,111,11111100,15,25,100,0.0,0,45,45,100796,23.05,0
8533,194.822,3.772,-6.39,8.91659,31.49822,-1.56713,0.130548,0.040272,1.0421479999999999,2030.0,13080.0,3970.0,46.8,10.12,00000000 00000000,32.826403317,34.956570217,24.172,0.75,-0.38,-0.06,0.01,-1.11,3.62,0.09,-0.88,-0.62,32.825985476,34.956575523000005,25.513,1.04,209.38,-0.38,307607870,2172,111,11111100,15,25,100,0.0,0,20,20,100798,22.97,3
8534,194.77,4.012,-5.688,10.91654,23.472170000000002,3.96326,0.168973,0.038728,1.083445,2120.0,13050.0,3910.0,46.8,10.07,00000000 00000000,32.826403232,34.956570416999995,24.17,0.74,-0.37,-0.04,0.01,-1.09,3.62,0.07,-0.88,-0.61,32.825985476,34.956575523000005,25.513,1.04,209.38,-0.38,307607895,2172,111,11111100,15,25,100,0.0,0,45,45,100796,23.05,0
8535,194.618,4.316,-5.247999999999999,14.55556,13.362520000000002,4.02501,0.15700699999999998,0.056298,1.12071,2210.0,13010.0,3880.0,46.8,10.1,00000000 00000000,32.826403138,34.956570681,24.162,0.72,-0.36,-0.02,0.01,-1.08,3.61,0.04,-0.89,-0.59,32.825985052,34.956575306,25.505,1.02,203.37,-0.14,307607920,2172,111,11111100,15,25,100,0.0,0,20,20,100798,22.97,3
8536,194.58700000000002,4.71,-4.978,16.55596,9.34925,-5.13457,0.15054800000000002,0.034097,1.1235870000000001,2240.0,12940.0,3830.0,46.9,10.07,00000000 00000000,32.826403058000004,34.956570875,24.162,0.71,-0.34,0.01,0.01,-1.07,3.61,0.01,-0.9,-0.58,32.825985052,34.956575306,25.505,1.02,203.37,-0.14,307607945,2172,111,11111100,15,25,100,0.0,0,45,45,100796,23.05,0
8537,194.791,5.127999999999999,-4.809,14.967379999999999,-0.15384,-12.108089999999999,0.14718599999999998,0.051102,1.13432,2270.0,12890.0,3810.0,46.9,10.09,00000000 00000000,32.826402969,34.956571122,24.164,0.7,-0.33,0.04,0.01,-1.05,3.6,-0.01,-0.91,-0.56,32.825984613,34.956575087,25.472,1.05,202.82,-0.66,307607970,2172,111,11111100,15,25,100,0.0,0,20,20,100798,22.97,3
8538,195.077,5.504,-5.046,12.7472,-20.21665,-13.62785,0.158888,0.047351,1.19102,2250.0,12840.0,3810.0,46.9,10.07,00000000 00000000,32.826402896,34.95657131,24.165,0.69,-0.31,0.08,0.01,-1.04,3.6,-0.05,-0.92,-0.55,32.825984613,34.956575087,25.472,1.05,202.82,-0.66,307607995,2172,111,11111100,15,25,100,0.0,0,45,45,100796,23.14,8
8539,195.44400000000002,5.773,-5.63,4.67554,-26.02563,-17.21712,0.184157,-0.0032909999999999997,1.200617,2200.0,12820.0,3900.0,46.9,10.07,00000000 00000000,32.826402814,34.95657154,24.163,0.68,-0.28,0.13,0.01,-1.03,3.59,-0.1,-0.94,-0.53,32.825984144,34.956574895,25.474,1.1,199.1,0.04,307608020,2172,111,11111100,15,25,100,0.0,0,20,20,100796,23.05,3
8540,195.889,5.795,-6.1370000000000005,-5.76065,-17.94066,-16.42529,0.18661,0.010374,1.108565,2100.0,12780.0,3920.0,46.9,10.07,00000000 00000000,32.826402753,34.956571722,24.167,0.67,-0.25,0.17,0.01,-1.01,3.59,-0.15,-0.97,-0.51,32.825984144,34.956574895,25.474,1.1,199.1,0.04,307608045,2172,111,11111100,15,25,100,0.0,0,45,45,100796,23.05,0
8541,196.25400000000002,5.61,-6.436,-11.435960000000001,-8.49618,-11.1866,0.102376,0.050852999999999995,1.0466739999999999,2020.0,12790.0,3940.0,46.9,10.1,00000000 00000000,32.826402681,34.95657193,24.194,0.67,-0.23,0.2,0.01,-1.0,3.58,-0.17,-0.98,-0.5,32.825983619,34.956574444,25.499,1.43,215.96,0.48,307608070,2172,111,11111100,16,25,100,0.0,0,20,20,100796,23.05,3
8542,196.53099999999998,5.315,-6.54,-14.01839,-3.27197,-8.24095,0.095796,0.095671,1.010334,1960.0,12820.0,3940.0,46.9,10.08,00000000 00000000,32.826402629,34.956572111,24.199,0.67,-0.23,0.2,0.01,-0.99,3.58,-0.18,-0.99,-0.51,32.825983619,34.956574444,25.499,1.43,215.96,0.48,307608095,2172,111,11111100,16,25,100,0.0,0,45,45,100794,23.22,0
8543,196.75,4.988,-6.607,-13.643020000000002,-4.19035,-6.53776,0.14008900000000002,0.136512,0.9885440000000001,1930.0,12870.0,3940.0,46.9,10.11,00000000 00000000,32.826402561,34.956572314,24.194,0.67,-0.23,0.21,0.01,-0.97,3.57,-0.18,-0.98,-0.51,32.825983125,34.956574188000005,25.501,1.19,203.6,0.04,307608120,2172,111,11111100,16,25,100,0.0,0,20,20,100794,23.22,3
8544,196.985,4.683,-6.685,-12.61704,-2.40341,-10.00072,0.17119,0.139328,0.9959129999999999,1900.0,12900.0,3930.0,46.9,10.08,00000000 00000000,32.826402506,34.956572492,24.199,0.66,-0.24,0.21,0.01,-0.96,3.56,-0.18,-0.96,-0.5,32.825983125,34.956574188000005,25.501,1.19,203.6,0.04,307608145,2172,111,11111100,16,25,100,0.0,0,45,45,100796,23.14,0
8545,197.30900000000003,4.43,-6.681,-10.36501,-0.40560999999999997,-12.42413,0.191873,0.099382,0.9280079999999999,1890.0,12930.0,3940.0,46.9,10.1,00000000 00000000,32.826402436,34.956572677,24.221,0.63,-0.25,0.21,0.01,-0.95,3.56,-0.18,-0.95,-0.48,32.825982671999995,34.956573936999995,25.522,1.1,205.12,0.42,307608170,2172,111,11111100,15,25,100,0.0,0,20,20,100796,23.14,3
8546,197.60299999999998,4.23,-6.752000000000001,-8.36716,-8.119060000000001,-8.13792,0.148259,0.055323000000000004,0.8274600000000001,1860.0,12960.0,3940.0,46.8,10.08,00000000 00000000,32.826402379,34.956572845,24.226,0.61,-0.25,0.18,0.01,-0.93,3.55,-0.16,-0.94,-0.46,32.825982671999995,34.956573936999995,25.522,1.1,205.12,0.42,307608195,2172,111,11111100,15,25,100,0.0,0,45,45,100796,23.14,0
8547,197.77900000000002,4.048,-7.035,-8.26073,-14.231320000000002,-4.92594,0.099993,0.050141000000000005,0.800147,1830.0,13000.0,4000.0,46.8,10.08,00000000 00000000,32.826402315,34.956573016,24.231,0.61,-0.24,0.14,0.01,-0.92,3.55,-0.11,-0.94,-0.45,32.82598234,34.956573824,25.51,0.76,196.01,-0.24,307608220,2172,111,11111100,15,25,100,0.0,0,20,20,100796,23.14,3
8548,197.928,3.838,-7.374,-9.83335,-12.14749,-5.20071,0.076537,0.042934,0.825909,1780.0,13010.0,4020.0,46.8,10.07,00000000 00000000,32.82640226,34.95657318,24.234,0.61,-0.24,0.09,0.01,-0.91,3.54,-0.07,-0.94,-0.45,32.82598234,34.956573824,25.51,0.76,196.01,-0.24,307608245,2172,111,11111100,15,25,100,0.0,0,45,45,100794,23.22,0
8549,198.114,3.6039999999999996,-7.568,-10.395669999999999,-3.67075,-7.05543,0.016749,0.029005,0.810654,1720.0,13010.0,4030.0,46.8,10.1,00000000 00000000,32.826402194,34.95657333,24.238,0.62,-0.24,0.05,0.01,-0.89,3.54,-0.03,-0.94,-0.46,32.825981932,34.956573274,25.549,1.37,228.74,0.77,307608270,2172,111,11111100,15,25,100,0.0,0,20,20,100794,23.22,3
8550,198.329,3.373,-7.559,-10.14172,2.42129,-7.177910000000001,-0.023757,0.024311000000000003,0.7672979999999999,1680.0,13020.0,4020.0,46.8,10.07,00000000 00000000,32.826402139,34.9565735,24.239,0.65,-0.24,0.0,0.01,-0.88,3.53,0.02,-0.94,-0.49,32.825981932,34.956573274,25.549,1.37,228.74,0.77,307608295,2172,111,11111100,15,25,100,0.0,0,45,45,100794,23.22,0
8551,198.547,3.142,-7.442,-10.7682,5.5528,-7.51709,-0.017803,0.021240000000000002,0.81892,1670.0,13050.0,4030.0,46.8,10.12,00000000 00000000,32.826402063,34.956573665,24.235,0.68,-0.25,-0.05,0.01,-0.87,3.52,0.07,-0.94,-0.52,32.825981339,34.956573213,25.544,1.32,184.91,-0.1,307608320,2172,111,11111100,15,25,100,0.0,0,20,20,100796,23.14,3
8552,198.74200000000002,2.8760000000000003,-7.261,-12.362110000000001,8.13294,-4.02757,-0.002378,0.005504,0.8960440000000001,1660.0,13080.0,4000.0,46.8,10.08,00000000 00000000,32.826402006,34.956573851,24.233,0.7,-0.25,-0.08,0.01,-0.85,3.52,0.11,-0.95,-0.54,32.825981339,34.956573213,25.544,1.32,184.91,-0.1,307608345,2172,111,11111100,15,25,100,0.0,0,45,45,100794,23.22,0
8553,198.797,2.555,-7.02,-13.28573,11.08592,2.58244,-0.006298,0.031202999999999998,0.9836309999999999,1660.0,13130.0,3970.0,46.8,10.11,00000000 00000000,32.826401937,34.956574022,24.232,0.73,-0.25,-0.1,0.01,-0.84,3.51,0.13,-0.95,-0.57,32.825980919,34.9565731,25.503,0.95,192.87,-0.81,307608370,2172,111,11111100,15,25,100,0.0,0,20,20,100794,23.22,3
8554,198.713,2.229,-6.707999999999999,-11.46848,13.79385,6.68428,0.024156999999999998,0.068185,1.0528110000000002,1670.0,13160.0,3920.0,46.8,10.08,00000000 00000000,32.826401876999995,34.956574223000004,24.229,0.76,-0.27,-0.1,0.01,-0.83,3.51,0.13,-0.95,-0.6,32.825980919,34.9565731,25.503,0.95,192.87,-0.81,307608395,2172,111,11111100,15,25,100,0.0,0,45,45,100796,23.14,0
8555,198.517,1.949,-6.392,-8.964839999999999,11.34418,12.05211,0.069986,0.060302999999999995,1.098076,1700.0,13200.0,3890.0,46.8,10.1,00000000 00000000,32.826401804,34.956574396,24.206,0.77,-0.28,-0.08,0.01,-0.82,3.5,0.11,-0.94,-0.62,32.825980515,34.956572888000004,25.483,0.98,203.83,-0.39,307608420,2172,111,11111100,15,25,100,0.0,0,20,20,100794,23.22,3
8556,198.149,1.704,-6.147,-7.7231,10.227730000000001,19.5168,0.090934,0.054508,1.140112,1730.0,13190.0,3840.0,46.8,10.08,00000000 00000000,32.82640174,34.956574604000004,24.205,0.77,-0.29,-0.05,0.01,-0.8,3.49,0.08,-0.93,-0.62,32.825980515,34.956572888000004,25.483,0.98,203.83,-0.39,307608445,2172,111,11111100,15,25,100,0.0,0,45,45,100794,23.22,0
8557,197.609,1.4409999999999998,-5.837000000000001,-9.2608,16.22564,25.515,0.099785,0.039916,1.12973,1780.0,13170.0,3830.0,46.8,10.12,00000000 00000000,32.82640166,34.956574768,24.21,0.78,-0.29,-0.01,0.01,-0.79,3.49,0.04,-0.92,-0.63,32.825980019,34.956572603000005,25.485,1.22,205.88,0.03,307608470,2172,111,11111100,15,25,100,0.0,0,20,20,100794,23.22,3
8558,196.92700000000002,1.095,-5.414,-13.241879999999998,18.19458,31.031440000000003,0.039355,0.020499,1.051088,1810.0,13130.0,3810.0,46.8,10.07,00000000 00000000,32.826401593,34.956574978,24.209,0.78,-0.3,0.0,0.01,-0.78,3.48,0.02,-0.92,-0.63,32.825980019,34.956572603000005,25.485,1.22,205.88,0.03,307608495,2172,111,11111100,15,25,100,0.0,0,45,45,100794,23.22,0
8559,196.15900000000002,0.644,-5.002,-16.60696,13.759020000000001,33.72943,-0.022425,0.029866000000000004,1.044076,1870.0,13110.0,3790.0,46.8,10.11,00000000 00000000,32.826401509,34.956575133,24.192,0.8,-0.3,0.01,0.01,-0.77,3.47,0.01,-0.91,-0.65,32.825979456,34.956572226999995,25.472,1.43,209.41,-0.24,307608520,2172,111,11111100,15,25,100,0.0,0,20,20,100794,23.22,3
8560,195.273,0.151,-4.876,-15.79149,-5.398969999999999,41.40468,0.137854,0.07858899999999999,1.1551120000000001,1900.0,13090.0,3750.0,46.8,10.08,00000000 00000000,32.826401438000005,34.95657535,24.193,0.81,-0.32,0.03,0.01,-0.75,3.47,0.0,-0.9,-0.66,32.825979456,34.956572226999995,25.472,1.43,209.41,-0.24,307608545,2172,111,11111100,15,25,100,0.0,0,45,45,100794,23.22,0
8561,194.143,0.302,-5.25,-12.0989,-21.665010000000002,50.92105,0.23451599999999997,0.068756,1.224129,1910.0,13070.0,3780.0,46.8,10.11,00000000 00000000,32.826401353,34.956575496,24.192,0.78,-0.33,0.08,0.01,-0.74,3.46,-0.05,-0.88,-0.64,32.825978997,34.956571902,25.474,1.18,210.87,0.02,307608570,2172,111,11111100,15,25,100,0.0,0,20,20,100794,23.22,3
8562,192.88,0.65,-5.751,-5.27888,-15.74722,50.1802,0.179564,-0.0017640000000000002,1.209976,1870.0,13010.0,3830.0,46.8,10.05,00000000 00000000,32.826401276,34.956575701,24.195,0.75,-0.34,0.14,0.01,-0.73,3.45,-0.11,-0.86,-0.61,32.825978997,34.956571902,25.474,1.18,210.87,0.02,307608595,2172,111,11111100,15,25,100,0.0,0,45,45,100794,23.22,0
8563,191.739,0.789,-5.894,3.81679,3.9407099999999997,41.03699,0.14257,-0.033615,1.121793,1880.0,12930.0,3930.0,46.8,10.09,00000000 00000000,32.82640119,34.956575828000005,24.201,0.74,-0.34,0.18,0.01,-0.71,3.45,-0.16,-0.86,-0.6,32.825978565999996,34.956571630999996,25.506,1.08,207.98,0.65,307608620,2172,111,11111100,15,25,100,0.0,0,20,20,100796,23.14,3
8564,190.842,0.649,-5.584,14.818470000000001,16.955779999999997,29.833920000000003,0.156074,-0.019769,1.041332,1930.0,12840.0,3980.0,46.8,10.09,00000000 00000000,32.826401114,34.956576026,24.206,0.73,-0.33,0.21,0.01,-0.7,3.44,-0.18,-0.86,-0.59,32.825978565999996,34.956571630999996,25.506,1.08,207.98,0.65,307608645,2172,111,11111100,15,25,100,0.0,0,45,45,100794,23.22,0
8565,190.158,0.196,-5.183,25.93854,12.84879,21.9383,0.22069299999999997,0.014618,1.000826,1990.0,12730.0,3930.0,46.9,10.11,00000000 00000000,32.826401029,34.956576138,24.224,0.7,-0.33,0.21,0.01,-0.69,3.43,-0.19,-0.86,-0.57,32.825978097,34.956571396,25.525,1.12,202.91,0.37,307608670,2172,111,11111100,15,25,100,0.0,0,20,20,100796,23.05,3
8566,189.642,0.491,-4.963,31.02855,5.58168,13.56313,0.270868,0.05169,0.9565440000000001,2020.0,12600.0,3890.0,46.9,10.09,00000000 00000000,32.826400955,34.956576322,24.229,0.66,-0.33,0.21,0.01,-0.68,3.42,-0.19,-0.85,-0.53,32.825978097,34.956571396,25.525,1.12,202.91,0.37,307608695,2172,111,11111100,15,25,100,0.0,0,45,45,100796,23.05,0
8567,189.382,1.2429999999999999,-4.843999999999999,30.224079999999997,4.62005,2.23846,0.260817,0.041362,0.910098,2050.0,12490.0,3900.0,46.9,10.11,00000000 00000000,32.826400871,34.956576409,24.235,0.61,-0.33,0.2,0.01,-0.67,3.42,-0.18,-0.84,-0.48,32.82597768,34.956571212,25.515,0.98,200.47,-0.2,307608720,2172,111,11111100,15,25,100,0.0,0,20,20,100796,23.05,3
8568,189.372,1.9680000000000002,-4.777,27.2232,-0.8082199999999999,-4.98231,0.215656,0.011696,0.8208620000000001,2060.0,12380.0,3910.0,46.9,10.08,00000000 00000000,32.826400797,34.956576567,24.24,0.57,-0.32,0.18,0.01,-0.65,3.41,-0.15,-0.83,-0.44,32.82597768,34.956571212,25.515,0.98,200.47,-0.2,307608745,2172,111,11111100,15,25,100,0.0,0,45,45,100796,23.05,0
8569,189.43900000000002,2.592,-4.958,21.71213,-15.1931,-3.15367,0.134225,-0.02126,0.7330720000000001,2060.0,12300.0,3950.0,46.9,10.11,00000000 00000000,32.826400715,34.956576623000004,24.245,0.54,-0.31,0.12,0.01,-0.64,3.4,-0.1,-0.84,-0.41,32.825977237,34.956570935,25.497,1.11,207.83,-0.34,307608770,2172,111,11111100,15,25,100,0.0,0,20,20,100798,22.97,3
8570,189.382,3.0389999999999997,-5.577000000000001,13.754539999999999,-33.8929,5.23324,0.048960000000000004,-0.027297000000000002,0.684353,2010.0,12220.0,3990.0,46.9,10.07,00000000 00000000,32.826400645999996,34.956576767,24.247,0.53,-0.3,0.05,0.01,-0.63,3.39,-0.03,-0.85,-0.39,32.825977237,34.956570935,25.497,1.11,207.83,-0.34,307608795,2172,111,11111100,15,25,100,0.0,0,45,45,100798,22.97,0
8571,189.162,3.241,-6.561,3.9091699999999996,-40.28586,8.75202,-0.017325,-0.009470999999999999,0.7250340000000001,1920.0,12170.0,4090.0,46.9,10.12,00000000 00000000,32.82640057,34.956576816,24.249,0.55,-0.29,-0.01,0.01,-0.62,3.39,0.03,-0.86,-0.41,32.82597678,34.956570743,25.513,1.07,199.46,0.31,307608820,2172,111,11111100,15,25,100,0.0,0,20,20,100796,23.05,3
8572,189.016,3.182,-7.461,-7.19428,-28.506970000000003,2.0386,-0.046683999999999996,-0.003071,0.808895,1780.0,12140.0,4150.0,46.9,10.09,00000000 00000000,32.826400505,34.956576967,24.248,0.58,-0.28,-0.07,0.01,-0.6,3.38,0.1,-0.87,-0.43,32.82597678,34.956570743,25.513,1.07,199.46,0.31,307608845,2172,111,11111100,15,25,100,0.0,0,45,45,100798,22.89,0
8573,189.108,2.897,-7.972,-15.45659,-13.862739999999999,-5.16129,0.003152,0.010921,0.9159450000000001,1690.0,12150.0,4210.0,46.9,10.09,00000000 00000000,32.826400432,34.956577024,24.247,0.61,-0.28,-0.11,0.01,-0.59,3.37,0.13,-0.88,-0.47,32.825976305,34.956570516999996,25.529,1.13,201.93,0.32,307608870,2172,111,11111100,15,25,100,0.0,0,20,20,100798,22.97,3
8574,189.359,2.495,-8.173,-18.907870000000003,-4.52115,-10.08973,0.050821,0.010876,1.001776,1620.0,12200.0,4230.0,46.9,10.07,00000000 00000000,32.826400369,34.956577192,24.244,0.63,-0.27,-0.12,0.01,-0.58,3.36,0.15,-0.88,-0.49,32.825976305,34.956570516999996,25.529,1.13,201.93,0.32,307608895,2172,111,11111100,15,25,100,0.0,0,45,45,100796,23.05,0
8575,189.75599999999997,2.051,-8.19,-20.602520000000002,1.67914,-16.30925,0.11440299999999999,0.051047,1.090262,1570.0,12280.0,4250.0,46.9,10.1,00000000 00000000,32.826400298,34.95657725,24.242,0.65,-0.27,-0.11,0.01,-0.57,3.35,0.14,-0.88,-0.51,32.825975863000004,34.956570141,25.505,1.2,215.67,-0.48,307608920,2172,111,11111100,15,25,100,0.0,0,20,20,100796,23.05,3
8576,190.325,1.614,-8.061,-20.06071,7.29142,-23.73724,0.19073800000000002,0.065032,1.199419,1550.0,12370.0,4250.0,46.9,10.08,00000000 00000000,32.826400235,34.956577425,24.239,0.65,-0.28,-0.07,0.01,-0.55,3.35,0.1,-0.88,-0.51,32.825975863000004,34.956570141,25.505,1.2,215.67,-0.48,307608945,2172,111,11111100,15,25,100,0.0,0,45,45,100796,23.05,0
8577,191.06799999999998,1.247,-7.781000000000001,-17.13008,13.2278,-30.814909999999998,0.259546,0.044274,1.251209,1560.0,12460.0,4260.0,46.9,10.1,00000000 00000000,32.826400162,34.956577478,24.239,0.63,-0.28,-0.01,0.01,-0.54,3.34,0.04,-0.87,-0.5,32.825975428,34.95656985,25.478,1.1,209.41,-0.55,307608970,2172,111,11111100,15,25,100,0.0,0,20,20,100798,22.89,3
8578,191.94299999999998,0.9470000000000001,-7.422999999999999,-16.11823,12.98443,-34.77107,0.267678,0.019159,1.2242790000000001,1560.0,12550.0,4240.0,46.9,10.05,00000000 00000000,32.826400097,34.956577644,24.24,0.6,-0.28,0.05,0.01,-0.53,3.33,-0.02,-0.86,-0.47,32.825975428,34.95656985,25.478,1.1,209.41,-0.55,307608995,2172,111,11111100,15,25,100,0.0,0,45,45,100798,22.89,8
8579,192.88,0.6609999999999999,-7.166,-15.71604,6.07065,-36.7625,0.18928,0.031389999999999994,1.194046,1580.0,12670.0,4270.0,46.9,10.08,00000000 00000000,32.82640002,34.956577671999995,24.243,0.58,-0.28,0.1,0.01,-0.52,3.32,-0.07,-0.86,-0.45,32.825974808000005,34.956569416,25.507,1.59,210.62,0.58,307609020,2172,111,11111100,15,25,100,0.0,0,20,20,100800,22.8,3
8580,193.88099999999997,0.419,-7.1,-13.2966,-0.45941000000000004,-40.74684,0.12073900000000001,0.022356,1.162625,1560.0,12770.0,4280.0,46.9,10.05,00000000 00000000,32.826399955999996,34.956577828,24.246,0.58,-0.28,0.15,0.01,-0.51,3.31,-0.12,-0.85,-0.44,32.825974808000005,34.956569416,25.507,1.59,210.62,0.58,307609045,2172,111,11111100,15,25,100,0.0,0,45,45,100800,22.8,0
8581,194.981,0.266,-7.106,-9.574710000000001,0.12162,-44.46413,0.124097,-0.002971,1.1077569999999999,1520.0,12860.0,4270.0,46.9,10.11,00000000 00000000,32.826399882,34.956577849,24.265,0.58,-0.29,0.18,0.01,-0.5,3.3,-0.16,-0.85,-0.45,32.825974324,34.956569127,25.525,1.2,206.74,0.36,307609070,2172,111,11111100,18,25,100,0.0,0,20,20,100798,22.97,3
8582,196.127,0.209,-7.058,-6.483619999999999,3.4914400000000003,-45.74452,0.136579,-0.011564,1.020349,1470.0,12920.0,4240.0,46.9,10.08,00000000 00000000,32.826399816999995,34.956578005,24.27,0.58,-0.28,0.2,0.01,-0.48,3.3,-0.18,-0.85,-0.45,32.825974324,34.956569127,25.525,1.2,206.74,0.36,307609095,2172,111,11111100,18,25,100,0.0,0,45,45,100796,23.05,0
8583,197.25400000000002,0.209,-6.968,-4.445069999999999,2.1475400000000002,-43.2801,0.15981700000000001,0.027698,0.9496479999999999,1440.0,12980.0,4250.0,46.9,10.09,00000000 00000000,32.826399746,34.956578023,24.276,0.57,-0.28,0.2,0.01,-0.47,3.29,-0.18,-0.84,-0.44,32.825973886,34.956568917,25.519,1.04,202.01,-0.11,307609120,2172,111,11111100,18,25,100,0.0,0,20,20,100798,22.97,3
8584,198.28599999999997,0.257,-6.997000000000001,-1.7416900000000002,-5.15944,-38.8297,0.176728,0.061277,0.920115,1380.0,13040.0,4250.0,46.9,9.94,00000000 00000000,32.826399681,34.956578173000004,24.281,0.55,-0.29,0.19,0.01,-0.46,3.28,-0.16,-0.83,-0.42,32.825973886,34.956568917,25.519,1.04,202.01,-0.11,307609145,2172,111,11111100,18,25,100,0.0,0,45,45,100796,23.05,0
8585,199.195,0.35,-7.205,-0.36116,-11.15446,-34.38149,0.185218,0.057590999999999996,0.911803,1320.0,13110.0,4270.0,46.9,10.1,00000000 00000000,32.826399607,34.956578173000004,24.295,0.53,-0.29,0.17,0.01,-0.45,3.27,-0.15,-0.82,-0.41,32.825973427,34.95656859,25.534,1.18,211.03,0.28,307609170,2172,111,11111100,17,25,100,0.0,0,20,20,100796,23.05,3
8586,199.99900000000002,0.428,-7.532,-2.13722,-15.83284,-29.486590000000003,0.2182,0.047939999999999997,0.9083760000000001,1280.0,13130.0,4310.0,46.9,10.07,00000000 00000000,32.826399539,34.956578312,24.299,0.5,-0.3,0.15,0.01,-0.44,3.26,-0.13,-0.8,-0.39,32.825973427,34.95656859,25.534,1.18,211.03,0.28,307609195,2172,111,11111100,17,25,100,0.0,0,45,45,100796,23.05,0
8587,200.637,0.43700000000000006,-7.997000000000001,-3.4296599999999997,-21.12891,-21.199820000000003,0.218277,0.040869,0.924414,1230.0,13160.0,4390.0,46.9,10.11,00000000 00000000,32.826399464,34.956578291999996,24.299,0.47,-0.3,0.14,0.01,-0.42,3.25,-0.11,-0.79,-0.36,32.825972967,34.956568241,25.537,1.21,212.63,0.06,307609220,2172,111,11111100,17,25,100,0.0,0,20,20,100796,23.05,3
8588,201.085,0.441,-8.546,-1.0437,-22.4781,-14.70018,0.171827,0.023014,0.902164,1150.0,13170.0,4440.0,46.9,10.08,00000000 00000000,32.826399396,34.956578416,24.302,0.45,-0.3,0.12,0.01,-0.41,3.24,-0.1,-0.78,-0.34,32.825972967,34.956568241,25.537,1.21,212.63,0.06,307609245,2172,111,11111100,17,25,100,0.0,0,45,45,100796,23.05,0
8589,201.39700000000002,0.502,-9.079,1.67145,-19.6793,-10.79983,0.11146500000000001,-0.004004,0.846802,1070.0,13170.0,4520.0,46.9,10.09,00000000 00000000,32.82639932,34.956578388000004,24.306,0.45,-0.3,0.09,0.01,-0.4,3.23,-0.07,-0.78,-0.34,32.825972513,34.956568106,25.522,1.03,194.16,-0.3,307609270,2172,111,11111100,17,25,100,0.0,0,20,20,100796,23.05,3
8590,201.609,0.59,-9.494,2.13918,-13.281220000000001,-7.20233,0.054891999999999996,-0.009379,0.810701,-990.0,13170.0,4590.0,46.9,10.09,00000000 00000000,32.826399252,34.95657851,24.308,0.46,-0.3,0.05,0.01,-0.39,3.22,-0.03,-0.78,-0.35,32.825972513,34.956568106,25.522,1.03,194.16,-0.3,307609295,2172,111,11111100,17,25,100,0.0,0,45,45,100796,23.05,0
8591,201.75900000000001,0.655,-9.741,0.6751199999999999,-6.707160000000001,-5.97823,0.009241,-0.017422,0.79805,-940.0,13160.0,4670.0,46.9,10.1,00000000 00000000,32.826399178,34.956578483,24.312,0.48,-0.31,0.0,0.01,-0.38,3.21,0.01,-0.78,-0.37,32.825972106,34.956567926,25.524,0.96,200.47,0.04,307609320,2172,111,11111100,17,25,100,0.0,0,20,20,100796,23.05,3
8592,201.903,0.657,-9.841000000000001,-2.9897400000000003,-1.9359099999999998,-4.92278,-0.01091,-0.026394,0.800475,-910.0,13140.0,4710.0,46.9,10.08,00000000 00000000,32.826399107,34.956578618,24.312,0.51,-0.31,-0.04,0.01,-0.37,3.2,0.06,-0.79,-0.41,32.825972106,34.956567926,25.524,0.96,200.47,0.04,307609345,2172,111,11111100,17,25,100,0.0,0,45,45,100796,23.05,0
8593,202.024,0.5429999999999999,-9.833,-7.524439999999999,3.1090299999999997,-3.2578400000000003,0.012065000000000001,-0.012748,0.869351,-890.0,13130.0,4740.0,46.9,10.1,00000000 00000000,32.826399029,34.956578598,24.331,0.55,-0.32,-0.08,0.01,-0.35,3.19,0.11,-0.79,-0.44,32.825971636,34.956567585,25.534,1.22,211.47,0.19,307609370,2172,111,11111100,17,25,100,0.0,0,20,20,100796,23.05,3
8594,202.12,0.32,-9.672,-11.20528,9.0728,-0.65478,0.041825,-0.004785,0.9198430000000001,-870.0,13140.0,4730.0,46.9,10.07,00000000 00000000,32.826398956,34.956578749,24.328,0.57,-0.33,-0.11,0.01,-0.34,3.18,0.13,-0.79,-0.47,32.825971636,34.956567585,25.534,1.22,211.47,0.19,307609395,2172,111,11111100,17,25,100,0.0,0,45,45,100796,23.14,0
8595,202.122,0.01,-9.388,-12.9276,13.899939999999999,4.42066,0.05826900000000001,0.002494,0.973886,-900.0,13170.0,4730.0,46.9,10.08,00000000 00000000,32.826398876,34.95657874,24.317,0.59,-0.33,-0.12,0.01,-0.33,3.17,0.15,-0.79,-0.49,32.825971236,34.956567317,25.521,1.01,209.52,-0.25,307609420,2172,111,11111100,17,25,100,0.0,0,20,20,100796,23.14,3
8596,202.03099999999998,0.353,-8.972000000000001,-15.04996,19.31277,7.05147,0.09751900000000001,0.014672,1.066418,-940.0,13230.0,4710.0,46.9,10.07,00000000 00000000,32.826398799,34.956578903,24.314,0.61,-0.35,-0.12,0.01,-0.32,3.16,0.15,-0.79,-0.51,32.825971236,34.956567317,25.521,1.01,209.52,-0.25,307609445,2172,111,11111100,17,25,100,0.0,0,45,45,100796,23.14,0
8597,201.885,0.8,-8.469,-18.49853,19.27119,10.489939999999999,0.158546,0.011509,1.148487,1000.0,13270.0,4680.0,46.9,10.11,00000000 00000000,32.826398714,34.956578895999996,24.319,0.61,-0.35,-0.09,0.01,-0.31,3.15,0.12,-0.78,-0.52,32.8259708,34.956567019,25.521,1.11,209.93,0.0,307609470,2172,111,11111100,17,25,100,0.0,0,20,20,100796,23.14,3
8598,201.6,1.315,-8.058,-18.04149,13.001710000000001,18.50176,0.16003900000000001,0.034773,1.195797,1050.0,13300.0,4620.0,46.9,10.07,00000000 00000000,32.826398632,34.956579061,24.317,0.61,-0.36,-0.05,0.01,-0.3,3.14,0.08,-0.77,-0.52,32.8259708,34.956567019,25.521,1.11,209.93,0.0,307609495,2172,111,11111100,17,25,100,0.0,0,45,45,100794,23.22,0
8599,201.149,1.804,-7.73,-16.18431,14.64281,20.71596,0.10116599999999999,0.058405,1.202683,1100.0,13320.0,4620.0,46.9,10.11,00000000 00000000,32.826398540999996,34.956579045,24.315,0.61,-0.39,0.0,0.01,-0.29,3.13,0.02,-0.74,-0.53,32.825970291,34.95656669,25.518,1.28,208.63,-0.05,307609520,2172,111,11111100,17,25,100,0.0,0,20,20,100796,23.05,3
8600,200.755,2.281,-7.2589999999999995,-17.93921,19.803060000000002,15.908929999999998,0.096261,0.033678,1.1886379999999999,1160.0,13320.0,4580.0,46.9,10.08,00000000 00000000,32.826398449,34.95657921,24.315,0.61,-0.41,0.04,0.01,-0.27,3.12,-0.01,-0.72,-0.54,32.825970291,34.95656669,25.518,1.28,208.63,-0.05,307609545,2172,111,11111100,17,25,100,0.0,0,45,45,100794,23.22,0
8601,200.388,2.785,-6.846,-17.57897,10.09511,20.07444,0.178525,-0.017886000000000003,1.198762,1240.0,13350.0,4550.0,46.9,10.1,00000000 00000000,32.82639835,34.956579190999996,24.318,0.61,-0.43,0.09,0.01,-0.26,3.11,-0.06,-0.7,-0.55,32.825969875,34.956566400999996,25.493,1.06,210.35,-0.51,307609570,2172,111,11111100,17,25,100,0.0,0,20,20,100796,23.14,3
8602,199.761,3.2439999999999998,-6.733,-12.27243,-2.64394,34.76243,0.24331399999999997,-0.043875,1.189905,1290.0,13380.0,4550.0,46.9,10.08,00000000 00000000,32.826398252,34.956579352,24.321,0.59,-0.43,0.15,0.01,-0.25,3.1,-0.12,-0.69,-0.53,32.825969875,34.956566400999996,25.493,1.06,210.35,-0.51,307609595,2172,111,11111100,17,25,100,0.0,0,45,45,100796,23.14,0
8603,198.826,3.5669999999999997,-6.7379999999999995,-3.8678,0.98216,40.955459999999995,0.179697,-0.029644999999999998,1.130767,1320.0,13390.0,4600.0,46.9,10.11,00000000 00000000,32.826397756,34.956579315,24.308,0.56,-0.44,0.19,0.01,-0.24,3.09,-0.16,-0.68,-0.51,32.825969548,34.956566005,25.489,1.03,225.7,-0.08,307609620,2172,111,11111100,17,25,100,0.0,0,20,20,100794,23.22,3
8604,197.886,3.6710000000000003,-6.489,4.17385,14.2478,32.95838,0.111293,-0.036702,1.041464,1370.0,13350.0,4630.0,46.8,10.07,00000000 00000000,32.826397655,34.956579465,24.313,0.55,-0.45,0.21,0.01,-0.23,3.08,-0.19,-0.67,-0.5,32.825969548,34.956566005,25.489,1.03,225.7,-0.08,307609645,2172,111,11111100,17,25,100,0.0,0,45,45,100794,23.22,0
8605,197.18900000000002,3.5389999999999997,-6.01,12.48591,17.44175,21.876160000000002,0.152302,-0.03707,0.9666450000000001,1470.0,13290.0,4630.0,46.8,10.12,00000000 00000000,32.82639755,34.956579417,24.315,0.54,-0.45,0.22,0.01,-0.22,3.07,-0.19,-0.66,-0.5,32.825969123,34.956565626999996,25.496,1.17,216.85,0.15,307609670,2172,111,11111100,17,25,100,0.0,0,20,20,100794,23.31,3
8606,196.695,3.175,-5.671,20.24032,6.203930000000001,15.088420000000001,0.21152100000000001,-0.009254,0.9226139999999999,1570.0,13220.0,4600.0,46.8,10.07,00000000 00000000,32.826397447,34.956579561,24.321,0.52,-0.46,0.2,0.01,-0.21,3.06,-0.18,-0.65,-0.47,32.825969123,34.956565626999996,25.496,1.17,216.85,0.15,307609695,2172,111,11111100,17,25,100,0.0,0,45,45,100794,23.22,0
8607,196.329,2.633,-5.654,25.18169,-5.36714,9.72439,0.241351,0.0023899999999999998,0.911953,1650.0,13130.0,4590.0,46.8,10.11,00000000 00000000,32.826397343000004,34.9565795,24.316,0.48,-0.46,0.19,0.01,-0.2,3.04,-0.16,-0.64,-0.44,32.825968768,34.956565422,25.499,0.87,206.07,0.04,307609720,2172,111,11111100,17,25,100,0.0,0,20,20,100794,23.22,3
8608,196.122,1.99,-5.8229999999999995,27.434890000000003,-7.27188,0.66261,0.245398,0.010194,0.911219,1670.0,13040.0,4610.0,46.8,10.08,00000000 00000000,32.826397239,34.956579624,24.321,0.44,-0.46,0.17,0.01,-0.19,3.03,-0.15,-0.62,-0.4,32.825968768,34.956565422,25.499,0.87,206.07,0.04,307609745,2172,111,11111100,17,25,100,0.0,0,45,45,100794,23.31,0
8609,196.16400000000002,1.275,-6.015,28.865779999999997,-9.37612,-8.99404,0.22123800000000002,0.013022999999999998,0.855183,1690.0,12960.0,4670.0,46.8,10.1,00000000 00000000,32.826397133,34.956579532,24.327,0.4,-0.46,0.15,0.01,-0.17,3.02,-0.13,-0.61,-0.36,32.825968309000004,34.956564998000005,25.557,1.29,217.95,1.15,307609770,2172,111,11111100,16,25,100,0.0,0,20,20,100794,23.31,3
8610,196.364,0.537,-6.367999999999999,27.32576,-19.2434,-12.16468,0.153728,0.011789,0.797465,1670.0,12860.0,4690.0,46.8,10.07,00000000 00000000,32.82639703,34.956579635,24.33,0.37,-0.46,0.11,0.01,-0.16,3.01,-0.09,-0.6,-0.34,32.825968309000004,34.956564998000005,25.557,1.29,217.95,1.15,307609795,2172,111,11111100,16,25,100,0.0,0,45,45,100794,23.31,0
8611,196.608,0.124,-6.959,22.77177,-27.33618,-13.44346,0.070452,0.015743,0.7735270000000001,1620.0,12790.0,4760.0,46.8,10.1,00000000 00000000,32.826396923000004,34.956579526,24.341,0.36,-0.46,0.06,0.01,-0.15,3.0,-0.04,-0.6,-0.33,32.82596781,34.956564649,25.566,1.28,210.54,0.17,307609820,2172,111,11111100,16,25,100,0.0,0,20,20,100792,23.39,3
8612,196.937,0.677,-7.6979999999999995,18.075879999999998,-30.746340000000004,-19.148220000000002,0.024361,0.019208000000000003,0.797204,1540.0,12730.0,4810.0,46.8,10.05,00000000 00000000,32.826396818,34.956579625,24.342,0.37,-0.46,0.0,0.01,-0.14,2.99,0.01,-0.59,-0.34,32.82596781,34.956564649,25.566,1.28,210.54,0.17,307609845,2172,111,11111100,16,25,100,0.0,0,45,45,100792,23.39,0
8613,197.442,1.157,-8.399,13.971060000000001,-24.39984,-25.5232,0.006490999999999999,0.011053,0.857567,1470.0,12710.0,4900.0,46.8,10.1,00000000 00000000,32.826396711,34.956579517,24.362,0.39,-0.47,-0.03,0.01,-0.13,2.98,0.05,-0.59,-0.36,32.825967397,34.9565643,25.578,1.12,215.45,0.25,307609870,2172,111,11111100,16,25,100,0.0,0,20,20,100792,23.39,3
8614,198.055,1.5330000000000001,-8.87,8.19669,-14.72425,-26.961990000000004,0.004027,-0.008086,0.895853,1360.0,12670.0,4920.0,46.8,10.08,00000000 00000000,32.826396601999996,34.956579626999996,24.361,0.42,-0.48,-0.06,0.01,-0.12,2.96,0.08,-0.59,-0.39,32.825967397,34.9565643,25.578,1.12,215.45,0.25,307609895,2172,111,11111100,16,25,100,0.0,0,45,45,100792,23.47,0
8615,198.69400000000002,1.761,-9.115,2.19411,-6.2688,-26.24398,0.020799,-0.025197999999999998,0.938127,1300.0,12680.0,4950.0,46.8,10.09,00000000 00000000,32.826396492,34.95657953,24.36,0.45,-0.48,-0.08,0.01,-0.11,2.95,0.11,-0.6,-0.42,32.825966965999996,34.956563993,25.556,1.11,211.05,-0.44,307609920,2172,111,11111100,16,25,100,0.0,0,20,20,100792,23.47,3
8616,199.30200000000002,1.867,-9.144,-1.06047,2.16024,-22.20484,0.05585,-0.027971,0.986926,1270.0,12710.0,4980.0,46.8,10.07,00000000 00000000,32.826396384,34.956579656,24.358,0.48,-0.47,-0.09,0.01,-0.1,2.94,0.12,-0.61,-0.45,32.825966965999996,34.956563993,25.556,1.11,211.05,-0.44,307609945,2172,111,11111100,16,25,100,0.0,0,45,45,100792,23.39,0
8617,199.782,1.896,-8.962,-2.3567099999999996,11.55295,-16.2355,0.05229299999999999,-0.024877,1.032268,1280.0,12740.0,4990.0,46.8,10.12,00000000 00000000,32.826396276,34.956579574,24.356,0.5,-0.47,-0.09,0.01,-0.09,2.93,0.12,-0.63,-0.47,32.825966562,34.956563828,25.503,0.94,199.01,-1.07,307609970,2172,111,11111100,16,25,100,0.0,0,20,20,100792,23.39,3
8618,200.157,1.88,-8.509,-3.90962,23.36644,-13.63895,0.055442,-0.021190999999999998,1.0627879999999998,1310.0,12780.0,4970.0,46.8,10.08,00000000 00000000,32.82639617,34.956579714,24.353,0.53,-0.47,-0.08,0.01,-0.08,2.92,0.11,-0.64,-0.5,32.825966562,34.956563828,25.503,0.94,199.01,-1.07,307609995,2172,111,11111100,16,25,100,0.0,0,45,45,100794,23.31,8
8619,200.503,1.7919999999999998,-7.813,-6.881130000000001,30.154040000000002,-12.935189999999999,0.112518,-0.001854,1.108235,1410.0,12840.0,4990.0,46.8,10.03,00000000 00000000,32.826396065,34.956579636,24.331,0.55,-0.46,-0.06,0.01,-0.07,2.9,0.09,-0.65,-0.52,32.825966166,34.956563448000004,25.484,1.13,219.05,-0.37,307610020,2172,111,11111100,16,25,100,0.0,0,20,20,100794,23.22,3
8620,200.903,1.661,-7.018,-7.11925,32.47325,-19.4276,0.169062,0.021317,1.163292,1520.0,12910.0,4970.0,46.8,10.08,00000000 00000000,32.826395960999996,34.956579784,24.33,0.55,-0.46,-0.03,0.01,-0.05,2.89,0.05,-0.65,-0.52,32.825966166,34.956563448000004,25.484,1.13,219.05,-0.37,307610045,2172,111,11111100,16,25,100,0.0,0,45,45,100794,23.31,0
8621,201.576,1.594,-6.2139999999999995,-3.9228699999999996,26.644409999999997,-32.92427,0.243454,0.055639999999999995,1.171758,1640.0,12960.0,4930.0,46.8,10.07,00000000 00000000,32.826395856,34.956579695,24.333,0.53,-0.45,0.01,0.01,-0.04,2.88,0.01,-0.65,-0.5,32.825965692,34.956562872,25.485,1.5,225.69,0.03,307610070,2172,111,11111100,19,25,100,0.0,0,20,20,100794,23.22,3
8622,202.49200000000002,1.662,-5.808,1.4441899999999999,2.28675,-39.3645,0.360646,0.027,1.193632,1700.0,13010.0,4850.0,46.8,10.07,00000000 00000000,32.826395755,34.956579833,24.334,0.49,-0.44,0.06,0.01,-0.03,2.87,-0.03,-0.65,-0.46,32.825965692,34.956562872,25.485,1.5,225.69,0.03,307610095,2172,111,11111100,19,25,100,0.0,0,45,45,100794,23.22,0
8623,203.46400000000003,1.814,-6.025,1.6767,-18.89755,-38.00679,0.34911,-0.061579999999999996,1.1602059999999998,1690.0,13040.0,4820.0,46.8,10.08,00000000 00000000,32.82639566,34.956579724,24.335,0.43,-0.4,0.11,0.01,-0.02,2.86,-0.09,-0.65,-0.4,32.825965331999996,34.956562564,25.489,0.98,215.89,0.08,307610120,2172,111,11111100,20,25,100,0.0,0,20,20,100796,23.14,3
8624,204.31599999999997,1.913,-6.537000000000001,-1.20353,-21.8034,-29.797079999999998,0.22344099999999997,-0.073358,1.0461690000000001,1630.0,13070.0,4850.0,46.8,10.07,00000000 00000000,32.826395573,34.956579835999996,24.339,0.41,-0.36,0.15,0.01,-0.01,2.84,-0.12,-0.68,-0.35,32.825965331999996,34.956562564,25.489,0.98,215.89,0.08,307610145,2172,111,11111100,20,25,100,0.0,0,45,45,100796,23.14,0
8625,204.926,1.9380000000000002,-7.006,-2.04113,-17.049329999999998,-18.84248,0.093587,-0.028842000000000003,0.9505959999999999,1560.0,13110.0,4890.0,46.8,10.1,00000000 00000000,32.826395488,34.956579715,24.348,0.4,-0.34,0.15,0.01,0.0,2.83,-0.13,-0.7,-0.34,32.825964734,34.956562501,25.498,1.29,187.2,0.21,307610170,2172,111,11111100,19,25,100,0.0,0,20,20,100794,23.31,3
8626,205.296,1.933,-7.3660000000000005,-1.8780400000000002,-13.301260000000001,-11.35095,0.043648,-0.005721,0.9150290000000001,1480.0,13150.0,4920.0,46.8,10.05,00000000 00000000,32.826395412,34.956579826,24.351,0.42,-0.33,0.13,0.01,0.0,2.82,-0.11,-0.71,-0.35,32.825964734,34.956562501,25.498,1.29,187.2,0.21,307610195,2172,111,11111100,19,25,100,0.0,0,45,45,100794,23.31,0
8627,205.51,1.9069999999999998,-7.71,-2.80733,-15.655829999999998,-5.42079,0.07487,0.000383,0.9207620000000001,1430.0,13200.0,4950.0,46.8,10.1,00000000 00000000,32.826395336,34.956579696999995,24.356,0.43,-0.33,0.11,0.01,0.01,2.8,-0.09,-0.72,-0.37,32.825964349,34.956561988000004,25.523,1.28,228.36,0.5,307610220,2172,111,11111100,20,25,100,0.0,0,20,20,100794,23.31,3
8628,205.597,1.8159999999999998,-8.123,-5.2213400000000005,-17.10613,-0.51968,0.143849,0.035709,0.934392,1380.0,13220.0,4950.0,46.8,10.05,00000000 00000000,32.826395261,34.956579815,24.359,0.44,-0.33,0.09,0.01,0.02,2.79,-0.07,-0.72,-0.37,32.825964349,34.956561988000004,25.523,1.28,228.36,0.5,307610245,2172,111,11111100,20,25,100,0.0,0,45,45,100794,23.22,0
8629,205.61,1.692,-8.527999999999999,-3.7522900000000003,-14.814229999999998,-0.24941999999999998,0.209804,0.07754,0.9474889999999999,1350.0,13250.0,5010.0,46.8,10.03,00000000 00000000,32.826395183,34.956579689,24.345,0.42,-0.33,0.08,0.01,0.03,2.78,-0.06,-0.71,-0.37,32.825963881999996,34.956561734,25.512,1.12,207.66,-0.16,307610270,2172,111,11111100,20,25,100,0.0,0,20,20,100794,23.31,3
8630,205.66299999999998,1.661,-8.901,0.47388,-16.194760000000002,-3.49137,0.25440999999999997,0.069356,0.939299,1310.0,13250.0,5030.0,46.8,10.07,00000000 00000000,32.826395106999996,34.9565798,24.347,0.39,-0.34,0.08,0.01,0.04,2.77,-0.05,-0.69,-0.34,32.825963881999996,34.956561734,25.512,1.12,207.66,-0.16,307610295,2172,111,11111100,20,25,100,0.0,0,45,45,100794,23.22,0
8631,205.737,1.724,-9.391,3.3674699999999995,-23.72553,-2.53042,0.236627,0.049506,0.909608,1260.0,13240.0,5070.0,46.8,10.11,00000000 00000000,32.826395029000004,34.956579658,24.35,0.36,-0.33,0.06,0.01,0.05,2.75,-0.04,-0.68,-0.32,32.825963411,34.956561464,25.491,1.16,205.79,-0.41,307610320,2172,111,11111100,20,25,100,0.0,0,20,20,100796,23.14,3
8632,205.747,1.825,10.052999999999999,4.10454,-27.5512,0.25647,0.13531500000000002,0.022854,0.8843979999999999,1180.0,13210.0,5130.0,46.8,10.07,00000000 00000000,32.826394953000005,34.956579755,24.351,0.35,-0.33,0.04,0.01,0.06,2.74,-0.02,-0.68,-0.31,32.825963411,34.956561464,25.491,1.16,205.79,-0.41,307610345,2172,111,11111100,20,25,100,0.0,0,45,45,100796,23.05,0
8633,205.71099999999998,1.8969999999999998,10.69,1.48901,-22.166520000000002,1.49975,0.045946,0.01137,0.856564,1110.0,13190.0,5210.0,46.9,10.1,00000000 00000000,32.82639488,34.956579606,24.342,0.37,-0.33,0.01,0.01,0.07,2.73,0.0,-0.68,-0.32,32.825963051,34.956561224,25.482,0.9,213.34,-0.13,307610370,2172,111,11111100,20,25,100,0.0,0,20,20,100796,23.05,3
8634,205.66400000000002,1.857,11.120999999999999,-4.25465,-11.07286,2.49195,-0.01043,0.008773,0.8564700000000001,1020.0,13170.0,5230.0,46.9,10.07,00000000 00000000,32.826394801999996,34.956579709,24.342,0.4,-0.35,-0.02,0.01,0.08,2.71,0.03,-0.68,-0.35,32.825963051,34.956561224,25.482,0.9,213.34,-0.13,307610395,2172,111,11111100,20,25,100,0.0,0,45,45,100796,23.05,0
8635,205.636,1.662,11.24,-10.43372,1.11246,2.9251099999999997,-0.023214,0.00346,0.86656,-970.0,13190.0,5230.0,46.9,10.1,00000000 00000000,32.826394721999996,34.956579573,24.359,0.44,-0.36,-0.05,0.01,0.09,2.7,0.07,-0.69,-0.4,32.825962641,34.956560923000005,25.491,1.06,211.82,0.18,307610420,2172,111,11111100,20,25,100,0.0,0,20,20,100796,23.05,3
8636,205.613,1.33,11.072000000000001,-15.0163,12.57508,4.4808,-0.010661,-0.0032670000000000004,0.917285,-960.0,13240.0,5170.0,46.9,10.07,00000000 00000000,32.826394638000004,34.956579696,24.357,0.48,-0.38,-0.09,0.01,0.11,2.69,0.11,-0.69,-0.44,32.825962641,34.956560923000005,25.491,1.06,211.82,0.18,307610445,2172,111,11111100,20,25,100,0.0,0,45,45,100796,23.05,0
8637,205.535,0.8959999999999999,10.6,-17.70738,24.92671,8.35235,0.041401,-0.00882,0.975167,1000.0,13310.0,5090.0,46.9,10.09,00000000 00000000,32.826394548,34.956579575,24.373,0.51,-0.39,-0.1,0.01,0.12,2.67,0.12,-0.69,-0.48,32.825962074,34.956560581,25.497,1.39,209.62,0.15,307610470,2172,111,11111100,20,25,100,0.0,0,20,20,100796,23.14,3
8638,205.355,0.381,-9.884,-20.04654,31.2625,13.550429999999999,0.098938,-0.001034,1.0431139999999999,1080.0,13400.0,4980.0,46.9,10.04,00000000 00000000,32.826394459,34.956579718,24.371,0.54,-0.4,-0.1,0.01,0.13,2.66,0.12,-0.69,-0.51,32.825962074,34.956560581,25.497,1.39,209.62,0.15,307610495,2172,111,11111100,20,25,100,0.0,0,45,45,100796,23.14,0
