,Heading,Pitch,Roll,Gyro_X,Gyro_Y,Gyro_Z,Acc_X,Acc_Y,Acc_Z,Magn_X,Magn_Y,Magn_Z,Temperature,Vdd,USW (L/H),Latitude,Longitude,Altitude,V_East,V_North,V_Up,Heave,Surge,Sway,V_Heave,V_Surge,V_Sway,Lat_GNSS,Long_GNSS,Height_GNSS,Hor_spd,Trk_gnd,Ver_spd,ms_gps,GPS_Week,GNSS_info_1,GNSS_info_2,#solnSVs,V_latency,anglesPosType,Heading_GNSS,Latency_ms_head,Latency_ms_pos,Latency_ms_vel,P_Bar,H_Bar,New_GPS
0,285.112,2.878,-5.104,2.04055,-0.47293,2.42544,0.062322,0.045379,0.990886,7090.0,14530.0,3230.0,48.0,10.05,00000000 00000000,32.825764088,34.956248365,22.002,0.04,-0.03,0.04,0.07,-0.62,-0.55,-0.03,-0.06,-0.24,32.825764293,34.95618937,22.039,0.02,7.43,0.0,307252095,2172,1000,11111100,29,25,100,0.0,0,45,45,100830,20.29,0
1,285.05,2.9130000000000003,-5.093,1.32473,1.32016,3.01677,0.063874,0.024816,0.9897219999999999,7090.0,14530.0,3240.0,47.9,10.13,00000000 00000000,32.825764096,34.95624817,22.005,0.04,-0.04,0.04,0.07,-0.62,-0.55,-0.02,-0.07,-0.25,32.825764303,34.956189388,22.047,0.02,45.98,0.0,307252120,2172,1000,11111100,29,25,100,0.0,0,20,20,100830,20.29,3
2,284.945,2.926,-5.058,0.26582,1.7246,5.48492,0.070227,0.019833,0.9806959999999999,7080.0,14540.0,3240.0,47.9,10.08,00000000 00000000,32.825764085,34.956248181999996,22.006,0.04,-0.04,0.04,0.07,-0.62,-0.55,-0.02,-0.07,-0.25,32.825764303,34.956189388,22.047,0.02,45.98,0.0,307252145,2172,1000,11111100,29,25,100,0.0,0,45,45,100832,20.13,0
3,284.781,2.898,-5.018,-1.0259,1.85762,8.137889999999999,0.07510900000000001,0.025717,0.9873790000000001,7070.0,14550.0,3250.0,47.9,10.1,00000000 00000000,32.825764090999996,34.956247961,22.008,0.05,-0.05,0.03,0.07,-0.61,-0.55,-0.02,-0.08,-0.26,32.825764301999996,34.956189396999996,22.048,0.01,96.48,0.03,307252170,2172,1000,11111100,29,25,100,0.0,0,20,20,100832,20.13,3
4,284.562,2.843,-4.979,-1.74827,2.39926,9.37998,0.07484600000000001,0.032267000000000004,1.0010459999999999,7050.0,14570.0,3260.0,47.9,10.07,00000000 00000000,32.825764079,34.956247975,22.009,0.05,-0.05,0.03,0.07,-0.61,-0.56,-0.02,-0.09,-0.26,32.825764301999996,34.956189396999996,22.048,0.01,96.48,0.03,307252195,2172,1000,11111100,29,25,100,0.0,0,45,45,100832,20.13,0
5,284.339,2.765,-4.912,-2.56006,3.61154,9.461789999999999,0.079238,0.036188,1.0003950000000001,7030.0,14600.0,3260.0,47.9,10.11,00000000 00000000,32.825764086999996,34.956247603,22.011,0.05,-0.05,0.04,0.07,-0.61,-0.56,-0.02,-0.09,-0.26,32.825764317,34.956189402,22.054,0.02,344.62,-0.02,307252220,2172,1000,11111100,29,25,100,0.0,0,20,20,100830,20.21,3
6,284.103,2.6630000000000003,-4.834,-3.9917800000000003,3.11768,10.21505,0.090539,0.040992,0.994288,7010.0,14620.0,3240.0,47.9,10.09,00000000 00000000,32.825764075,34.956247616999995,22.012,0.05,-0.05,0.04,0.07,-0.6,-0.56,-0.02,-0.09,-0.26,32.825764317,34.956189402,22.054,0.02,344.62,-0.02,307252245,2172,1000,11111100,29,25,100,0.0,0,45,45,100830,20.29,0
7,283.846,2.523,-4.792,-4.8544,1.05944,11.45876,0.104742,0.046142,1.005549,6990.0,14650.0,3250.0,47.9,10.1,00000000 00000000,32.825764080999996,34.956247309,22.015,0.04,-0.04,0.04,0.07,-0.6,-0.57,-0.02,-0.09,-0.26,32.825764314000004,34.9561894,22.055,0.0,215.56,0.02,307252270,2172,1000,11111100,28,25,100,0.0,0,20,20,100830,20.21,3
8,283.568,2.383,-4.796,-4.37057,-0.27747,11.5652,0.103248,0.048757999999999996,1.00699,6970.0,14690.0,3230.0,47.9,10.07,00000000 00000000,32.825764071,34.956247323,22.016,0.04,-0.04,0.04,0.07,-0.6,-0.57,-0.02,-0.09,-0.25,32.825764314000004,34.9561894,22.055,0.0,215.56,0.02,307252295,2172,1000,11111100,28,25,100,0.0,0,45,45,100830,20.21,0
9,283.293,2.265,-4.823,-2.95643,-0.84364,11.43905,0.086969,0.041958999999999996,0.997301,6950.0,14740.0,3240.0,47.9,10.1,00000000 00000000,32.825764076999995,34.95624715,22.018,0.04,-0.03,0.04,0.07,-0.59,-0.57,-0.03,-0.09,-0.25,32.825764305999996,34.956189415,22.062,0.02,152.0,0.0,307252320,2172,1000,11111100,28,25,100,0.0,0,20,20,100830,20.29,3
10,282.993,2.184,-4.864,-1.37506,-1.59531,13.4162,0.073652,0.034461,0.9851409999999999,6940.0,14770.0,3210.0,47.9,10.08,00000000 00000000,32.825764069,34.956247163,22.02,0.04,-0.03,0.04,0.07,-0.59,-0.57,-0.03,-0.09,-0.25,32.825764305999996,34.956189415,22.062,0.02,152.0,0.0,307252345,2172,1000,11111100,28,25,100,0.0,0,45,45,100828,20.38,0
11,282.637,2.142,-4.927,0.8598100000000001,-2.14652,15.2946,0.066824,0.042069,0.9804379999999999,6910.0,14820.0,3230.0,47.9,10.1,00000000 00000000,32.825764073,34.956246831,22.022,0.03,-0.03,0.04,0.07,-0.59,-0.58,-0.02,-0.09,-0.25,32.82576429,34.9561894,22.062,0.04,217.64,0.0,307252370,2172,1000,11111100,28,25,100,0.0,0,20,20,100828,20.46,3
12,282.256,2.16,-4.984,3.16886,-0.97705,14.493879999999999,0.066692,0.051086,0.9858959999999999,6890.0,14860.0,3240.0,47.9,10.08,00000000 00000000,32.825764064,34.956246841,22.023,0.03,-0.04,0.04,0.07,-0.58,-0.58,-0.02,-0.08,-0.25,32.82576429,34.9561894,22.062,0.04,217.64,0.0,307252395,2172,1000,11111100,28,25,100,0.0,0,45,45,100826,20.55,0
13,281.913,2.234,-4.995,5.08667,0.68607,12.69482,0.07725,0.053286,0.980931,6880.0,14880.0,3220.0,47.9,10.12,00000000 00000000,32.825764066,34.956246723,22.026,0.02,-0.04,0.04,0.07,-0.58,-0.58,-0.02,-0.08,-0.26,32.825764269000004,34.956189411,22.069,0.05,177.02,0.0,307252420,2172,1000,11111100,28,25,100,0.0,0,20,20,100828,20.46,3
14,281.595,2.3409999999999997,-4.998,5.21743,-0.3072,12.129489999999999,0.093782,0.051911,0.983034,6870.0,14890.0,3210.0,47.9,10.08,00000000 00000000,32.825764057,34.956246731,22.027,0.02,-0.03,0.03,0.07,-0.58,-0.58,-0.01,-0.08,-0.25,32.825764269000004,34.956189411,22.069,0.05,177.02,0.0,307252445,2172,1000,11111100,28,25,100,0.0,0,45,45,100826,20.55,0
15,281.275,2.432,-5.048,4.34106,-2.56731,12.8072,0.097633,0.056093,0.987667,6850.0,14900.0,3220.0,47.9,10.11,00000000 00000000,32.825764062,34.956246581,22.029,0.02,-0.03,0.03,0.07,-0.57,-0.59,-0.01,-0.08,-0.25,32.825764260999996,34.956189403,22.069,0.02,217.62,-0.01,307252470,2172,1000,11111100,28,25,100,0.0,0,20,20,100828,20.46,3
16,280.95,2.503,-5.141,3.6506800000000004,-3.1659599999999997,12.28866,0.085895,0.05657,0.998402,6840.0,14920.0,3210.0,47.9,10.09,00000000 00000000,32.825764054000004,34.956246586999995,22.03,0.01,-0.03,0.03,0.07,-0.57,-0.59,-0.01,-0.07,-0.25,32.825764260999996,34.956189403,22.069,0.02,217.62,-0.01,307252495,2172,1000,11111100,28,25,100,0.0,0,45,45,100828,20.46,0
17,280.66200000000003,2.5639999999999996,-5.207999999999999,3.23595,-1.06256,10.36999,0.077797,0.054389,1.001603,6810.0,14950.0,3240.0,47.9,10.12,00000000 00000000,32.825764059,34.956246563,22.032,0.01,-0.03,0.03,0.07,-0.56,-0.59,-0.01,-0.07,-0.25,32.825764253,34.956189417,22.076,0.02,161.03,0.01,307252520,2172,1000,11111100,28,25,100,0.0,0,20,20,100828,20.38,3
18,280.411,2.611,-5.228,2.21161,-0.06358,9.38952,0.08277799999999999,0.046329,0.9912790000000001,6810.0,14940.0,3210.0,47.9,10.05,00000000 00000000,32.825764052,34.956246567,22.033,0.01,-0.03,0.04,0.07,-0.56,-0.59,-0.02,-0.07,-0.25,32.825764253,34.956189417,22.076,0.02,161.03,0.01,307252545,2172,1000,11111100,28,25,100,0.0,0,45,45,100828,20.38,0
19,280.18,2.627,-5.247999999999999,0.8468,-1.0145899999999999,9.01266,0.088936,0.052137,0.981685,6780.0,14980.0,3240.0,47.9,10.13,00000000 00000000,32.825764056,34.956246481,22.036,0.01,-0.03,0.03,0.07,-0.56,-0.6,-0.01,-0.07,-0.25,32.825764243,34.95618941,22.076,0.02,208.32,0.0,307252570,2172,1000,11111100,28,25,100,0.0,0,20,20,100828,20.38,3
20,279.961,2.6210000000000004,-5.297999999999999,0.5744199999999999,-1.9403,8.246080000000001,0.09436699999999999,0.05531799999999999,0.988917,6790.0,14980.0,3210.0,47.9,10.09,00000000 00000000,32.825764049,34.956246484,22.037,0.0,-0.03,0.03,0.07,-0.55,-0.6,-0.01,-0.06,-0.25,32.825764243,34.95618941,22.076,0.02,208.32,0.0,307252595,2172,1000,11111100,28,25,100,0.0,0,45,45,100828,20.38,0
21,279.783,2.623,-5.356,1.12094,-2.18627,6.18404,0.095401,0.053489999999999996,0.990288,6780.0,15000.0,3210.0,47.9,10.12,00000000 00000000,32.825764055,34.956246493,22.039,0.0,-0.02,0.03,0.07,-0.55,-0.6,-0.01,-0.06,-0.25,32.825764238000005,34.956189424,22.081,0.01,151.84,-0.04,307252620,2172,1000,11111100,28,25,100,0.0,0,20,20,100826,20.55,3
22,279.632,2.639,-5.412999999999999,1.07139,-2.15848,6.03054,0.100439,0.055258,0.991266,6780.0,15010.0,3190.0,47.9,10.08,00000000 00000000,32.825764049,34.956246494,22.04,0.0,-0.02,0.03,0.07,-0.55,-0.6,-0.01,-0.06,-0.25,32.825764238000005,34.956189424,22.081,0.01,151.84,-0.04,307252645,2172,1000,11111100,28,25,100,0.0,0,45,45,100826,20.63,0
23,279.485,2.654,-5.478,1.3098299999999998,-2.47307,5.532430000000001,0.092843,0.062335,0.997237,6770.0,15020.0,3200.0,47.9,10.13,00000000 00000000,32.825764053,34.956246461,22.042,0.0,-0.02,0.03,0.07,-0.54,-0.61,-0.01,-0.06,-0.25,32.825764226,34.956189419,22.08,0.02,198.58,-0.03,307252670,2172,1000,11111100,28,25,100,0.0,0,20,20,100826,20.63,3
24,279.363,2.682,-5.529,1.8195400000000002,-0.87575,3.9973300000000003,0.089113,0.061152,0.998209,6770.0,15030.0,3190.0,47.9,10.1,00000000 00000000,32.825764048,34.956246461,22.043,0.0,-0.02,0.03,0.07,-0.54,-0.61,-0.01,-0.05,-0.25,32.825764226,34.956189419,22.08,0.02,198.58,-0.03,307252695,2172,1000,11111100,28,25,100,0.0,0,45,45,100826,20.55,0
25,279.27299999999997,2.72,-5.537999999999999,1.8091099999999998,0.0318,3.4254599999999997,0.09399500000000001,0.055777,0.9916790000000001,6760.0,15030.0,3190.0,47.9,10.09,00000000 00000000,32.825764056,34.956246438,22.045,0.0,-0.02,0.03,0.07,-0.53,-0.61,-0.01,-0.05,-0.25,32.825764228000004,34.956189421,22.086,0.01,270.61,-0.01,307252720,2172,1000,11111100,28,25,100,0.0,0,20,20,100828,20.46,3
26,279.17,2.753,-5.5489999999999995,1.7533599999999998,-0.60035,4.73999,0.095955,0.054,0.9945879999999999,6760.0,15040.0,3190.0,47.9,10.04,00000000 00000000,32.825764051,34.956246436,22.046,0.0,-0.01,0.04,0.07,-0.53,-0.61,-0.01,-0.05,-0.25,32.825764228000004,34.956189421,22.086,0.01,270.61,-0.01,307252745,2172,1000,11111100,28,25,100,0.0,0,45,45,100828,20.46,0
27,279.032,2.784,-5.572,1.7416900000000002,-0.5553,5.73342,0.09348,0.05755,0.9982639999999999,6750.0,15050.0,3210.0,47.9,10.09,00000000 00000000,32.825764055,34.956246475,22.048,0.0,-0.01,0.04,0.07,-0.53,-0.61,-0.01,-0.04,-0.25,32.825764214,34.956189424,22.087,0.03,172.43,0.03,307252770,2172,1000,11111100,28,25,100,0.0,0,20,20,100826,20.63,3
28,278.889,2.8160000000000003,-5.584,1.8534400000000002,0.23359000000000002,5.35816,0.093407,0.049293000000000003,0.999267,6730.0,15070.0,3230.0,47.9,10.08,00000000 00000000,32.825764051,34.956246472,22.049,-0.01,-0.01,0.04,0.07,-0.52,-0.62,-0.01,-0.04,-0.25,32.825764214,34.956189424,22.087,0.03,172.43,0.03,307252795,2172,1000,11111100,28,25,100,0.0,0,45,45,100828,20.46,0
29,278.751,2.847,-5.579,1.48017,0.65388,5.67126,0.09221599999999999,0.047428,0.992449,6730.0,15070.0,3230.0,47.9,10.12,00000000 00000000,32.825764055,34.956246532,22.052,0.0,-0.01,0.04,0.07,-0.52,-0.62,-0.02,-0.04,-0.25,32.825764204,34.956189439,22.092,0.03,156.26,-0.03,307252820,2172,1000,11111100,28,25,100,0.0,0,20,20,100828,20.46,3
30,278.6,2.855,-5.566,0.33534,1.0256399999999999,6.32385,0.090644,0.047485,0.9910629999999999,6730.0,15070.0,3200.0,47.9,10.08,00000000 00000000,32.825764052,34.95624653,22.053,0.0,-0.01,0.04,0.07,-0.51,-0.62,-0.02,-0.04,-0.25,32.825764204,34.956189439,22.092,0.03,156.26,-0.03,307252845,2172,1000,11111100,28,25,100,0.0,0,45,45,100826,20.55,0
31,278.443,2.84,-5.541,-0.29043,1.3921,6.65292,0.09262100000000001,0.044356,0.992149,6720.0,15080.0,3200.0,47.9,10.12,00000000 00000000,32.825764059,34.956246561,22.055,0.0,-0.01,0.04,0.07,-0.51,-0.62,-0.01,-0.04,-0.25,32.82576421,34.956189441999996,22.091,0.01,16.78,-0.02,307252870,2172,1000,11111100,28,25,100,0.0,0,20,20,100826,20.63,3
32,278.272,2.812,-5.519,-0.5075,0.8754700000000001,7.0018899999999995,0.093899,0.05168300000000001,0.9906870000000001,6710.0,15090.0,3200.0,47.9,10.08,00000000 00000000,32.825764056,34.956246559,22.056,0.0,-0.01,0.04,0.07,-0.5,-0.63,-0.01,-0.04,-0.25,32.82576421,34.956189441999996,22.091,0.01,16.78,-0.02,307252895,2172,1000,11111100,28,25,100,0.0,0,45,45,100826,20.63,0
33,278.10900000000004,2.786,-5.5120000000000005,-0.32591,0.45142,6.02527,0.092263,0.057715999999999996,0.992992,6690.0,15110.0,3200.0,47.9,10.12,00000000 00000000,32.825764061,34.956246625,22.058,0.0,-0.01,0.04,0.06,-0.5,-0.63,-0.01,-0.04,-0.25,32.825764206,34.956189461,22.096,0.02,128.34,-0.03,307252920,2172,1000,11111100,28,25,100,0.0,0,20,20,100828,20.46,3
34,277.98400000000004,2.766,-5.501,-0.2135,0.86595,4.37317,0.092677,0.05530499999999999,0.9938540000000001,6690.0,15130.0,3200.0,47.9,10.07,00000000 00000000,32.825764058000004,34.956246621999995,22.059,-0.01,-0.01,0.04,0.06,-0.5,-0.63,-0.01,-0.04,-0.25,32.825764206,34.956189461,22.096,0.02,128.34,-0.03,307252945,2172,1000,11111100,28,25,100,0.0,0,45,45,100828,20.46,0
35,277.877,2.753,-5.494,0.07363,-0.24631999999999998,4.4347,0.091698,0.053273,0.9933649999999999,6670.0,15150.0,3210.0,47.9,10.1,00000000 00000000,32.825764061,34.956246683,22.062,-0.01,-0.01,0.04,0.06,-0.49,-0.63,-0.01,-0.04,-0.25,32.825764192,34.956189469,22.097,0.03,153.7,0.01,307252970,2172,1000,11111100,28,25,100,0.0,0,20,20,100828,20.38,3
36,277.764,2.75,-5.526,0.50703,-1.5463,4.4117,0.08313999999999999,0.056936,0.9968950000000001,6670.0,15150.0,3200.0,47.9,10.07,00000000 00000000,32.825764058000004,34.95624668,22.063,-0.01,-0.01,0.04,0.06,-0.49,-0.63,-0.01,-0.04,-0.25,32.825764192,34.956189469,22.097,0.03,153.7,0.01,307252995,2172,1000,11111100,28,25,100,0.0,0,45,45,100828,20.46,8
37,277.668,2.76,-5.558,0.99764,-0.47996000000000005,3.13899,0.077043,0.05991900000000001,0.9992469999999999,6640.0,15180.0,3240.0,47.9,10.12,00000000 00000000,32.825764061,34.956246721,22.065,-0.01,-0.01,0.04,0.06,-0.48,-0.64,-0.02,-0.03,-0.25,32.825764182,34.956189480999996,22.104,0.02,171.73,0.01,307253020,2172,1000,11111100,28,25,100,0.0,0,20,20,100828,20.46,3
38,277.603,2.783,-5.561,1.19852,0.19582,2.05666,0.077062,0.055547000000000006,0.993452,6650.0,15180.0,3220.0,47.9,10.05,00000000 00000000,32.825764057,34.956246716,22.066,-0.01,-0.01,0.04,0.06,-0.48,-0.64,-0.02,-0.03,-0.26,32.825764182,34.956189480999996,22.104,0.02,171.73,0.01,307253045,2172,1000,11111100,28,25,100,0.0,0,45,45,100826,20.55,0
39,277.558,2.8089999999999997,-5.56,1.09765,-0.03646,1.32368,0.079984,0.05083,0.991483,6650.0,15170.0,3210.0,47.9,10.1,00000000 00000000,32.825764059,34.956246736,22.069,-0.01,-0.02,0.04,0.06,-0.48,-0.64,-0.02,-0.03,-0.26,32.825764174,34.956189476,22.103,0.02,202.27,-0.02,307253070,2172,1000,11111100,29,25,100,0.0,0,20,20,100828,20.46,3
40,277.53700000000003,2.8310000000000004,-5.57,0.8082,-0.65284,0.17205,0.085231,0.047646,0.9934270000000001,6650.0,15170.0,3200.0,47.9,10.07,00000000 00000000,32.825764054000004,34.956246731,22.07,-0.01,-0.02,0.04,0.06,-0.47,-0.64,-0.02,-0.03,-0.26,32.825764174,34.956189476,22.103,0.02,202.27,-0.02,307253095,2172,1000,11111100,29,25,100,0.0,0,45,45,100828,20.46,0
41,277.548,2.841,-5.593,-0.15149,-1.27249,-0.77073,0.08532000000000001,0.040612,0.995022,6650.0,15170.0,3210.0,47.9,10.12,00000000 00000000,32.82576406,34.956246768,22.072,-0.01,-0.02,0.04,0.06,-0.47,-0.65,-0.02,-0.03,-0.27,32.825764189000004,34.956189486,22.109,0.02,2.6,-0.01,307253120,2172,1000,11111100,29,25,100,0.0,0,20,20,100828,20.46,3
42,277.578,2.825,-5.629,-1.33192,-1.5749,-1.4319,0.078127,0.034217000000000004,0.994337,6660.0,15170.0,3200.0,47.9,10.08,00000000 00000000,32.825764055,34.956246764,22.073,-0.01,-0.02,0.04,0.06,-0.46,-0.65,-0.02,-0.03,-0.27,32.825764189000004,34.956189486,22.109,0.02,2.6,-0.01,307253145,2172,1000,11111100,29,25,100,0.0,0,45,45,100828,20.46,0
43,277.626,2.787,-5.667000000000001,-1.9523099999999998,-1.9017400000000002,-1.6946,0.070877,0.035298,0.9986149999999999,6650.0,15170.0,3210.0,47.9,10.11,00000000 00000000,32.82576406,34.956246738000004,22.075,-0.01,-0.03,0.04,0.06,-0.46,-0.65,-0.02,-0.04,-0.27,32.825764198,34.956189473,22.109,0.03,307.96,0.0,307253170,2172,1000,11111100,29,25,100,0.0,0,20,20,100830,20.29,3
44,277.672,2.737,-5.722,-2.4578599999999997,-2.53702,-1.55062,0.06414500000000001,0.035722000000000004,1.001685,6650.0,15190.0,3220.0,47.9,10.08,00000000 00000000,32.825764052,34.956246734000004,22.077,-0.01,-0.03,0.04,0.06,-0.46,-0.65,-0.02,-0.04,-0.28,32.825764198,34.956189473,22.109,0.03,307.96,0.0,307253195,2172,1000,11111100,29,25,100,0.0,0,45,45,100828,20.38,0
45,277.717,2.678,-5.781000000000001,-2.5221,-2.37247,-1.5150700000000001,0.054074000000000004,0.022858,1.005105,6650.0,15200.0,3220.0,47.9,10.12,00000000 00000000,32.825764056,34.956246738000004,22.079,0.0,-0.04,0.05,0.06,-0.45,-0.66,-0.02,-0.04,-0.29,32.825764206,34.956189478,22.116,0.01,332.1,0.0,307253220,2172,1000,11111100,29,25,100,0.0,0,20,20,100830,20.21,3
46,277.755,2.6289999999999996,-5.824,-1.51578,-1.22899,-1.10309,0.046062,0.014463,1.011261,6680.0,15180.0,3170.0,47.9,10.08,00000000 00000000,32.825764044,34.956246737,22.08,0.0,-0.05,0.05,0.06,-0.45,-0.66,-0.02,-0.05,-0.3,32.825764206,34.956189478,22.116,0.01,332.1,0.0,307253245,2172,1000,11111100,29,25,100,0.0,0,45,45,100828,20.38,0
47,277.79,2.6069999999999998,-5.835,-0.51971,-0.06562,-1.56355,0.040563999999999996,0.014854,1.0101950000000002,6680.0,15180.0,3160.0,47.9,10.12,00000000 00000000,32.825764049,34.956246669,22.083,0.0,-0.07,0.05,0.06,-0.44,-0.66,-0.02,-0.06,-0.31,32.825764224000004,34.956189457,22.115,0.05,314.97,-0.01,307253270,2172,1000,11111100,29,25,100,0.0,0,20,20,100828,20.38,3
48,277.867,2.602,-5.819,-0.44218999999999997,1.00073,-4.68385,0.043963,0.013056,0.999826,6690.0,15170.0,3140.0,47.9,10.07,00000000 00000000,32.825764031,34.95624667,22.084,0.0,-0.08,0.05,0.06,-0.44,-0.67,-0.02,-0.07,-0.33,32.825764224000004,34.956189457,22.115,0.05,314.97,-0.01,307253295,2172,1000,11111100,29,25,100,0.0,0,45,45,100828,20.38,0
49,278.026,2.6,-5.787999999999999,-0.90494,0.51522,-7.14958,0.041283,0.011951,0.9882700000000001,6680.0,15160.0,3150.0,47.9,10.11,00000000 00000000,32.825764031,34.956246545999996,22.087,0.0,-0.09,0.05,0.06,-0.44,-0.67,-0.02,-0.07,-0.34,32.825764232,34.956189431,22.125,0.06,281.52,0.05,307253320,2172,1000,11111100,29,25,100,0.0,0,20,20,100828,20.46,3
50,278.245,2.577,-5.77,-2.81811,0.25582,-10.3987,0.036756,0.013983,0.986032,6690.0,15150.0,3150.0,47.9,10.07,00000000 00000000,32.825764007,34.95624655,22.088,0.01,-0.11,0.05,0.06,-0.44,-0.67,-0.02,-0.08,-0.36,32.825764232,34.956189431,22.125,0.06,281.52,0.05,307253345,2172,1000,11111100,29,25,100,0.0,0,45,45,100828,20.46,0
51,278.589,2.501,-5.754,-5.3238,-0.78067,-14.58954,0.035917000000000004,0.020725999999999998,0.98334,6690.0,15140.0,3160.0,47.9,10.1,00000000 00000000,32.825764007,34.956246323,22.091,0.01,-0.12,0.05,0.06,-0.43,-0.68,-0.02,-0.09,-0.37,32.825764246999995,34.956189361,22.125,0.13,283.94,0.0,307253370,2172,1000,11111100,29,25,100,0.0,0,20,20,100826,20.63,3
52,279.0,2.38,-5.797999999999999,-7.92287,-4.78182,-16.73094,0.021778,0.034427,0.981296,6720.0,15110.0,3130.0,47.9,10.05,00000000 00000000,32.825763977,34.956246326999995,22.092,0.01,-0.14,0.04,0.06,-0.43,-0.68,-0.01,-0.09,-0.38,32.825764246999995,34.956189361,22.125,0.13,283.94,0.0,307253395,2172,1000,11111100,29,25,100,0.0,0,45,45,100828,20.46,0
53,279.506,2.174,-5.957999999999999,-12.043439999999999,-9.1112,-19.1117,0.005374,0.045501,0.9851340000000001,6750.0,15100.0,3130.0,47.9,10.13,00000000 00000000,32.825763961,34.956246092,22.094,0.0,-0.16,0.04,0.06,-0.43,-0.69,-0.01,-0.09,-0.4,32.825764285,34.956189291,22.131,0.16,297.75,-0.01,307253420,2172,1000,11111100,29,25,100,0.0,0,20,20,100828,20.46,3
54,280.06,1.8880000000000001,-6.194,-14.8172,-11.07986,-22.06289,0.004712,0.049758,1.005252,6790.0,15090.0,3090.0,47.9,10.07,00000000 00000000,32.825763923000004,34.956246092,22.095,0.0,-0.18,0.03,0.06,-0.43,-0.69,0.0,-0.09,-0.43,32.825764285,34.956189291,22.131,0.16,297.75,-0.01,307253445,2172,1000,11111100,29,25,100,0.0,0,45,45,100828,20.38,0
55,280.732,1.585,-6.462000000000001,-13.7614,-11.6102,-24.23389,-0.009784000000000001,0.06437999999999999,1.03577,6850.0,15080.0,3050.0,47.9,10.12,00000000 00000000,32.825763905,34.956245815,22.097,-0.02,-0.2,0.04,0.06,-0.42,-0.7,-0.01,-0.08,-0.45,32.825764357,34.95618918,22.128,0.26,307.72,-0.04,307253470,2172,1000,11111100,29,25,100,0.0,0,20,20,100828,20.38,3
56,281.432,1.3519999999999999,-6.7010000000000005,-10.99003,-8.19551,-29.961129999999997,-0.020413,0.101643,1.0655940000000002,6910.0,15060.0,2990.0,47.9,10.05,00000000 00000000,32.825763855,34.956245806999995,22.098,-0.04,-0.23,0.05,0.06,-0.42,-0.71,-0.02,-0.07,-0.49,32.825764357,34.95618918,22.128,0.26,307.72,-0.04,307253495,2172,1000,11111100,29,25,100,0.0,0,45,45,100828,20.38,0
57,282.349,1.225,-6.818,-6.39975,-3.17397,-36.84263,-0.017262,0.11601600000000001,1.077009,6960.0,15030.0,2980.0,47.9,10.11,00000000 00000000,32.825763837,34.956245616,22.101,-0.07,-0.26,0.07,0.06,-0.42,-0.71,-0.03,-0.05,-0.52,32.825764471999996,34.956189081,22.136,0.32,320.84,0.01,307253520,2172,1000,11111100,29,25,100,0.0,0,20,20,100828,20.38,3
58,283.32099999999997,1.249,-6.8229999999999995,-1.08629,0.74756,-39.92245,-0.008425,0.12178399999999999,1.050271,7020.0,14950.0,2930.0,47.9,10.1,00000000 00000000,32.825763774,34.956245591999995,22.103,-0.1,-0.28,0.08,0.06,-0.41,-0.72,-0.05,-0.02,-0.55,32.825764471999996,34.956189081,22.136,0.32,320.84,0.01,307253545,2172,1000,11111100,29,25,100,0.0,0,45,45,100828,20.46,0
59,284.388,1.386,-6.7620000000000005,2.84312,1.20284,-40.33538,0.003796,0.127868,1.016167,7060.0,14880.0,2950.0,47.9,10.12,00000000 00000000,32.825763758,34.956245384,22.106,-0.14,-0.3,0.09,0.06,-0.41,-0.73,-0.06,0.0,-0.58,32.82576462,34.956188936,22.141,0.42,320.39,0.1,307253570,2172,1000,11111100,29,25,100,0.0,0,20,20,100828,20.46,3
60,285.351,1.6159999999999999,-6.749,6.46381,-2.60333,-37.75522,0.014993000000000001,0.135686,0.996634,7120.0,14780.0,2960.0,47.9,10.09,00000000 00000000,32.825763687,34.956245341999995,22.109,-0.17,-0.32,0.09,0.06,-0.4,-0.74,-0.06,0.02,-0.61,32.82576462,34.956188936,22.141,0.42,320.39,0.1,307253595,2172,1000,11111100,29,25,100,0.0,0,45,45,100828,20.46,0
61,286.23,1.919,-6.816,9.27998,-4.80474,-33.007709999999996,0.0051920000000000004,0.123097,0.9825799999999999,7160.0,14680.0,2990.0,47.9,10.13,00000000 00000000,32.825763678,34.956245271,22.113,-0.2,-0.33,0.09,0.06,-0.4,-0.75,-0.06,0.04,-0.63,32.825764784,34.956188827,22.155,0.41,328.49,0.14,307253620,2172,1000,11111100,29,25,100,0.0,0,20,20,100828,20.46,3
62,286.943,2.251,-6.91,9.95841,-4.55331,-26.617240000000002,-0.029754000000000003,0.08932799999999999,0.948427,7230.0,14560.0,2960.0,47.9,10.07,00000000 00000000,32.8257636,34.956245213,22.115,-0.23,-0.36,0.08,0.06,-0.39,-0.76,-0.05,0.06,-0.66,32.825764784,34.956188827,22.155,0.41,328.49,0.14,307253645,2172,1000,11111100,29,25,100,0.0,0,45,45,100828,20.46,0
63,287.5,2.563,-6.971,9.67655,-2.2789599999999997,-20.30169,-0.05179400000000001,0.067726,0.9376040000000001,7280.0,14460.0,2960.0,47.9,10.11,00000000 00000000,32.825763598,34.956245186,22.118,-0.25,-0.38,0.06,0.06,-0.39,-0.78,-0.03,0.07,-0.69,32.825764974,34.95618871,22.158,0.47,332.48,0.07,307253670,2172,1000,11111100,29,25,100,0.0,0,20,20,100828,20.46,3
64,287.908,2.8560000000000003,-6.9270000000000005,9.37101,4.6273800000000005,-14.93542,-0.045032,0.077724,0.931167,7310.0,14370.0,2960.0,47.9,10.08,00000000 00000000,32.825763507,34.956245116999995,22.12,-0.26,-0.42,0.05,0.06,-0.38,-0.79,-0.01,0.08,-0.73,32.825764974,34.95618871,22.158,0.47,332.48,0.07,307253695,2172,1000,11111100,29,25,100,0.0,0,45,45,100828,20.38,0
65,288.161,3.1039999999999996,-6.716,7.307339999999999,8.96598,-10.35789,-0.028609,0.073338,0.91865,7310.0,14300.0,2990.0,47.9,10.12,00000000 00000000,32.82576351,34.956245168,22.123,-0.28,-0.44,0.03,0.06,-0.37,-0.8,0.0,0.08,-0.77,32.825765171,34.956188626,22.169,0.46,337.99,0.07,307253720,2172,1000,11111100,29,25,100,0.0,0,20,20,100828,20.38,3
66,288.363,3.275,-6.481,4.31723,8.67218,-8.12918,-0.015576,0.070426,0.9084459999999999,7310.0,14240.0,3010.0,47.9,10.09,00000000 00000000,32.825763406,34.95624509,22.123,-0.29,-0.47,0.0,0.06,-0.36,-0.82,0.02,0.09,-0.8,32.825765171,34.956188626,22.169,0.46,337.99,0.07,307253745,2172,1000,11111100,29,25,100,0.0,0,45,45,100830,20.29,0
67,288.503,3.372,-6.25,1.46874,8.522089999999999,-8.97708,0.013821,0.067531,0.921776,7290.0,14210.0,3050.0,47.9,10.07,00000000 00000000,32.825763302,34.956245113,22.124,-0.3,-0.49,-0.01,0.06,-0.36,-0.83,0.04,0.09,-0.82,32.825765395,34.956188517,22.161,0.53,337.7,-0.15,307253770,2172,1000,11111100,28,25,100,0.0,0,20,20,100830,20.21,3
68,288.704,3.392,-6.069,-1.81752,3.89632,-6.62396,0.022221,0.061288,0.919668,7280.0,14170.0,3060.0,47.9,10.08,00000000 00000000,32.825763189,34.956245031,22.123,-0.31,-0.51,-0.03,0.06,-0.35,-0.85,0.06,0.09,-0.84,32.825765395,34.956188517,22.161,0.53,337.7,-0.15,307253795,2172,1000,11111100,28,25,100,0.0,0,45,45,100830,20.29,0
69,288.846,3.3089999999999997,-6.056,-6.00634,-3.2186,-4.149830000000001,-0.00828,0.062975,0.9253549999999999,7270.0,14160.0,3090.0,48.0,10.12,00000000 00000000,32.82576308,34.956244949,22.125,-0.32,-0.52,-0.04,0.06,-0.34,-0.86,0.08,0.1,-0.85,32.825765651,34.956188466,22.173,0.57,348.87,0.11,307253820,2172,1000,11111100,28,25,100,0.0,0,20,20,100830,20.29,3
70,288.988,3.128,-6.178,-9.40053,-6.66419,-5.7329300000000005,-0.022522999999999998,0.058598000000000004,0.957578,7280.0,14160.0,3060.0,48.0,10.1,00000000 00000000,32.825762958,34.956244862,22.123,-0.33,-0.55,-0.06,0.06,-0.34,-0.88,0.09,0.1,-0.88,32.825765651,34.956188466,22.173,0.57,348.87,0.11,307253845,2172,1000,11111100,28,25,100,0.0,0,45,45,100828,20.38,0
71,289.008,2.8819999999999997,-6.364,-12.22901,-9.14715,-5.47634,-0.032719,0.061759,0.9939370000000001,7300.0,14170.0,3040.0,48.0,10.13,00000000 00000000,32.825762838,34.956244959,22.123,-0.33,-0.58,-0.07,0.06,-0.33,-0.89,0.1,0.1,-0.91,32.825765935,34.956188391,22.17,0.64,347.4,-0.05,307253870,2172,1000,11111100,29,25,100,0.0,0,20,20,100828,20.38,3
72,289.154,2.557,-6.602,-14.436010000000001,-10.04593,-3.12031,-0.057663,0.067231,1.030917,7330.0,14200.0,3000.0,48.0,10.08,00000000 00000000,32.825762703,34.956244866999995,22.121,-0.35,-0.61,-0.07,0.06,-0.32,-0.91,0.1,0.1,-0.94,32.825765935,34.956188391,22.17,0.64,347.4,-0.05,307253895,2172,1000,11111100,29,25,100,0.0,0,45,45,100828,20.46,0
73,289.16200000000003,2.218,-6.829,-13.3719,-8.47912,-2.4097,-0.076989,0.061253999999999996,1.06434,7360.0,14230.0,2970.0,48.0,10.09,00000000 00000000,32.82576257,34.956244876999996,22.121,-0.36,-0.65,-0.06,0.05,-0.32,-0.93,0.09,0.11,-0.99,32.825766226999995,34.956188266999995,22.162,0.68,338.89,-0.29,307253920,2172,1000,11111100,28,25,100,0.0,0,20,20,100828,20.38,3
74,289.262,1.933,-7.0089999999999995,-10.07726,-6.46033,-2.25589,-0.075532,0.056202999999999996,1.0973899999999999,7390.0,14260.0,2920.0,48.0,10.08,00000000 00000000,32.825762417,34.956244775,22.12,-0.39,-0.7,-0.04,0.05,-0.31,-0.95,0.08,0.11,-1.04,32.825766226999995,34.956188266999995,22.162,0.68,338.89,-0.29,307253945,2172,1000,11111100,28,25,100,0.0,0,45,45,100828,20.46,0
75,289.184,1.74,-7.151,-5.9557400000000005,-5.297619999999999,2.19867,-0.061736,0.046901,1.12452,7390.0,14310.0,2910.0,48.0,10.12,00000000 00000000,32.825762266999995,34.956244771,22.12,-0.4,-0.74,-0.02,0.05,-0.3,-0.97,0.05,0.12,-1.08,32.82576657,34.956188118,22.146,0.81,339.82,-0.31,307253970,2172,1000,11111100,27,25,100,0.0,0,20,20,100828,20.46,3
76,289.074,1.625,-7.275,-2.19445,-4.14665,7.186939999999999,-0.035554,0.033797,1.166778,7410.0,14330.0,2870.0,48.0,10.09,00000000 00000000,32.825762093,34.956244661,22.12,-0.42,-0.79,0.01,0.05,-0.29,-0.99,0.02,0.12,-1.13,32.82576657,34.956188118,22.146,0.81,339.82,-0.31,307253995,2172,1000,11111100,27,25,100,0.0,0,45,45,100830,20.29,8
77,288.725,1.579,-7.322,0.07943,1.16788,9.98225,-0.016106,0.030026,1.182803,7400.0,14380.0,2900.0,48.0,10.08,00000000 00000000,32.825761926999995,34.956244657,22.121,-0.43,-0.83,0.05,0.05,-0.29,-1.01,-0.01,0.12,-1.17,32.825766954,34.956187971999995,22.14,0.89,341.18,-0.23,307254020,2172,1000,11111100,27,25,100,0.0,0,20,20,100830,20.29,3
78,288.431,1.545,-7.212000000000001,-0.19267,8.04718,14.01905,-0.0008089999999999999,-0.000488,1.1507120000000002,7390.0,14410.0,2900.0,48.0,10.08,00000000 00000000,32.825761736,34.95624454,22.123,-0.43,-0.86,0.09,0.05,-0.28,-1.03,-0.05,0.12,-1.2,32.825766954,34.956187971999995,22.14,0.89,341.18,-0.23,307254045,2172,1000,11111100,27,25,100,0.0,0,45,45,100830,20.29,0
79,288.046,1.463,-6.986000000000001,-1.96852,9.47494,20.2024,0.023415000000000002,-0.012118,1.1354549999999999,7360.0,14450.0,2890.0,47.9,10.12,00000000 00000000,32.825761561,34.956244428000005,22.127,-0.43,-0.89,0.12,0.05,-0.27,-1.06,-0.08,0.11,-1.23,32.825767313,34.956187887,22.152,0.81,348.68,0.22,307254070,2172,1000,11111100,28,25,100,0.0,0,20,20,100830,20.29,3
80,287.457,1.364,-6.745,0.41265,11.21932,27.9011,0.081091,0.019749,1.1489719999999999,7330.0,14490.0,2880.0,47.9,10.1,00000000 00000000,32.825761356,34.956244311,22.131,-0.44,-0.92,0.16,0.05,-0.27,-1.08,-0.11,0.1,-1.25,32.825767313,34.956187887,22.152,0.81,348.68,0.22,307254095,2172,1000,11111100,28,25,100,0.0,0,45,45,100830,20.29,0
81,286.54200000000003,1.35,-6.447,5.160909999999999,13.94766,33.740140000000004,0.12636,0.068923,1.12829,7270.0,14560.0,2900.0,47.9,10.11,00000000 00000000,32.825761173000004,34.956244288,22.136,-0.43,-0.92,0.19,0.05,-0.26,-1.1,-0.15,0.1,-1.25,32.825767733,34.956187733,22.169,0.97,341.83,0.21,307254120,2172,1000,11111100,28,25,100,0.0,0,20,20,100828,20.38,3
82,285.715,1.4240000000000002,-6.024,7.2751,21.492160000000002,30.589540000000003,0.150566,0.057812999999999996,1.067792,7190.0,14630.0,2930.0,47.9,10.1,00000000 00000000,32.825760966,34.956244169,22.142,-0.44,-0.91,0.22,0.05,-0.25,-1.13,-0.18,0.11,-1.24,32.825767733,34.956187733,22.169,0.97,341.83,0.21,307254145,2172,1000,11111100,28,25,100,0.0,0,45,45,100828,20.38,0
83,284.97900000000004,1.517,-5.437,5.37633,25.68955,29.96343,0.146215,-0.014049,1.006451,7090.0,14690.0,2980.0,47.9,10.1,00000000 00000000,32.825760795,34.956244069,22.148,-0.44,-0.89,0.23,0.05,-0.25,-1.15,-0.19,0.11,-1.23,32.825768122,34.956187506999996,22.174,0.96,333.86,0.11,307254170,2172,1000,11111100,28,25,100,0.0,0,20,20,100830,20.29,3
84,284.16200000000003,1.516,-4.8180000000000005,0.11122,25.21005,35.393609999999995,0.122482,-0.042069,0.9704079999999999,6980.0,14760.0,3030.0,47.9,10.08,00000000 00000000,32.825760594,34.956243952,22.154,-0.42,-0.89,0.23,0.05,-0.24,-1.17,-0.19,0.1,-1.21,32.825768122,34.956187506999996,22.174,0.96,333.86,0.11,307254195,2172,1000,11111100,28,25,100,0.0,0,45,45,100830,20.29,0
85,283.164,1.392,-4.205,-4.056109999999999,25.49974,38.48769,0.093802,-0.049105,0.934041,6860.0,14830.0,3080.0,47.9,10.08,00000000 00000000,32.82576043,34.956243914,22.162,-0.4,-0.88,0.22,0.05,-0.23,-1.19,-0.18,0.08,-1.2,32.825768493000005,34.956187358,22.199,0.86,340.29,0.37,307254220,2172,1000,11111100,28,25,100,0.0,0,20,20,100828,20.38,3
86,282.218,1.202,-3.576,-5.4337,26.28408,37.1173,0.099605,-0.026264999999999997,0.911428,6740.0,14910.0,3110.0,47.9,10.07,00000000 00000000,32.825760231,34.956243808,22.167,-0.38,-0.87,0.2,0.05,-0.23,-1.22,-0.16,0.06,-1.19,32.825768493000005,34.956187358,22.199,0.86,340.29,0.37,307254245,2172,1000,11111100,28,25,100,0.0,0,45,45,100830,20.29,0
87,281.285,1.034,-2.96,-4.1775,23.108060000000002,31.98635,0.135389,-0.0066359999999999995,0.902458,6600.0,15000.0,3150.0,47.9,10.1,00000000 00000000,32.825760076,34.956243785,22.174,-0.37,-0.86,0.18,0.05,-0.22,-1.24,-0.14,0.06,-1.17,32.825768858,34.956187228000005,22.213,0.84,343.27,0.28,307254270,2172,1000,11111100,28,25,100,0.0,0,20,20,100830,20.29,3
88,280.58799999999997,0.912,-2.447,-3.5113800000000004,18.52359,23.7567,0.151124,0.00387,0.8750969999999999,6490.0,15080.0,3180.0,47.9,10.08,00000000 00000000,32.825759885,34.956243686,22.178,-0.36,-0.83,0.16,0.05,-0.22,-1.26,-0.12,0.05,-1.14,32.825768858,34.956187228000005,22.213,0.84,343.27,0.28,307254295,2172,1000,11111100,28,25,100,0.0,0,45,45,100830,20.29,0
89,279.972,0.792,-2.072,-5.154380000000001,11.60442,13.884020000000001,0.158526,0.014203,0.8596309999999999,6400.0,15150.0,3210.0,47.9,10.11,00000000 00000000,32.825759698,34.956243683000004,22.183,-0.34,-0.8,0.13,0.05,-0.21,-1.28,-0.09,0.05,-1.11,32.82576919,34.956187145,22.223,0.75,346.81,0.09,307254320,2172,1000,11111100,27,25,100,0.0,0,20,20,100828,20.38,3
90,279.72900000000004,0.643,-1.903,-5.86297,2.20047,6.64715,0.11492000000000001,0.02515,0.844403,6340.0,15190.0,3210.0,47.9,10.08,00000000 00000000,32.82575952,34.956243590999996,22.186,-0.34,-0.77,0.09,0.05,-0.21,-1.3,-0.05,0.05,-1.08,32.82576919,34.956187145,22.223,0.75,346.81,0.09,307254345,2172,1000,11111100,27,25,100,0.0,0,45,45,100828,20.38,0
91,279.57,0.49,-1.9340000000000002,-6.5307900000000005,-3.9449199999999998,3.4469199999999995,0.058977999999999996,0.030981,0.822902,6300.0,15240.0,3220.0,47.9,10.1,00000000 00000000,32.825759348000005,34.956243535,22.189,-0.34,-0.76,0.05,0.05,-0.2,-1.31,-0.01,0.05,-1.06,32.825769521,34.956187,22.217,0.78,339.71,-0.12,307254370,2172,1000,11111100,27,25,100,0.0,0,20,20,100828,20.46,3
92,279.47900000000004,0.313,-2.069,-7.12702,-6.65747,4.838480000000001,0.011376,0.033895999999999996,0.820363,6300.0,15270.0,3190.0,47.9,10.07,00000000 00000000,32.825759176999995,34.956243441999995,22.189,-0.35,-0.75,0.01,0.05,-0.2,-1.33,0.02,0.06,-1.05,32.825769521,34.956187,22.217,0.78,339.71,-0.12,307254395,2172,1000,11111100,27,25,100,0.0,0,45,45,100828,20.46,0
93,279.329,0.156,-2.2569999999999997,-4.08707,-7.93142,6.72997,-0.025296000000000003,0.04988,0.849468,6290.0,15320.0,3180.0,47.9,10.09,00000000 00000000,32.825759009,34.956243358,22.19,-0.36,-0.76,-0.02,0.05,-0.19,-1.35,0.06,0.07,-1.06,32.825769873,34.956186828,22.221,0.84,336.61,-0.03,307254420,2172,1000,11111100,27,25,100,0.0,0,20,20,100828,20.38,3
94,279.163,0.127,-2.436,2.41533,-5.545,6.0696699999999995,-0.052676,0.052530999999999994,0.8791120000000001,6300.0,15360.0,3160.0,47.9,10.1,00000000 00000000,32.825758835,34.95624326,22.189,-0.37,-0.78,-0.05,0.05,-0.19,-1.37,0.1,0.08,-1.07,32.825769873,34.956186828,22.221,0.84,336.61,-0.03,307254445,2172,1000,11111100,27,25,100,0.0,0,45,45,100830,20.29,0
95,279.07099999999997,0.259,-2.531,8.50233,-2.3056799999999997,4.89764,-0.046879000000000004,0.050637,0.89489,6320.0,15360.0,3130.0,47.9,10.11,00000000 00000000,32.825758663,34.956243136,22.188,-0.39,-0.79,-0.08,0.05,-0.18,-1.38,0.12,0.09,-1.09,32.825770266,34.956186591999995,22.215,0.97,333.15,-0.12,307254470,2172,1000,11111100,27,25,100,0.0,0,20,20,100830,20.29,3
96,278.949,0.537,-2.568,14.426420000000002,-1.24385,4.05575,-0.049442,0.056251,0.927321,6320.0,15350.0,3120.0,47.9,10.08,00000000 00000000,32.825758482,34.956243029,22.186,-0.4,-0.81,-0.11,0.05,-0.18,-1.4,0.15,0.1,-1.11,32.825770266,34.956186591999995,22.215,0.97,333.15,-0.12,307254495,2172,1000,11111100,27,25,100,0.0,0,45,45,100830,20.21,0
97,278.908,0.99,-2.615,22.52974,-2.12851,1.8335099999999998,-0.040879,0.088228,0.997901,6310.0,15340.0,3170.0,47.9,10.11,00000000 00000000,32.825758303,34.956242894,22.183,-0.42,-0.83,-0.12,0.05,-0.17,-1.42,0.16,0.12,-1.13,32.825770693,34.956186337,22.205,1.06,332.38,-0.31,307254520,2172,1000,11111100,27,25,100,0.0,0,20,20,100830,20.21,3
98,278.877,1.646,-2.673,29.6342,-2.43692,-1.24224,-0.039001,0.068009,1.051376,6320.0,15270.0,3160.0,47.9,10.09,00000000 00000000,32.825758113,34.956242777,22.18,-0.44,-0.85,-0.11,0.05,-0.16,-1.44,0.15,0.13,-1.15,32.825770693,34.956186337,22.205,1.06,332.38,-0.31,307254545,2172,1000,11111100,27,25,100,0.0,0,45,45,100830,20.21,0
99,278.784,2.4330000000000003,-2.7569999999999997,31.897070000000003,-4.44059,-0.8628399999999999,-0.06500800000000001,0.012795,1.078214,6320.0,15210.0,3220.0,47.9,10.12,00000000 00000000,32.825757919000004,34.956242697,22.177,-0.44,-0.87,-0.09,0.05,-0.16,-1.46,0.14,0.13,-1.17,32.825771058,34.95618616,22.194,0.87,337.73,-0.2,307254570,2172,1000,11111100,27,25,100,0.0,0,20,20,100830,20.21,3
100,278.793,3.214,-2.85,29.56883,-1.8388799999999998,-4.13962,-0.094672,-0.010757,1.0948959999999999,6340.0,15120.0,3250.0,47.9,10.08,00000000 00000000,32.825757719,34.956242579,22.175,-0.43,-0.9,-0.07,0.05,-0.15,-1.48,0.12,0.12,-1.2,32.825771058,34.95618616,22.194,0.87,337.73,-0.2,307254595,2172,1000,11111100,27,25,100,0.0,0,45,45,100830,20.21,0
101,278.877,3.891,-2.8569999999999998,23.47269,-0.35549000000000003,-6.66728,-0.063026,-0.021351,1.097759,6340.0,15040.0,3310.0,47.9,10.12,00000000 00000000,32.825757513,34.956242482,22.174,-0.41,-0.94,-0.05,0.05,-0.14,-1.5,0.09,0.1,-1.23,32.82577147,34.956185971,22.195,0.98,337.99,-0.08,307254620,2172,1000,11111100,27,25,100,0.0,0,20,20,100830,20.29,3
102,278.96299999999997,4.3580000000000005,-2.842,12.037510000000001,1.73016,-1.48643,-0.060488,-0.036775,1.102904,6360.0,14950.0,3340.0,47.9,10.08,00000000 00000000,32.825757296999996,34.956242372,22.173,-0.39,-0.97,-0.03,0.05,-0.14,-1.52,0.07,0.07,-1.25,32.82577147,34.956185971,22.195,0.98,337.99,-0.08,307254645,2172,1000,11111100,27,25,100,0.0,0,45,45,100830,20.29,0
103,278.818,4.462,-2.793,-4.17835,0.9941700000000001,-1.6725599999999998,-0.0152,-0.032755,1.111532,6360.0,14910.0,3380.0,47.9,10.11,00000000 00000000,32.825757071,34.956242318,22.174,-0.36,-1.0,0.0,0.05,-0.13,-1.54,0.05,0.04,-1.27,32.825771872,34.95618587,22.202,0.91,348.03,0.14,307254670,2172,1000,11111100,26,25,100,0.0,0,20,20,100830,20.29,3
104,278.91,4.2139999999999995,-2.842,-14.906620000000002,-6.70914,-4.22381,0.083425,0.006266,1.173581,6360.0,14910.0,3380.0,47.9,10.08,00000000 00000000,32.825756844000004,34.956242223000004,22.174,-0.34,-1.01,0.02,0.05,-0.13,-1.56,0.02,0.02,-1.28,32.825771872,34.95618587,22.202,0.91,348.03,0.14,307254695,2172,1000,11111100,26,25,100,0.0,0,45,45,100830,20.21,0
105,279.139,3.773,-3.0860000000000003,-20.140179999999997,-12.86764,-4.38701,0.121401,-0.008593,1.176496,6380.0,14960.0,3370.0,47.9,10.08,00000000 00000000,32.825756623000004,34.956242112,22.177,-0.32,-1.0,0.07,0.05,-0.12,-1.58,-0.02,0.0,-1.26,32.825772367,34.956185647,22.213,1.17,338.54,0.09,307254720,2172,1000,11111100,26,25,100,0.0,0,20,20,100830,20.21,3
106,279.268,3.239,-3.4410000000000003,-22.70734,-15.33664,-3.9609300000000003,0.083212,-0.004136,1.1160709999999998,6410.0,15010.0,3310.0,47.9,10.09,00000000 00000000,32.825756399,34.956242028,22.179,-0.3,-0.99,0.1,0.05,-0.12,-1.6,-0.06,-0.01,-1.25,32.825772367,34.956185647,22.213,1.17,338.54,0.09,307254745,2172,1000,11111100,26,25,100,0.0,0,45,45,100830,20.29,0
107,279.455,2.675,-3.787,-22.85284,-11.65559,-7.99339,0.04116,0.051210000000000006,1.074658,6450.0,15090.0,3260.0,47.9,10.13,00000000 00000000,32.825756182,34.956241946999995,22.182,-0.29,-0.99,0.13,0.05,-0.12,-1.62,-0.08,-0.02,-1.24,32.825772783000005,34.956185164000004,22.167,1.29,315.58,-0.91,307254770,2172,1000,11111100,26,25,100,0.0,0,20,20,100830,20.29,3
108,279.79400000000004,2.156,-3.924,-19.65504,0.6908,-16.65192,0.004604,0.084147,1.063577,6500.0,15140.0,3180.0,47.9,10.07,00000000 00000000,32.825755957,34.956241866999996,22.185,-0.3,-1.0,0.14,0.05,-0.12,-1.64,-0.1,-0.02,-1.25,32.825772783000005,34.956185164000004,22.167,1.29,315.58,-0.91,307254795,2172,1000,11111100,26,25,100,0.0,0,45,45,100828,20.38,0
109,280.357,1.744,-3.7230000000000003,-17.05487,13.51061,-25.158260000000002,-0.027236,0.067574,0.987281,6520.0,15190.0,3160.0,47.9,10.05,00000000 00000000,32.82575573,34.956241783,22.189,-0.31,-1.02,0.15,0.05,-0.11,-1.66,-0.11,-0.01,-1.27,32.825773272,34.956184885999996,22.183,1.2,333.71,0.23,307254820,2172,1000,11111100,26,25,100,0.0,0,20,20,100828,20.38,3
110,281.03,1.36,-3.24,-16.89432,22.57084,-24.84106,-0.0302,0.049672,0.892179,6510.0,15200.0,3180.0,47.9,10.09,00000000 00000000,32.825755499,34.956241696999996,22.193,-0.33,-1.03,0.14,0.05,-0.11,-1.68,-0.09,0.0,-1.28,32.825773272,34.956184885999996,22.183,1.2,333.71,0.23,307254845,2172,1000,11111100,26,25,100,0.0,0,45,45,100828,20.46,0
111,281.66,0.991,-2.559,-14.35948,30.05943,-21.01393,0.026180000000000002,0.064101,0.862634,6490.0,15190.0,3190.0,47.9,10.11,00000000 00000000,32.825755266,34.956241601,22.197,-0.34,-1.04,0.1,0.05,-0.11,-1.7,-0.06,0.0,-1.29,32.825773815,34.956184684,22.212,1.26,342.52,0.56,307254870,2172,1000,11111100,27,25,100,0.0,0,20,20,100828,20.46,3
112,282.121,0.6990000000000001,-1.8030000000000002,-10.45681,28.248409999999996,-14.42915,0.124297,0.044495,0.897675,6450.0,15180.0,3210.0,47.9,10.08,00000000 00000000,32.825755031999996,34.956241507,22.199,-0.35,-1.03,0.08,0.05,-0.1,-1.72,-0.03,0.01,-1.28,32.825773815,34.956184684,22.212,1.26,342.52,0.56,307254895,2172,1000,11111100,27,25,100,0.0,0,45,45,100828,20.46,0
113,282.476,0.46799999999999997,-1.159,-8.49594,23.08876,-5.40688,0.154471,0.046419999999999996,0.8837209999999999,6400.0,15200.0,3250.0,47.9,10.12,00000000 00000000,32.825754816,34.956241398,22.202,-0.35,-1.0,0.05,0.05,-0.1,-1.74,-0.01,0.02,-1.25,32.825774243000005,34.95618444,22.228,1.05,333.57,0.22,307254920,2172,1000,11111100,27,25,100,0.0,0,20,20,100828,20.46,3
114,282.53700000000003,0.262,-0.672,-8.05768,15.34697,-0.33016999999999996,0.09759,0.040257999999999995,0.8426450000000001,6340.0,15210.0,3270.0,47.9,10.09,00000000 00000000,32.825754595,34.956241301999995,22.203,-0.36,-0.96,0.02,0.05,-0.1,-1.76,0.01,0.03,-1.21,32.825774243000005,34.95618444,22.228,1.05,333.57,0.22,307254945,2172,1000,11111100,27,25,100,0.0,0,45,45,100828,20.46,0
115,282.651,0.07400000000000001,-0.4,-6.5051,6.709980000000001,-0.4831,0.039523,0.024981,0.8534940000000001,6280.0,15250.0,3330.0,47.9,10.13,00000000 00000000,32.825754393000004,34.956241186999996,22.204,-0.37,-0.95,-0.01,0.05,-0.09,-1.78,0.05,0.04,-1.19,32.825774675,34.956184165,22.224,1.08,331.79,-0.08,307254970,2172,1000,11111100,27,25,100,0.0,0,20,20,100828,20.46,3
116,282.698,0.073,-0.309,-5.62894,1.01588,-3.38933,-0.008931999999999999,0.019633,0.8660950000000001,6260.0,15260.0,3330.0,47.9,10.08,00000000 00000000,32.82575418,34.956241086999995,22.203,-0.37,-0.94,-0.04,0.05,-0.09,-1.8,0.08,0.04,-1.19,32.825774675,34.956184165,22.224,1.08,331.79,-0.08,307254995,2172,1000,11111100,27,25,100,0.0,0,45,45,100828,20.46,8
117,282.832,0.222,-0.337,-6.35049,-2.91463,-6.76335,-0.053480999999999994,-0.0032259999999999997,0.896812,6240.0,15300.0,3380.0,47.9,10.08,00000000 00000000,32.825753973000005,34.956240987,22.202,-0.38,-0.95,-0.07,0.05,-0.09,-1.82,0.11,0.05,-1.19,32.825775061,34.95618397,22.22,0.93,336.1,-0.15,307255020,2172,1000,11111100,27,25,100,0.0,0,20,20,100828,20.46,3
118,283.017,0.375,-0.474,-5.82265,-8.71288,-7.08372,-0.077435,-0.01385,0.947362,6260.0,15310.0,3380.0,47.9,10.08,00000000 00000000,32.825753757,34.956240885,22.2,-0.38,-0.96,-0.09,0.05,-0.08,-1.83,0.13,0.05,-1.2,32.825775061,34.95618397,22.22,0.93,336.1,-0.15,307255045,2172,1000,11111100,27,25,100,0.0,0,45,45,100828,20.46,0
119,283.124,0.52,-0.8140000000000001,-6.52789,-18.80625,-2.03898,-0.075663,-0.017758000000000003,1.006257,6310.0,15290.0,3340.0,47.9,10.12,00000000 00000000,32.825753542,34.956240786,22.198,-0.38,-0.98,-0.1,0.05,-0.08,-1.85,0.14,0.04,-1.22,32.825775443000005,34.956183789,22.212,0.91,338.17,-0.15,307255070,2172,1000,11111100,27,25,100,0.0,0,20,20,100828,20.46,3
120,283.055,0.708,-1.357,-8.28621,-22.82124,8.16993,-0.075752,0.000741,1.105146,6380.0,15300.0,3290.0,47.9,10.07,00000000 00000000,32.825753317,34.956240683000004,22.195,-0.39,-1.01,-0.08,0.05,-0.07,-1.87,0.13,0.04,-1.24,32.825775443000005,34.956183789,22.212,0.91,338.17,-0.15,307255095,2172,1000,11111100,27,25,100,0.0,0,45,45,100828,20.38,0
121,282.873,0.925,-1.876,-7.082560000000001,-18.25775,15.82119,-0.028354,0.028673,1.189632,6430.0,15350.0,3240.0,47.9,10.12,00000000 00000000,32.825753096999996,34.956240566999995,22.194,-0.4,-1.02,-0.05,0.04,-0.07,-1.89,0.09,0.05,-1.26,32.825775968,34.956183487,22.211,1.29,333.57,-0.12,307255120,2172,1000,11111100,27,25,100,0.0,0,20,20,100828,20.46,3
122,282.404,1.054,-2.245,-1.3345,-10.91934,22.06965,0.017137,0.059115,1.2115799999999999,6470.0,15400.0,3200.0,47.9,10.09,00000000 00000000,32.825752865,34.956240455999996,22.193,-0.42,-1.03,0.0,0.04,-0.06,-1.91,0.04,0.07,-1.27,32.825775968,34.956183487,22.211,1.29,333.57,-0.12,307255145,2172,1000,11111100,27,25,100,0.0,0,45,45,100828,20.38,0
123,281.775,1.024,-2.332,5.80968,3.9072699999999996,28.47418,-0.007576,0.056422,1.171491,6470.0,15460.0,3180.0,47.9,10.09,00000000 00000000,32.825752632,34.956240339000004,22.194,-0.44,-1.03,0.04,0.04,-0.06,-1.92,0.0,0.09,-1.27,32.82577645,34.956183128,22.2,1.26,327.85,-0.21,307255170,2172,1000,11111100,27,25,100,0.0,0,20,20,100830,20.29,3
124,280.945,0.8320000000000001,-2.11,11.76383,8.62631,37.56022,-0.04964,0.024074,1.14042,6430.0,15520.0,3200.0,47.9,10.08,00000000 00000000,32.825752396999995,34.956240216,22.195,-0.46,-1.05,0.08,0.04,-0.05,-1.94,-0.03,0.1,-1.29,32.82577645,34.956183128,22.2,1.26,327.85,-0.21,307255195,2172,1000,11111100,27,25,100,0.0,0,45,45,100830,20.29,0
125,279.857,0.52,-1.996,15.69854,-0.91089,45.70151,0.013739,0.026272000000000004,1.159023,6350.0,15580.0,3230.0,47.9,10.09,00000000 00000000,32.825752156,34.95624009,22.198,-0.47,-1.06,0.11,0.04,-0.05,-1.96,-0.07,0.11,-1.3,32.825776907,34.956182903,22.202,1.09,336.83,-0.05,307255220,2172,1000,11111100,27,25,100,0.0,0,20,20,100828,20.38,3
126,278.624,0.134,-2.0869999999999997,18.34218,-5.10953,50.82099,0.079309,-0.03475,1.152569,6270.0,15650.0,3250.0,47.9,10.07,00000000 00000000,32.825751917,34.956239961,22.201,-0.47,-1.06,0.15,0.04,-0.04,-1.98,-0.11,0.11,-1.3,32.825776907,34.956182903,22.202,1.09,336.83,-0.05,307255245,2172,1000,11111100,27,25,100,0.0,0,45,45,100828,20.38,0
127,277.26,0.275,-2.161,17.194979999999997,-0.29308,50.2141,0.118126,-0.105647,1.0872979999999999,6180.0,15730.0,3270.0,47.9,10.12,00000000 00000000,32.825751681,34.956239833000005,22.206,-0.45,-1.04,0.18,0.04,-0.04,-2.0,-0.14,0.1,-1.28,32.825777319000004,34.956182729,22.212,0.96,340.35,0.2,307255270,2172,1000,11111100,27,25,100,0.0,0,20,20,100828,20.38,3
128,276.017,0.637,-2.1430000000000002,15.588339999999999,1.3239,47.79095,0.133715,-0.109398,1.013324,6100.0,15780.0,3250.0,47.9,10.04,00000000 00000000,32.825751446999995,34.956239716,22.211,-0.42,-1.03,0.2,0.04,-0.03,-2.02,-0.15,0.07,-1.25,32.825777319000004,34.956182729,22.212,0.96,340.35,0.2,307255295,2172,1000,11111100,27,25,100,0.0,0,45,45,100830,20.29,0
129,274.92,0.98,-2.185,15.75591,-4.92341,42.771190000000004,0.10687999999999999,-0.084851,0.960831,5990.0,15830.0,3280.0,47.9,10.11,00000000 00000000,32.825751231999995,34.95623961,22.216,-0.39,-1.0,0.2,0.04,-0.03,-2.03,-0.15,0.04,-1.23,32.82577774,34.956182481999996,22.206,1.04,332.93,-0.21,307255320,2172,1000,11111100,27,25,100,0.0,0,20,20,100828,20.38,3
130,273.926,1.3259999999999998,-2.468,14.46515,-15.556379999999999,35.24372,0.094874,-0.060837,0.938458,5920.0,15850.0,3280.0,47.9,10.1,00000000 00000000,32.825751007,34.956239508,22.22,-0.37,-0.99,0.18,0.04,-0.03,-2.05,-0.14,0.02,-1.21,32.82577774,34.956182481999996,22.206,1.04,332.93,-0.21,307255345,2172,1000,11111100,27,25,100,0.0,0,45,45,100828,20.46,0
131,273.166,1.578,-2.9130000000000003,8.268939999999999,-16.72684,29.548209999999997,0.087348,-0.027119,0.928528,5870.0,15880.0,3290.0,47.9,10.11,00000000 00000000,32.825750798,34.956239416,22.224,-0.35,-0.98,0.17,0.04,-0.02,-2.07,-0.12,0.0,-1.19,32.825778118,34.956182243,22.196,0.95,331.94,-0.18,307255370,2172,1000,11111100,27,25,100,0.0,0,20,20,100826,20.55,3
132,272.455,1.653,-3.2880000000000003,1.22009,-11.05004,27.190490000000004,0.074051,0.015003,0.88802,5860.0,15890.0,3260.0,47.9,10.05,00000000 00000000,32.825750578000005,34.956239321,22.228,-0.35,-0.97,0.15,0.04,-0.02,-2.08,-0.1,0.0,-1.18,32.825778118,34.956182243,22.196,0.95,331.94,-0.18,307255395,2172,1000,11111100,27,25,100,0.0,0,45,45,100828,20.46,0
133,271.808,1.578,-3.485,-3.8744699999999996,-2.44985,25.48368,0.007161,0.022531,0.851407,5840.0,15940.0,3240.0,47.9,10.1,00000000 00000000,32.825750369,34.956239228,22.23,-0.34,-0.97,0.11,0.04,-0.02,-2.1,-0.07,0.0,-1.18,32.825778513,34.956181921,22.203,1.06,324.88,0.04,307255420,2172,1000,11111100,27,25,100,0.0,0,20,20,100828,20.38,3
134,271.182,1.3940000000000001,-3.4539999999999997,-7.46794,4.40555,26.51662,-0.022436,0.015345,0.7917930000000001,5810.0,16000.0,3200.0,47.9,10.07,00000000 00000000,32.825750149,34.956239135,22.233,-0.35,-0.98,0.07,0.04,-0.02,-2.11,-0.03,0.0,-1.19,32.825778513,34.956181921,22.203,1.06,324.88,0.04,307255445,2172,1000,11111100,27,25,100,0.0,0,45,45,100828,20.46,0
135,270.587,1.148,-3.361,-7.408110000000001,4.2198,30.11355,-0.086061,0.003222,0.796806,5740.0,16080.0,3180.0,47.9,10.1,00000000 00000000,32.825749945,34.956239057,22.234,-0.35,-1.0,0.02,0.04,-0.01,-2.13,0.01,0.0,-1.21,32.825778918000005,34.956181628,22.21,1.05,328.58,0.15,307255470,2172,1000,11111100,27,25,100,0.0,0,20,20,100828,20.46,3
136,269.883,0.972,-3.236,-3.06728,7.6703600000000005,25.201710000000002,-0.11165699999999999,0.041893,0.828324,5670.0,16150.0,3150.0,47.9,10.08,00000000 00000000,32.825749714000004,34.956238962,22.234,-0.35,-1.04,-0.02,0.04,-0.01,-2.14,0.06,0.0,-1.24,32.825778918000005,34.956181628,22.21,1.05,328.58,0.15,307255495,2172,1000,11111100,27,25,100,0.0,0,45,45,100828,20.46,0
137,269.401,0.9259999999999999,-2.9960000000000004,1.31434,11.72741,14.58635,-0.081233,0.054965,0.872682,5580.0,16220.0,3150.0,47.9,10.11,00000000 00000000,32.825749486999996,34.956238866999996,22.232,-0.36,-1.07,-0.06,0.04,-0.01,-2.16,0.1,0.0,-1.27,32.825779306,34.956181431,22.226,0.93,336.11,0.23,307255520,2172,1000,11111100,27,25,100,0.0,0,20,20,100826,20.55,3
138,269.14599999999996,0.993,-2.678,5.14656,13.90688,6.20742,-0.034489,0.046391,0.9343600000000001,5520.0,16240.0,3130.0,47.9,10.1,00000000 00000000,32.825749242,34.956238766999995,22.23,-0.37,-1.1,-0.08,0.04,-0.01,-2.17,0.12,0.0,-1.29,32.825779306,34.956181431,22.226,0.93,336.11,0.23,307255545,2172,1000,11111100,27,25,100,0.0,0,45,45,100828,20.46,0
139,269.06,1.16,-2.3040000000000003,8.29453,15.644979999999999,0.5120899999999999,-0.013636,0.042270999999999996,1.006026,5460.0,16240.0,3160.0,47.9,10.11,00000000 00000000,32.825748992,34.956238666,22.227,-0.38,-1.11,-0.09,0.04,0.0,-2.19,0.13,0.01,-1.31,32.825779784,34.956181117,22.218,1.21,331.04,-0.15,307255570,2172,1000,11111100,26,25,100,0.0,0,20,20,100826,20.55,3
140,269.092,1.3980000000000001,-1.933,10.17742,13.82419,-3.5604699999999996,0.002494,0.030773000000000002,1.085317,5420.0,16210.0,3180.0,47.9,10.08,00000000 00000000,32.82574874,34.956238563,22.225,-0.38,-1.12,-0.08,0.04,0.0,-2.21,0.12,0.01,-1.31,32.825779784,34.956181117,22.218,1.21,331.04,-0.15,307255595,2172,1000,11111100,26,25,100,0.0,0,45,45,100828,20.46,0
141,269.223,1.651,-1.575,9.15955,15.02891,-7.3074699999999995,0.012740999999999999,0.021144999999999997,1.13886,5370.0,16180.0,3230.0,47.9,10.12,00000000 00000000,32.825748486,34.95623846,22.222,-0.38,-1.13,-0.05,0.04,0.0,-2.23,0.1,0.01,-1.31,32.825780299,34.956180763,22.211,1.32,329.39,-0.22,307255620,2172,1000,11111100,26,25,100,0.0,0,20,20,100828,20.46,3
142,269.441,1.86,-1.172,7.190919999999999,16.646829999999998,-10.457980000000001,0.021602,0.013243000000000001,1.1637600000000001,5340.0,16140.0,3250.0,47.9,10.08,00000000 00000000,32.825748231,34.956238358,22.221,-0.38,-1.13,-0.01,0.04,0.0,-2.24,0.06,0.01,-1.31,32.825780299,34.956180763,22.211,1.32,329.39,-0.22,307255645,2172,1000,11111100,26,25,100,0.0,0,45,45,100828,20.46,0
143,269.788,2.0180000000000002,-0.718,5.41542,18.890220000000003,-12.320910000000001,0.035173,-0.00155,1.162304,5290.0,16110.0,3330.0,47.9,10.12,00000000 00000000,32.825747981999996,34.95623827,22.22,-0.37,-1.13,0.02,0.04,0.0,-2.26,0.02,0.0,-1.31,32.825780758,34.956180509,22.188,1.12,334.95,-0.45,307255670,2172,1000,11111100,26,25,100,0.0,0,20,20,100828,20.46,3
144,270.096,2.133,-0.273,3.7680599999999997,12.45862,-12.49925,0.026023,-0.013011000000000002,1.1764219999999999,5270.0,16070.0,3360.0,47.9,10.1,00000000 00000000,32.825747729,34.956238171,22.221,-0.36,-1.12,0.06,0.04,0.0,-2.28,-0.01,0.0,-1.3,32.825780758,34.956180509,22.188,1.12,334.95,-0.45,307255695,2172,1000,11111100,26,25,100,0.0,0,45,45,100830,20.29,0
145,270.416,2.219,-0.154,3.2548,-3.6279199999999996,-12.580969999999999,0.084897,0.021345,1.180978,5260.0,16030.0,3380.0,47.9,10.13,00000000 00000000,32.825747477,34.956238076,22.223,-0.35,-1.11,0.1,0.04,0.0,-2.29,-0.06,-0.01,-1.28,32.825781191,34.956180199,22.195,1.12,328.37,0.06,307255720,2172,1000,11111100,26,25,100,0.0,0,20,20,100828,20.38,3
146,270.72700000000003,2.292,-0.336,2.43202,-8.935030000000001,-12.89603,0.14493399999999998,0.015534000000000001,1.171206,5280.0,16010.0,3380.0,47.9,10.08,00000000 00000000,32.82574723,34.956237982,22.226,-0.34,-1.08,0.15,0.04,0.0,-2.31,-0.1,-0.02,-1.25,32.825781191,34.956180199,22.195,1.12,328.37,0.06,307255745,2172,1000,11111100,26,25,100,0.0,0,45,45,100828,20.46,0
147,271.078,2.3409999999999997,-0.467,1.61805,-2.59892,-14.29764,0.157392,-0.008798,1.105014,5310.0,16000.0,3410.0,47.9,10.1,00000000 00000000,32.82574699,34.956237891,22.229,-0.33,-1.04,0.18,0.04,0.0,-2.32,-0.14,-0.03,-1.22,32.825781676999995,34.956179791,22.204,1.32,324.69,0.16,307255770,2172,1000,11111100,25,25,100,0.0,0,20,20,100828,20.38,3
148,271.408,2.385,-0.49700000000000005,1.65097,-2.12739,-12.07592,0.128459,0.01523,1.005845,5350.0,15970.0,3390.0,47.9,10.08,00000000 00000000,32.825746759,34.956237802,22.234,-0.32,-1.01,0.2,0.04,0.01,-2.34,-0.15,-0.04,-1.18,32.825781676999995,34.956179791,22.204,1.32,324.69,0.16,307255795,2172,1000,11111100,25,25,100,0.0,0,45,45,100828,20.46,0
149,271.70099999999996,2.423,-0.61,1.24263,-9.520010000000001,-11.43719,0.112186,0.029023,0.969126,5380.0,15960.0,3410.0,47.9,10.11,00000000 00000000,32.825746534000004,34.956237717,22.238,-0.32,-0.98,0.19,0.04,0.01,-2.35,-0.15,-0.04,-1.15,32.82578215,34.956179435,22.215,1.24,327.12,0.14,307255820,2172,1000,11111100,25,25,100,0.0,0,20,20,100828,20.46,3
150,271.985,2.441,-1.0090000000000001,-0.5533399999999999,-22.59846,-11.11123,0.11130599999999999,0.011073000000000001,0.977201,5430.0,15930.0,3380.0,47.9,10.11,00000000 00000000,32.825746315,34.956237631,22.243,-0.31,-0.96,0.19,0.04,0.01,-2.36,-0.14,-0.05,-1.12,32.82578215,34.956179435,22.215,1.24,327.12,0.14,307255845,2172,1000,11111100,25,25,100,0.0,0,45,45,100826,20.55,0
151,272.315,2.375,-1.607,-4.82097,-23.88124,-9.977839999999999,0.10623099999999999,0.007351000000000001,0.9827959999999999,5500.0,15920.0,3370.0,47.9,10.11,00000000 00000000,32.825746123,34.956237589000004,22.247,-0.31,-0.93,0.18,0.04,0.01,-2.37,-0.14,-0.06,-1.09,32.825782568,34.956179168,22.224,1.05,331.6,0.18,307255870,2172,1000,11111100,25,25,100,0.0,0,20,20,100826,20.55,3
152,272.55,2.222,-2.11,-7.1205,-16.72867,-8.19975,0.113293,0.019747,0.9828870000000001,5570.0,15920.0,3340.0,47.9,10.08,00000000 00000000,32.825745915,34.956237506,22.252,-0.3,-0.91,0.18,0.04,0.01,-2.38,-0.14,-0.06,-1.07,32.825782568,34.956179168,22.224,1.05,331.6,0.18,307255895,2172,1000,11111100,25,25,100,0.0,0,45,45,100826,20.55,0
153,272.748,2.063,-2.434,-6.35222,-10.21979,-6.93593,0.108571,0.032036,0.941008,5630.0,15930.0,3310.0,47.9,10.12,00000000 00000000,32.825745725,34.956237426,22.256,-0.3,-0.89,0.17,0.04,0.01,-2.39,-0.13,-0.06,-1.05,32.825782953,34.956178801,22.238,1.09,320.76,0.21,307255920,2172,1000,11111100,25,25,100,0.0,0,20,20,100826,20.55,3
154,272.907,1.8940000000000001,-2.647,-8.20637,-8.68404,-4.12409,0.10612100000000001,-0.006753,0.895541,5680.0,15950.0,3280.0,47.9,10.08,00000000 00000000,32.825745525,34.956237345,22.26,-0.29,-0.88,0.15,0.04,0.01,-2.4,-0.11,-0.07,-1.03,32.825782953,34.956178801,22.238,1.09,320.76,0.21,307255945,2172,1000,11111100,25,25,100,0.0,0,45,45,100826,20.55,0
155,272.947,1.675,-2.904,-8.87063,-11.60923,1.6516,0.094481,-0.00317,0.88089,5700.0,16000.0,3270.0,47.9,10.12,00000000 00000000,32.825745343,34.956237267,22.263,-0.28,-0.86,0.13,0.04,0.01,-2.41,-0.08,-0.08,-1.01,32.825783349,34.956178449,22.25,1.09,323.06,0.24,307255970,2172,1000,11111100,25,25,100,0.0,0,20,20,100828,20.46,3
156,272.923,1.473,-3.156,-6.70856,-7.027480000000001,-0.30885,0.056742999999999995,0.012916999999999998,0.88233,5730.0,16040.0,3230.0,47.9,10.07,00000000 00000000,32.82574515,34.956237191,22.266,-0.28,-0.85,0.1,0.04,0.01,-2.42,-0.06,-0.08,-1.0,32.825783349,34.956178449,22.25,1.09,323.06,0.24,307255995,2172,1000,11111100,25,25,100,0.0,0,45,45,100828,20.46,8
157,273.015,1.35,-3.219,-3.94265,1.71416,-6.337940000000001,0.031455000000000004,-0.0013779999999999999,0.87429,5730.0,16080.0,3260.0,47.9,10.11,00000000 00000000,32.825744957,34.956237115,22.268,-0.28,-0.85,0.07,0.04,0.01,-2.43,-0.03,-0.08,-1.0,32.825783728000005,34.95617813,22.251,1.09,323.06,0.24,307256020,2172,1000,11111100,25,25,100,0.0,0,20,70,100828,20.46,1
158,273.216,1.268,-3.114,-3.9327300000000003,4.9522900000000005,-7.81677,0.051441999999999995,-0.0039020000000000005,0.844355,5760.0,16080.0,3240.0,47.9,10.09,00000000 00000000,32.825744779000004,34.956237041,22.269,-0.27,-0.85,0.03,0.04,0.01,-2.44,0.0,-0.09,-1.0,32.825783728000005,34.95617813,22.251,1.03,324.13,-0.04,307256045,2172,1000,11111100,25,25,100,0.0,0,45,45,100828,20.38,2
159,273.39,1.167,-2.9989999999999997,-3.8532599999999997,3.52976,-3.4205,0.030201,0.012067,0.8607819999999999,5760.0,16080.0,3260.0,47.9,10.1,00000000 00000000,32.825744604,34.956236995,22.269,-0.27,-0.85,0.0,0.04,0.01,-2.44,0.03,-0.09,-1.0,32.825784107,34.956177925,22.25,0.92,335.45,-0.02,307256070,2172,1000,11111100,27,25,100,0.0,0,20,20,100828,20.38,3
160,273.403,1.093,-2.952,-2.0809,-0.12705,2.7177,0.007693000000000001,0.04892,0.9050090000000001,5760.0,16080.0,3280.0,47.9,10.07,00000000 00000000,32.825744411,34.956236921,22.268,-0.28,-0.86,-0.02,0.04,0.01,-2.45,0.06,-0.09,-1.0,32.825784107,34.956177925,22.25,0.92,335.45,-0.02,307256095,2172,1000,11111100,27,25,100,0.0,0,45,45,100828,20.46,0
161,273.286,1.031,-2.984,-1.63735,-1.20137,9.34572,-0.007126,0.077071,0.994057,5780.0,16080.0,3240.0,47.9,10.13,00000000 00000000,32.825744234,34.956236886,22.266,-0.29,-0.87,-0.04,0.04,0.01,-2.46,0.08,-0.08,-1.01,32.825784467,34.956177685,22.244,0.91,330.15,-0.18,307256120,2172,1000,11111100,27,25,100,0.0,0,20,20,100828,20.46,3
162,272.978,1.006,-2.977,1.73843,3.0734,14.47626,0.019183000000000002,0.097518,1.078136,5780.0,16090.0,3220.0,47.9,10.1,00000000 00000000,32.825744037,34.956236804,22.265,-0.31,-0.88,-0.03,0.04,0.01,-2.47,0.07,-0.06,-1.02,32.825784467,34.956177685,22.244,0.91,330.15,-0.18,307256145,2172,1000,11111100,27,25,100,0.0,0,45,45,100828,20.38,0
163,272.565,1.104,-2.832,7.61625,9.41133,18.82123,0.02853,0.0883,1.097385,5750.0,16110.0,3220.0,47.9,10.08,00000000 00000000,32.825743854,34.956236716999996,22.264,-0.33,-0.88,0.0,0.04,0.01,-2.47,0.05,-0.04,-1.02,32.825784807,34.956177369,22.227,0.95,321.84,-0.32,307256170,2172,1000,11111100,27,25,100,0.0,0,20,20,100828,20.38,3
164,271.999,1.306,-2.48,9.92563,20.48801,26.52911,-0.004019,0.070989,1.070459,5690.0,16130.0,3240.0,47.9,10.08,00000000 00000000,32.825743655,34.956236625,22.264,-0.34,-0.89,0.01,0.04,0.01,-2.48,0.02,-0.03,-1.03,32.825784807,34.956177369,22.227,0.95,321.84,-0.32,307256195,2172,1000,11111100,27,25,100,0.0,0,45,45,100830,20.29,0
165,271.259,1.5,-1.8230000000000002,7.888380000000001,32.07553,34.16558,-0.058677999999999994,0.051142,1.047605,5590.0,16140.0,3290.0,47.9,10.12,00000000 00000000,32.825743472,34.956236574,22.263,-0.36,-0.9,0.02,0.04,0.01,-2.49,0.01,-0.02,-1.04,32.825785132,34.956177093,22.235,0.89,323.9,0.07,307256220,2172,1000,11111100,27,25,100,0.0,0,20,20,100830,20.29,3
166,270.361,1.6230000000000002,-1.119,3.54927,22.538,36.02936,-0.039865,0.0035,1.110882,5450.0,16160.0,3320.0,47.9,10.07,00000000 00000000,32.825743265999996,34.956236476,22.264,-0.36,-0.92,0.04,0.04,0.02,-2.5,0.0,-0.02,-1.06,32.825785132,34.956177093,22.235,0.89,323.9,0.07,307256245,2172,1000,11111100,27,25,100,0.0,0,45,45,100828,20.38,0
